{"type":"FeatureCollection","features":[{"type":"Feature","properties":{"title":"Fachbereich Grünflächen (Betriebshof Kuhleshütte)","description":"Grünunterhaltungsbezirk II: Süd, Fischeln, Oppum, Linn; Baumüberwachung und Baumpflege","street":"Kuhleshütte 153","zip":47809,"city":"Krefeld","district":"Krefeld","tel":"02151/542061","fax":"","mail":"fb67@krefeld.de","web":"https://www.krefeld.de/de/gruenflaechen/ansprechpartner-gruenunterhaltungsbezirke/","lat":51.33094,"lng":6.601147},"geometry":{"type":"Point","coordinates":[6.601147,51.33094]}},{"type":"Feature","properties":{"title":"Kommunalbetrieb Krefeld AöR","description":"Anstalt des öffentlichen Rechts, Beseitigung des Abwassers","street":"St. Töniser Straße 270","zip":47804,"city":"Krefeld","district":"Krefeld","tel":"02151/864501","fax":"02151/864515","mail":"kommunalbetrieb@krefeld.de","web":"https://www.krefeld.de/de/stadtentwaesserung/","lat":51.327849,"lng":6.532754},"geometry":{"type":"Point","coordinates":[6.532754,51.327849]}},{"type":"Feature","properties":{"title":"Bürgerbüro Oppum","description":"Fachbereich Bürgerservice, montags bis freitags 8:00 -12:30 Uhr, montags bis mittwochs 14:00 - 16:00 Uhr, donnerstags 14:00 - 17:30 Uhr","street":"Hochfelder Straße 122","zip":47809,"city":"Krefeld","district":"Krefeld","tel":"02151/547051","fax":"02151/156147","mail":"fb31@krefeld.de","web":"https://www.krefeld.de/de/buergerservice/buergerbuero-oppum/","lat":51.32934,"lng":6.6113},"geometry":{"type":"Point","coordinates":[6.6113,51.32934]}},{"type":"Feature","properties":{"title":"Fachbereich Gesundheit","description":"Amtsäztlicher, Kinder- und Jugendäztlicher, Sozialpsychiatrischer und Zahnärztlicher Dienst, Infektions- und Gesundheitsschutz, Umwelthygiene, Mediziinal- und Heimaufsicht","street":"Gartenstraße 32","zip":47798,"city":"Krefeld","district":"Krefeld","tel":"02151/863502","fax":"02151/863552","mail":"gesundheitsamt@krefeld.de","web":"https://www.krefeld.de/gesundheit","lat":51.334868,"lng":6.559881},"geometry":{"type":"Point","coordinates":[6.559881,51.334868]}},{"type":"Feature","properties":{"title":"Fachbereich Ordnung","description":"Allgemeine Ordnungs- und Gewerbeangelegenheiten, Aufenthaltsrecht, Veterinär- und Lebensmittelüberwachung, Ermittlungs- und Vollzugsdienst, Fundbüro","street":"Am Hauptbahnhof 5","zip":47798,"city":"Krefeld","district":"Krefeld","tel":"02151/862201","fax":"02151/862325","mail":"fb32@krefeld.de","web":"https://www.krefeld.de/ordnung","lat":51.32665,"lng":6.570415},"geometry":{"type":"Point","coordinates":[6.570415,51.32665]}},{"type":"Feature","properties":{"title":"Fachbereich Zentrale Finanzsteuerung","description":"Beteiligungscontrolling, eigene Steuerangelegenheiten, Haushalt, Finanz-IT und zentrales Controlling, kaufmännisches Rechnungswesen","street":"Von-der-Leyen-Platz 1","zip":47798,"city":"Krefeld","district":"Krefeld","tel":"02151/861803","fax":"02151/861800","mail":"fb20@krefeld.de","web":"https://www.krefeld.de/finanzsteuerung","lat":51.334175,"lng":6.558935},"geometry":{"type":"Point","coordinates":[6.558935,51.334175]}},{"type":"Feature","properties":{"title":"Bürgerbüro Bockum","description":"Fachbereich Bürgerservice, montags bis freitags 8:00 -12:30 Uhr, montags bis mittwochs 14:00 - 16:00 Uhr, donnerstags 14:00 - 17:30 Uhr","street":"Uerdinger Straße 585","zip":47800,"city":"Krefeld","district":"Krefeld","tel":"02151/58790","fax":"","mail":"fb31@krefeld.de","web":"https://www.krefeld.de/de/buergerservice/buergerbuero-bockum","lat":51.345425,"lng":6.617999},"geometry":{"type":"Point","coordinates":[6.617999,51.345425]}},{"type":"Feature","properties":{"title":"Rathaus","description":"Hauptsitz der Stadterwaltung Krefeld, des Rates und des Oberbürgermesters","street":"Von-der-Leyen-Platz 1","zip":47798,"city":"Krefeld","district":"Krefeld","tel":"02151/860","fax":"","mail":"","web":"https://www.krefeld.de/verwaltung","lat":51.334062,"lng":6.55907},"geometry":{"type":"Point","coordinates":[6.55907,51.334062]}},{"type":"Feature","properties":{"title":"Standesamt","description":"Fachbereich Bürgerservice, Beurkundung von Geburten, Sterbefällen und Eheschließungen","street":"Rheinstraße 138","zip":47799,"city":"Krefeld","district":"Krefeld","tel":"02151/862351","fax":"02151/862370","mail":"standesamt@krefeld.de","web":"https://www.krefeld.de/standesamt","lat":51.332708,"lng":6.561265},"geometry":{"type":"Point","coordinates":[6.561265,51.332708]}},{"type":"Feature","properties":{"title":"Fachbereich Grünflächen (Betriebshof Bruchweg)","description":"Grünunterhaltungsbezirk IV: Elfrath, Gartenstadt, Uerdingen, Gellep-Stratum","street":"Bruchweg 15","zip":47829,"city":"Krefeld","district":"Krefeld","tel":"02151/155762","fax":"02151/155764","mail":"fb67@krefeld.de","web":"https://www.krefeld.de/de/gruenflaechen/ansprechpartner-gruenunterhaltungsbezirke/","lat":51.36983,"lng":6.630261},"geometry":{"type":"Point","coordinates":[6.630261,51.36983]}},{"type":"Feature","properties":{"title":"Bürgerbüro Uerdingen","description":"Fachbereich Bürgerservice, montags bis freitags 8:00 -12:30 Uhr, montags bis mittwochs 14:00 - 16:00 Uhr, donnerstags 14:00 - 17:30 Uhr","street":"Am Marktplatz 1","zip":47829,"city":"Krefeld","district":"Krefeld","tel":"02151/861621","fax":"","mail":"fb31@krefeld.de","web":"https://www.krefeld.de/de/buergerservice/buergerbuero-uerdingen/","lat":51.353905,"lng":6.649389},"geometry":{"type":"Point","coordinates":[6.649389,51.353905]}},{"type":"Feature","properties":{"title":"Fachbereich Bürgerservice","description":"Bürgerbüros, Melde- und Passwesen, Statistik und Wahlen","street":"Von-der-Leyen-Platz 1","zip":47798,"city":"Krefeld","district":"Krefeld","tel":"02151/861602","fax":"02151/861605","mail":"fb31@krefeld.de","web":"https://www.krefeld.de/buergerservice","lat":51.333721,"lng":6.558913},"geometry":{"type":"Point","coordinates":[6.558913,51.333721]}},{"type":"Feature","properties":{"title":"Fachbereich Soziales, Senioren und Wohnen","description":"Sozialhilfe und Unterhaltsvorschuss, Hilfen für Menschen mit Behinderungen, Seniorenangelegenheiten und Wohnen","street":"Von-der-Leyen-Platz 1","zip":47798,"city":"Krefeld","district":"Krefeld","tel":"02151/862901","fax":"02151/863145","mail":"fb50@krefeld.de","web":"https://www.krefeld.de/soziales","lat":51.333491,"lng":6.559007},"geometry":{"type":"Point","coordinates":[6.559007,51.333491]}},{"type":"Feature","properties":{"title":"Fachbereich Ordnung (Außenstelle Elbestraße)","description":"Straßenverkehrsangelegenheiten","street":"Elbestraße 7","zip":47800,"city":"Krefeld","district":"Krefeld","tel":"02151/36602164","fax":"02151/36602196","mail":"fb32@krefeld.de","web":"https://www.krefeld.de/ordnung","lat":51.35627,"lng":6.617267},"geometry":{"type":"Point","coordinates":[6.617267,51.35627]}},{"type":"Feature","properties":{"title":"Fachbereich Grünflächen (Betriebshof Plückertzstraße)","description":"Waldpflegebezirk Forstwald; geöffnet freitags 9:00 - 12:00 Uhr","street":"Plückertzstraße 140","zip":47804,"city":"Krefeld","district":"Krefeld","tel":"02151/312511","fax":"","mail":"fb67@krefeld.de","web":"https://www.krefeld.de/de/gruenflaechen/abteilung-wald-und-forstwirtschaft/","lat":51.300578,"lng":6.507429},"geometry":{"type":"Point","coordinates":[6.507429,51.300578]}},{"type":"Feature","properties":{"title":"Fachbereich Grünflächen (Betriebshof Schroersdyk)","description":"Waldpflegebezirk West; geöffnet freitags 9:00 - 12:00 Uhr","street":"Schroersdyk 62","zip":47803,"city":"Krefeld","district":"Krefeld","tel":"02151/753004","fax":"","mail":"fb67@krefeld.de","web":"https://www.krefeld.de/de/gruenflaechen/abteilung-wald-und-forstwirtschaft/","lat":51.355899,"lng":6.546523},"geometry":{"type":"Point","coordinates":[6.546523,51.355899]}},{"type":"Feature","properties":{"title":"Presse und Kommunikation","description":"Pressemitteilungen, Internetredaktion, Pressearchiv, Amtsblatt, Anzeigen und Bekanntmachungen","street":"Von-der-Leyen-Platz 1","zip":47798,"city":"Krefeld","district":"Krefeld","tel":"02151/861402","fax":"02151/861410","mail":"nachrichten@krefeld.de","web":"https://www.krefeld.de/presseamt","lat":51.333971,"lng":6.559037},"geometry":{"type":"Point","coordinates":[6.559037,51.333971]}},{"type":"Feature","properties":{"title":"Fachbereich Soziales, Senioren und Wohnen (Außenstelle Theaterplatz)","description":"Bildung und Teilhabe","street":"Theaterplatz 1","zip":47798,"city":"Krefeld","district":"Krefeld","tel":"02151/863179","fax":"02151/863165","mail":"fb50@krefeld.de","web":"https://www.krefeld.de/bildungspaket","lat":51.334549,"lng":6.564072},"geometry":{"type":"Point","coordinates":[6.564072,51.334549]}},{"type":"Feature","properties":{"title":"Bürgerbüro Hüls","description":"Fachbereich Bürgerservice, montags bis freitags 8:00 -12:30 Uhr, montags bis mittwochs 14:00 - 16:00 Uhr, donnerstags 14:00 - 17:30 Uhr","street":"Hülser Markt 11","zip":47839,"city":"Krefeld","district":"Krefeld","tel":"02151/74890","fax":"","mail":"fb31@krefeld.de","web":"https://www.krefeld.de/de/buergerservice/buergerbuero-huels/","lat":51.372795,"lng":6.508918},"geometry":{"type":"Point","coordinates":[6.508918,51.372795]}},{"type":"Feature","properties":{"title":"Bürgerbüro Mitte","description":"Fachbereich Bürgerservice, montags bis mittwochs 8:00 -16:00 Uhr, donnerstags 9:00 - 18:30 Uhr, freitags 8:00 - 12:30 Uhr","street":"Theaterplatz 1","zip":47798,"city":"Krefeld","district":"Krefeld","tel":"02151/861610","fax":"","mail":"fb31@krefeld.de","web":"https://www.krefeld.de/de/buergerservice/buergerbuero-mitte/","lat":51.334663,"lng":6.563622},"geometry":{"type":"Point","coordinates":[6.563622,51.334663]}},{"type":"Feature","properties":{"title":"Bürgerbüro Nord","description":"Fachbereich Bürgerservice, montags bis freitags 8:00 -12:30 Uhr, montags bis mittwochs 14:00 - 16:00 Uhr, donnerstags 14:00 - 17:30 Uhr","street":"Moritzplatz 8","zip":47803,"city":"Krefeld","district":"Krefeld","tel":"02151/756260","fax":"","mail":"fb31@krefeld.de","web":"https://www.krefeld.de/de/buergerservice/buergerbuero-nord/","lat":51.344309,"lng":6.548574},"geometry":{"type":"Point","coordinates":[6.548574,51.344309]}},{"type":"Feature","properties":{"title":"Bürgerbüro Süd","description":"Fachbereich Bürgerservice, montags bis freitags 8:00 -12:30 Uhr, montags bis mittwochs 14:00 - 16:00 Uhr, donnerstags 14:00 - 17:30 Uhr","street":"Virchowstraße 130","zip":47805,"city":"Krefeld","district":"Krefeld","tel":"02151/861650","fax":"02151/861655","mail":"fb31@krefeld.de","web":"https://www.krefeld.de/de/buergerservice/buergerbuero-sued/","lat":51.323149,"lng":6.572928},"geometry":{"type":"Point","coordinates":[6.572928,51.323149]}},{"type":"Feature","properties":{"title":"Bürgerbüro Traar","description":"Fachbereich Bürgerservice, montags bis donnerstags 8:00 -12:00 Uhr","street":"Kemmerhofstraße 321","zip":47802,"city":"Krefeld","district":"Krefeld","tel":"02151/564855","fax":"","mail":"fb31@krefeld.de","web":"https://www.krefeld.de/de/buergerservice/buergerbuero-traar/","lat":51.381022,"lng":6.599408},"geometry":{"type":"Point","coordinates":[6.599408,51.381022]}},{"type":"Feature","properties":{"title":"Fachbereich Bauaufsicht","description":"Besondere Bauaufsichtsverfahren und Bauberatung","street":"Parkstraße 10","zip":47829,"city":"Krefeld","district":"Krefeld","tel":"02151/36603900","fax":"02151/36603940","mail":"fb63@krefeld.de","web":"https://www.krefeld.de/bauaufsicht","lat":51.357477,"lng":6.642818},"geometry":{"type":"Point","coordinates":[6.642818,51.357477]}},{"type":"Feature","properties":{"title":"Fachbereich Grünflächen","description":"Anlage und Unterhaltunmg städtischer Grünflächen, Untere Landschaftsbehörde, Wald- und Forstwirtschaft, Kleingärten, Friedhöfe","street":"Mevissenstraße 65","zip":47803,"city":"Krefeld","district":"Krefeld","tel":"02151/864400","fax":"02151/864440","mail":"fb67@krefeld.de","web":"https://www.krefeld.de/gruenflaechen","lat":51.348575,"lng":6.532694},"geometry":{"type":"Point","coordinates":[6.532694,51.348575]}},{"type":"Feature","properties":{"title":"Fachbereich Jugendhilfe und Beschäftigungsförderung","description":"Kinder, Jugend, Familien, kommunale Zentralstelle für Beschäftigungsförderung","street":"Von-der-Leyen-Platz 1","zip":47798,"city":"Krefeld","district":"Krefeld","tel":"02151/863201","fax":"02151/863300","mail":"fb51@krefeld.de","web":"https://www.krefeld.de/jugend","lat":51.334581,"lng":6.558445},"geometry":{"type":"Point","coordinates":[6.558445,51.334581]}},{"type":"Feature","properties":{"title":"Fachbereich Rechnungsprüfung","description":"","street":"Von-der-Leyen-Platz 1","zip":47798,"city":"Krefeld","district":"Krefeld","tel":"02151/861451","fax":"02151/861460","mail":"fb14@krefeld.de","web":"https://www.krefeld.de/de/rechnungspruefung/14-fachbereich-rechnungspruefung/","lat":51.334169,"lng":6.558351},"geometry":{"type":"Point","coordinates":[6.558351,51.334169]}},{"type":"Feature","properties":{"title":"Fachbereich Schule, Pädagogischer und Psychologischer Dienst","description":"Schule und Zentrale Dienste, Schulamt der Stadt Krefeld, Pädagogischer Dienst, Kommunales Integrationszentrum, Hochschulfragen, Studienzentrum","street":"Petersstraße 118","zip":47798,"city":"Krefeld","district":"Krefeld","tel":"02151/862501","fax":"02151/862590","mail":"fb40@krefeld.de","web":"https://www.krefeld.de/de/schule/40-fachbereich-schule-paedagogischer-und-psychologischer-dienst/","lat":51.331432,"lng":6.565184},"geometry":{"type":"Point","coordinates":[6.565184,51.331432]}},{"type":"Feature","properties":{"title":"Gleichstellungsstelle","description":"","street":"Dionysiusplatz 9 a","zip":47799,"city":"Krefeld","district":"Krefeld","tel":"02151/862050","fax":"02151/862054","mail":"gleichstellung@krefeld.de","web":"https://www.krefeld.de/gleichstellung","lat":51.332534,"lng":6.561236},"geometry":{"type":"Point","coordinates":[6.561236,51.332534]}},{"type":"Feature","properties":{"title":"Fachbereich Stadtplanung","description":"Stadtentwicklung, Bauleitplanung und Stadterneuerung","street":"Parkstraße 10","zip":47829,"city":"Krefeld","district":"Krefeld","tel":"02151/36603701","fax":"02151/36603754","mail":"fb61@krefeld.de","web":"https://www.krefeld.de/stadtplanung","lat":51.357409,"lng":6.642472},"geometry":{"type":"Point","coordinates":[6.642472,51.357409]}},{"type":"Feature","properties":{"title":"Fachbereich Tiefbau","description":"Straßenplanung und -management, Zuschusswesen, Straßenbau und Verkehrstechnik","street":"Uerdinger Straße 204","zip":47799,"city":"Krefeld","district":"Krefeld","tel":"02151/36604201","fax":"02151/36604280","mail":"fb66@krefeld.de","web":"https://www.krefeld.de/tiefbau","lat":51.33837,"lng":6.584211},"geometry":{"type":"Point","coordinates":[6.584211,51.33837]}},{"type":"Feature","properties":{"title":"Fachbereich Vermessungs- und Katasterwesen","description":"Vermessungen, Liegenschaftskataster, Geodaten, Ortsbaurecht, Grundstücksbewertung, Bodenordnung, städtebauliche Maßnahmen","street":"Friedrichstraße 25","zip":47798,"city":"Krefeld","district":"Krefeld","tel":"02151/36603801","fax":"02151/36603835","mail":"fb62@krefeld.de","web":"https://www.krefeld.de/fb62","lat":51.334443,"lng":6.561716},"geometry":{"type":"Point","coordinates":[6.561716,51.334443]}},{"type":"Feature","properties":{"title":"Fachbereich Verwaltungssteuerung und -service (Außenstelle)","description":"Haus- und Botendienst, Druckservice, Informationstechnik und Telekommunikation","street":"Konrad-Adenauer-Platz 17","zip":47803,"city":"Krefeld","district":"Krefeld","tel":"02151/36601302","fax":"02151/36601340","mail":"fb10@krefeld.de","web":"https://www.krefeld.de/fb10","lat":51.339927,"lng":6.544394},"geometry":{"type":"Point","coordinates":[6.544394,51.339927]}},{"type":"Feature","properties":{"title":"Bürgerbüro Fischeln","description":"Fachbereich Bürgerservice, montags bis freitags 8:00 -12:30 Uhr, montags bis mittwochs 14:00 - 16:00 Uhr, donnerstags 14:00 - 17:30 Uhr","street":"Kölner Straße 517","zip":47805,"city":"Krefeld","district":"Krefeld","tel":"02151/30900","fax":"","mail":"fb31@krefeld.de","web":"https://www.krefeld.de/de/buergerservice/buergerbuero-fischeln/","lat":51.305458,"lng":6.586775},"geometry":{"type":"Point","coordinates":[6.586775,51.305458]}},{"type":"Feature","properties":{"title":"Kulturbüro","description":"Städtisches Institut zur Organisation und Förderung kultureller Veranstaltungen, Betreiben des Kulturzentrums Fabrik Heeder und des KRESCHtheaters","street":"Friedrich-Ebert-Straße 42","zip":47799,"city":"Krefeld","district":"Krefeld","tel":"02151/58360","fax":"02151/583625","mail":"kultur@krefeld.de","web":"https://www.krefeld.de/kulturbuero","lat":51.341253,"lng":6.58015},"geometry":{"type":"Point","coordinates":[6.58015,51.341253]}},{"type":"Feature","properties":{"title":"Büro Oberbürgermeister","description":"","street":"Von-der-Leyen-Platz 1","zip":47798,"city":"Krefeld","district":"Krefeld","tel":"02151/861003","fax":"","mail":"oberbuergermeister@krefeld.de","web":"https://www.krefeld.de/oberbuergermeister","lat":51.334047,"lng":6.558969},"geometry":{"type":"Point","coordinates":[6.558969,51.334047]}},{"type":"Feature","properties":{"title":"Fachbereich Recht","description":"Juristischer Dienst, Versicherungsangelegenheiten, Vergabe- und Vertragswesen","street":"Von-der-Leyen-Platz 1","zip":47798,"city":"Krefeld","district":"Krefeld","tel":"02151/862102","fax":"02151/862110","mail":"fb30@krefeld.de","web":"https://www.krefeld.de/recht","lat":51.33445,"lng":6.558856},"geometry":{"type":"Point","coordinates":[6.558856,51.33445]}},{"type":"Feature","properties":{"title":"Stadtarchiv","description":"Sammlung historischer Dokumente der Stadt, geöffnet montags 13:00 - 16:00 Uhr, dienstags und mittwochs 8:30 - 16:00 Uhr, donnerstags 8:30 - 17:30 Uhr, freitags 8:30 - 13:00 Uhr","street":"Girmesgath 120","zip":47803,"city":"Krefeld","district":"Krefeld","tel":"02151/862701","fax":"02151/862710","mail":"stadtarchiv@krefeld.de","web":"https://www.krefeld.de/stadtarchiv","lat":51.340634,"lng":6.546233},"geometry":{"type":"Point","coordinates":[6.546233,51.340634]}},{"type":"Feature","properties":{"title":"Marketing und Stadtentwicklung (Außenstelle)","description":"Büro des Rates, Stadt- und Regionalentwicklung","street":"Von-der-Leyen-Platz 1","zip":47798,"city":"Krefeld","district":"Krefeld","tel":"02151/861552","fax":"02151/861560","mail":"fb05@krefeld.de","web":"https://www.krefeld.de/de/stadtmarketing/05-marketing-und-stadtentwicklung/","lat":51.333923,"lng":6.559059},"geometry":{"type":"Point","coordinates":[6.559059,51.333923]}},{"type":"Feature","properties":{"title":"Marketing und Stadtentwicklung","description":"Stadtmarketing","street":"Lewerentzstraße 104","zip":47798,"city":"Krefeld","district":"Krefeld","tel":"02151/36601091","fax":"02151/36601095","mail":"fb05@krefeld.de","web":"https://www.krefeld.de/stadtmarketing","lat":51.325565,"lng":6.559716},"geometry":{"type":"Point","coordinates":[6.559716,51.325565]}},{"type":"Feature","properties":{"title":"Gesamtpersonalrat der Stadt Krefeld","description":"Personalvertretung der städtischen Mitarbeiterinnen und Mitarbeiter","street":"Mevissenstraße 65","zip":47803,"city":"Krefeld","district":"Krefeld","tel":"02151/861291","fax":"","mail":"christine.flohr@krefeld.de","web":"https://www.krefeld.de","lat":51.348614,"lng":6.532379},"geometry":{"type":"Point","coordinates":[6.532379,51.348614]}},{"type":"Feature","properties":{"title":"Fachbereich Tiefbau (Außenstelle St. Töniser Straße)","description":"Verkehrstechnik und Sicherung, Straßenunterhaltung","street":"St. Töniser Straße 124","zip":47804,"city":"Krefeld","district":"Krefeld","tel":"02151/36604304","fax":"","mail":"fb66@krefeld.de","web":"https://www.krefeld.de/de/tiefbau/strassenbau-und-erhaltung-verkehrstechnik/","lat":51.328123,"lng":6.54061},"geometry":{"type":"Point","coordinates":[6.54061,51.328123]}},{"type":"Feature","properties":{"title":"Fachbereich Ordnung (Außenstelle Konrad-Adenauer-Platz)","description":"Ermittlungs- und Vollzugsdienst","street":"Konrad-Adenauer-Platz 17","zip":47803,"city":"Krefeld","district":"Krefeld","tel":"","fax":"","mail":"fb32@krefeld.de","web":"https://www.krefeld.de/ordnung","lat":51.339559,"lng":6.545175},"geometry":{"type":"Point","coordinates":[6.545175,51.339559]}},{"type":"Feature","properties":{"title":"Fachbereich Grünflächen (Außenstelle Heideckstraße)","description":"Friedhofsverwaltung; geöffnet montags bis freitags 8:00 - 12:30 Uhr, montags bis mittwochs 14:00 - 16:00 Uhr, donnerstags 14:00 - 17:30 Uhr","street":"Heideckstraße 127","zip":47805,"city":"Krefeld","district":"Krefeld","tel":"02151/864451","fax":"02151/864470","mail":"fb67@krefeld.de","web":"https://www.krefeld.de/de/gruenflaechen/friedhoefe/","lat":51.314736,"lng":6.553537},"geometry":{"type":"Point","coordinates":[6.553537,51.314736]}},{"type":"Feature","properties":{"title":"Kunstmuseen Krefeld","description":"Verwaltung der Kunstmuseen","street":"Joseph-Beuys-Platz 1","zip":47798,"city":"Krefeld","district":"Krefeld","tel":"02151/975580","fax":"02151/97558222","mail":"kunstmuseen@krefeld.de","web":"http://www.kunstmuseenkrefeld.de/","lat":51.330082,"lng":6.559189},"geometry":{"type":"Point","coordinates":[6.559189,51.330082]}},{"type":"Feature","properties":{"title":"Stadtrat","description":"Büro des Rates, Ratsfraktionen und -gruppen","street":"Von-der-Leyen-Platz 1","zip":47798,"city":"Krefeld","district":"Krefeld","tel":"02151/861551","fax":"","mail":"karsten.schueller@krefeld.de","web":"https://www.krefeld.de/rat/","lat":51.334111,"lng":6.558971},"geometry":{"type":"Point","coordinates":[6.558971,51.334111]}},{"type":"Feature","properties":{"title":"Fachbereich Sport und Bäder (Betriebshof)","description":"Unterhaltung der städtischen Sportstätten","street":"Violstraße 31","zip":47800,"city":"Krefeld","district":"Krefeld","tel":"02151/501192","fax":"","mail":"sportundbaeder@krefeld.de","web":"https://www.krefeld.de/sportundbaeder","lat":51.337443,"lng":6.601682},"geometry":{"type":"Point","coordinates":[6.601682,51.337443]}},{"type":"Feature","properties":{"title":"Flüchtlingskoordination","description":"Geschäftsbereich III","street":"St.-Anton-Straße 69","zip":47798,"city":"Krefeld","district":"Krefeld","tel":"02151/6584211","fax":"02151/6584225","mail":"flueko@krefeld.de","web":"https://www.krefeld.de/fluechtlinge","lat":51.333724,"lng":6.559746},"geometry":{"type":"Point","coordinates":[6.559746,51.333724]}},{"type":"Feature","properties":{"title":"Fachbereich Sport und Bäder","description":"Sportförderung, Betrieb der städtischen Sportstätten","street":"Girmesgath 135","zip":47803,"city":"Krefeld","district":"Krefeld","tel":"02151/863401","fax":"02151/863420","mail":"sportundbaeder@krefeld.de","web":"https://www.krefeld.de/sportundbaeder","lat":51.33978,"lng":6.542918},"geometry":{"type":"Point","coordinates":[6.542918,51.33978]}},{"type":"Feature","properties":{"title":"Fachbereich Zentraler Finanzservice und Liegenschaften (Nebeneingang Hansastraße)","description":"Finanzbuchhaltung, Liegenschaften, Märkte","street":"Hansastraße 105","zip":47798,"city":"Krefeld","district":"Krefeld","tel":"02151/36601701","fax":"02151/36601740","mail":"fb21@krefeld.de","web":"https://www.krefeld.de/fb21","lat":51.326425,"lng":6.568022},"geometry":{"type":"Point","coordinates":[6.568022,51.326425]}},{"type":"Feature","properties":{"title":"Fachbereich Verwaltungssteuerung und -service","description":"Zentrale Personal- und Organisationssteuerung, zentrale Dienste und Personalservice","street":"St. Töniser Straße 60","zip":47803,"city":"Krefeld","district":"Krefeld","tel":"02151/36601302","fax":"02151/36601340","mail":"fb10@krefeld.de","web":"https://www.krefeld.de/fb10","lat":51.330111,"lng":6.544272},"geometry":{"type":"Point","coordinates":[6.544272,51.330111]}},{"type":"Feature","properties":{"title":"Umlegungsausschuss für die Stadt Krefeld","description":"Unabhängiges Gremium für Bodenordnung in der Stadt Krefeld","street":"Friedrichstraße 25","zip":47798,"city":"Krefeld","district":"Krefeld","tel":"02151/36603872","fax":"02151/36603835","mail":"umlegungsausschuss@krefeld.de","web":"https://www.krefeld.de/umlegungsausschuss","lat":51.334522,"lng":6.562149},"geometry":{"type":"Point","coordinates":[6.562149,51.334522]}},{"type":"Feature","properties":{"title":"Fachbereich Zentraler Finanzservice und Liegenschaften","description":"Steuern und Abgaben","street":"Petersstraße 9","zip":47798,"city":"Krefeld","district":"Krefeld","tel":"02151/36601701","fax":"02151/36601740","mail":"fb21@krefeld.de","web":"https://www.krefeld.de/fb21","lat":51.326884,"lng":6.567754},"geometry":{"type":"Point","coordinates":[6.567754,51.326884]}},{"type":"Feature","properties":{"title":"Fachbereich Jugendhilfe und Beschäftigungsförderung (Außenstelle Alte Krefelder Straße)","description":"Bezirkssozialarbeit","street":"Alte Krefelder Straße 2","zip":47829,"city":"Krefeld","district":"Krefeld","tel":"02151/863297","fax":"02151/863355","mail":"fb51@krefeld.de","web":"https://www.krefeld.de/jugend","lat":51.353808,"lng":6.648743},"geometry":{"type":"Point","coordinates":[6.648743,51.353808]}},{"type":"Feature","properties":{"title":"Fachbereich Ordnung (Außenstelle Hansastraße)","description":"Bußgeldangelegenheiten","street":"Hansastraße 32","zip":47799,"city":"Krefeld","district":"Krefeld","tel":"02151/862305","fax":"02151/862309","mail":"fb32@krefeld.de","web":"https://www.krefeld.de/ordnung","lat":51.327148,"lng":6.571756},"geometry":{"type":"Point","coordinates":[6.571756,51.327148]}},{"type":"Feature","properties":{"title":"Fachbereich Grünflächen (Betriebshof Neuer Weg)","description":"Grünunterhaltungsbezirk I: West, Nord, Hüls, Mitte","street":"Neuer Weg 70 a","zip":47803,"city":"Krefeld","district":"Krefeld","tel":"02151/659615","fax":"02151/864617","mail":"fb67@krefeld.de","web":"https://www.krefeld.de/de/gruenflaechen/ansprechpartner-gruenunterhaltungsbezirke/","lat":51.339093,"lng":6.549717},"geometry":{"type":"Point","coordinates":[6.549717,51.339093]}},{"type":"Feature","properties":{"title":"Fachbereich Zentrales Gebäudemanagement","description":"Neubau und Unterhaltung städtischer Gebäude","street":"Mevissenstraße 65","zip":47803,"city":"Krefeld","district":"Krefeld","tel":"02151/864103","fax":"02151/864150","mail":"fb60@krefeld.de","web":"https://www.krefeld.de/gebaeudemanagement","lat":51.34881,"lng":6.532312},"geometry":{"type":"Point","coordinates":[6.532312,51.34881]}},{"type":"Feature","properties":{"title":"Fachbereich Soziales, Senioren und Wohnen (Außenstelle Konrad-Adenauer-Platz)","description":"Unterhaltsangelegenheiten","street":"Konrad-Adenauer-Platz 17","zip":47803,"city":"Krefeld","district":"Krefeld","tel":"02151/863070","fax":"02151/863099","mail":"fb50@krefeld.de","web":"https://www.krefeld.de/soziales","lat":51.339738,"lng":6.544776},"geometry":{"type":"Point","coordinates":[6.544776,51.339738]}},{"type":"Feature","properties":{"title":"Fachbereich Jugendhilfe und Beschäftigungsförderung (Außenstelle St.-Anton-Straße)","description":"Hilfen für junge Menschen und ihre Familien","street":"St.-Anton-Straße 69","zip":47798,"city":"Krefeld","district":"Krefeld","tel":"02151/863201","fax":"","mail":"fb51@krefeld.de","web":"https://www.krefeld.de/jugend","lat":51.333695,"lng":6.559606},"geometry":{"type":"Point","coordinates":[6.559606,51.333695]}},{"type":"Feature","properties":{"title":"Fachbereich Jugendhilfe und Beschäftigungsförderung (Außenstelle Uerdinger Straße)","description":"Adoptions- und Pflegekinderwesen","street":"Uerdinger Straße 585","zip":47800,"city":"Krefeld","district":"Krefeld","tel":"02151/5075919","fax":"","mail":"fb51@krefeld.de","web":"https://www.krefeld.de/de/dienstleistungen/pflegekinderdienst-und-adoptionsvemittlung/","lat":51.34542,"lng":6.61813},"geometry":{"type":"Point","coordinates":[6.61813,51.34542]}},{"type":"Feature","properties":{"title":"Fachbereich Umwelt","description":"Wasser und Altlasten, Abfall, Straßenreinigung, Immissionsschutz","street":"Elbestraße 7","zip":47800,"city":"Krefeld","district":"Krefeld","tel":"02151/36602401","fax":"02151/36602430","mail":"umwelt@krefeld.de","web":"https://www.krefeld.de/umwelt","lat":51.356283,"lng":6.617063},"geometry":{"type":"Point","coordinates":[6.617063,51.356283]}},{"type":"Feature","properties":{"title":"Fachbereich Jugendhilfe und Beschäftigungsförderung (Außenstelle Gartenstraße)","description":"Amtsvormundschaften und Beistandschaften, frühe Hilfen und Kindeswohl","street":"Gartenstraße 32","zip":47798,"city":"Krefeld","district":"Krefeld","tel":"02151/863201","fax":"02151/863300","mail":"fb51@krefeld.de","web":"https://www.krefeld.de/jugend","lat":51.334892,"lng":6.560021},"geometry":{"type":"Point","coordinates":[6.560021,51.334892]}},{"type":"Feature","properties":{"title":"Fachbereich Grünflächen (Betriebshof Hüttenallee)","description":"Grünunterhaltungsbezirk III: Traar, Verberg, Bockum; Waldpflegebezirk Ost","street":"Hüttenallee 245","zip":47800,"city":"Krefeld","district":"Krefeld","tel":"02151/590518","fax":"","mail":"fb67@krefeld.de","web":"https://www.krefeld.de/gruenflaechen","lat":51.358106,"lng":6.597962},"geometry":{"type":"Point","coordinates":[6.597962,51.358106]}},{"type":"Feature","properties":{"title":"Fachbereich Jugendhilfe und Beschäftigungsförderung (Außenstelle Virchowstraße)","description":"Hilfen für junge Menschen und ihre Familien, Bezirkssozialarbeit, Beschäftigunmgsförderung Erwachsene","street":"Virchowstraße 128","zip":47805,"city":"Krefeld","district":"Krefeld","tel":"02151/863310","fax":"02151/863353","mail":"fb51@krefeld.de","web":"https://www.krefeld.de/jugend","lat":51.322856,"lng":6.573246},"geometry":{"type":"Point","coordinates":[6.573246,51.322856]}},{"type":"Feature","properties":{"title":"Fachbereich Grünflächen (Betriebshof Heideckstraße)","description":"Hauptfriedhof","street":"Heideckstraße","zip":47805,"city":"Krefeld","district":"Krefeld","tel":"02151/362432","fax":"","mail":"fb67@krefeld.de","web":"https://www.krefeld.de/de/gruenflaechen/friedhoefe/","lat":51.315913,"lng":6.553417},"geometry":{"type":"Point","coordinates":[6.553417,51.315913]}},{"type":"Feature","properties":{"title":"Fachbereich Soziales, Senioren und Wohnen (Außenstelle Carl-Wilhelm-Straße)","description":"Pflege und Wohnberatung","street":"Carl-Wilhelm-Straße            31","zip":47798,"city":"Krefeld","district":"Krefeld","tel":"02151/863116","fax":"02151/863314","mail":"fb50@krefeld.de","web":"https://www.krefeld.de/soziales","lat":51.334463,"lng":6.560372},"geometry":{"type":"Point","coordinates":[6.560372,51.334463]}},{"type":"Feature","properties":{"title":"Fachbereich Schule, Pädagogischer und Psychologischer Dienst (Außenstelle Petersstraße 122)","description":"Psychologischer Dienst, offene Sprechstunden für Eltern und Jugendliche: montags 9:00 - 11:00 Uhr, donnerstags 13:00 - 15:00 Uhr","street":"Petersstraße 122","zip":47798,"city":"Krefeld","district":"Krefeld","tel":"02151/3632670","fax":"02151/36326730","mail":"psycholog.dienst@krefeld.de","web":"https://www.krefeld.de/de/dienstleistungen/psychologischer-dienst/","lat":51.332289,"lng":6.564771},"geometry":{"type":"Point","coordinates":[6.564771,51.332289]}}]}