{"type":"FeatureCollection","features":[{"type":"Feature","properties":{"title":"Amtsgericht Krefeld (Nebengebäude)","description":"Auslands-, Nachlass-, Betreuungssachen, Kirchenaustritte, Hinterlegung, Grundbuch, Handelsregister, Beratungshilfe, Zwangsvollstreckung, Zwangsversteigerung","street":"Preußenring 49","zip":47798,"city":"Krefeld","district":"Krefeld","tel":"02151/8470","fax":"02151/847661","mail":"poststelle@ag-krefeld.nrw.de","web":"http://www.ag-krefeld.nrw.de/","lat":51.33375,"lng":6.550408},"geometry":{"type":"Point","coordinates":[6.550408,51.33375]}},{"type":"Feature","properties":{"title":"Jobcenter Krefeld","description":"","street":"Fütingsweg 34","zip":47805,"city":"Krefeld","district":"Krefeld","tel":"02151/70480","fax":"02151/7048120","mail":"jobcenter-krefeld@jobcenter-ge.de","web":"http://www.jobcenter-krefeld.de/","lat":51.321678,"lng":6.577819},"geometry":{"type":"Point","coordinates":[6.577819,51.321678]}},{"type":"Feature","properties":{"title":"Geologischer Dienst Nordrhein-Westfalen","description":"Landesbetrieb; Geschäftsbereiche: Geowissenschaftliche Landesaufnahme, Geo-Informationssystem, Raumordnung, Rohstoffsicherung, Gefahrenabwehr, Zentrale Dienste","street":"De-Greiff-Straße 195","zip":47803,"city":"Krefeld","district":"Krefeld","tel":"02151/8970","fax":"02151/897505","mail":"poststelle@gd.nrw.de","web":"http://www.gd.nrw.de/","lat":51.340453,"lng":6.536048},"geometry":{"type":"Point","coordinates":[6.536048,51.340453]}},{"type":"Feature","properties":{"title":"Hauptzollamt Krefeld","description":"Zollverwaltung der Bundesrepublik Deutschland, zuständig für Krefeld, Mönchengladbach, Rhein-Kreis Neuss, Kreis Viersen, Kamp-Lintfort, Moers, Neukirchen-Vluyn, Rheinberg und Alpen","street":"Medienstraße 1","zip":47807,"city":"Krefeld","district":"Krefeld","tel":"02151/8500","fax":"02151/850111","mail":"poststelle.hza-krefeld@zoll.bund.de","web":"http://www.zoll.de/SharedDocs/Dienststellen/DE/1_DSSD_Importer/Hauptzollamt/HZA_Krefeld/HZA_Krefeld_2900/HZA_Krefeld_2900.html?bcnn=121952","lat":51.295667,"lng":6.563471},"geometry":{"type":"Point","coordinates":[6.563471,51.295667]}},{"type":"Feature","properties":{"title":"Staatsanwaltschaft Krefeld","description":"","street":"Preußenring 49","zip":47798,"city":"Krefeld","district":"Krefeld","tel":"02151/8470","fax":"02151/847668","mail":"poststelle@sta-krefeld.nrw.de","web":"http://www.sta-krefeld.nrw.de/","lat":51.333487,"lng":6.550281},"geometry":{"type":"Point","coordinates":[6.550281,51.333487]}},{"type":"Feature","properties":{"title":"Technisches Hilfswerk (THW)","description":"Ortsverband Krefeld der Bundesanstalt Technisches Hilfswerk","street":"Parkstraße 47","zip":47829,"city":"Krefeld","district":"Krefeld","tel":"02151/474573","fax":"02151/474308","mail":"ov@thw-krefeld.de","web":"http://thw-krefeld.de/","lat":51.357596,"lng":6.64114},"geometry":{"type":"Point","coordinates":[6.64114,51.357596]}},{"type":"Feature","properties":{"title":"Landesbetrieb Straßenbau NRW","description":"Autobahnniederlassung Krefeld","street":"Hansastraße 2","zip":47799,"city":"Krefeld","district":"Krefeld","tel":"02151/8190","fax":"02151/819420","mail":"kontakt.anl.kr@strassen.nrw.de","web":"https://www.strassen.nrw.de/unternehmen/einrichtungen/niederlassungen/krefeld.html","lat":51.327764,"lng":6.574397},"geometry":{"type":"Point","coordinates":[6.574397,51.327764]}},{"type":"Feature","properties":{"title":"Landgericht Krefeld","description":"","street":"Nordwall 131","zip":47798,"city":"Krefeld","district":"Krefeld","tel":"02151/8470","fax":"02151/847683","mail":"poststelle@lg-krefeld.nrw.de","web":"http://www.lg-krefeld.nrw.de/","lat":51.335238,"lng":6.552267},"geometry":{"type":"Point","coordinates":[6.552267,51.335238]}},{"type":"Feature","properties":{"title":"Chemisches und Veterinäruntersuchungsamt Rhein-Ruhr-Wupper (CVUA-RRW)","description":"Amtliches Laboratorium im Bereich des Verbraucherschutzes, Untersuchung von Lebensmitteln, Futtermitteln, kosmetischen Produkten und Gegenständen des täglichen Bedarfs, Untersuchung von Tieren","street":"Deutscher Ring 100","zip":47798,"city":"Krefeld","district":"Krefeld","tel":"02151/8490","fax":"02151/8494042","mail":"poststelle@cvua-rrw.de","web":"http://www.cvua-rrw.de/","lat":51.323888,"lng":6.557309},"geometry":{"type":"Point","coordinates":[6.557309,51.323888]}},{"type":"Feature","properties":{"title":"Zollamt Uerdingen","description":"","street":"Am Zollhof 7","zip":47829,"city":"Krefeld","district":"Krefeld","tel":"02151/48330","fax":"02151/483344","mail":"poststelle.za-uerdingen@zoll.bund.de","web":"http://www.zoll.de/SharedDocs/Dienststellen/DE/1_DSSD_Importer/Hauptzollamt/HZA_Krefeld/ZA/ZA_Uerdingen_2903/ZA_Uerdingen_2903.html?bcnn=121952","lat":51.357069,"lng":6.651274},"geometry":{"type":"Point","coordinates":[6.651274,51.357069]}},{"type":"Feature","properties":{"title":"Agentur für Arbeit Krefeld","description":"Bundesagentur für Arbeit","street":"Philadelphiastraße 2","zip":47799,"city":"Krefeld","district":"Krefeld","tel":"08004/555500","fax":"02151/922400","mail":"krefeld@arbeitsagentur.de","web":"http://www.arbeitsagentur.de/krefeld","lat":51.328706,"lng":6.5738},"geometry":{"type":"Point","coordinates":[6.5738,51.328706]}},{"type":"Feature","properties":{"title":"Amtsgericht Krefeld","description":"Anweisungs-, Rechtsantrag-, Gerichtsvollzieherverteilerstelle, Familien-,  Isolvenz-, Straf-, Ordnungswidrigkeits-, Zivilsachen, Gerichtskasse, Verwaltung","street":"Nordwall 131","zip":47798,"city":"Krefeld","district":"Krefeld","tel":"02151/8470","fax":"02151/847661","mail":"poststelle@ag-krefeld.nrw.de","web":"http://www.ag-krefeld.nrw.de/","lat":51.335099,"lng":6.551527},"geometry":{"type":"Point","coordinates":[6.551527,51.335099]}},{"type":"Feature","properties":{"title":"Arbeitsgericht Krefeld","description":"","street":"Preußenring 49","zip":47798,"city":"Krefeld","district":"Krefeld","tel":"02151/8470","fax":"02151/847682","mail":"poststelle@arbg-krefeld.nrw.de","web":"http://www.arbg-krefeld.nrw.de/","lat":51.333619,"lng":6.550343},"geometry":{"type":"Point","coordinates":[6.550343,51.333619]}},{"type":"Feature","properties":{"title":"Jobcenter Krefeld (Nebengebäude)","description":"","street":"Philadelphiastraße 2","zip":47799,"city":"Krefeld","district":"Krefeld","tel":"02151/70480","fax":"02151/7048120","mail":"jobcenter-krefeld@jobcenter-ge.de","web":"http://www.jobcenter-krefeld.de/","lat":51.328578,"lng":6.573323},"geometry":{"type":"Point","coordinates":[6.573323,51.328578]}},{"type":"Feature","properties":{"title":"Deutsche Rentenversicherung Rheinland","description":"Service-Zentrum Krefeld","street":"Grenzstraße 140","zip":47799,"city":"Krefeld","district":"Krefeld","tel":"02151/53401","fax":"02151/5341961","mail":"service-zentrum.krefeld@drv-rheinland.de","web":"http://www.deutsche-rentenversicherung.de/Rheinland/de/Navigation/5_Services/01_Kontakt_und_Beratung/02_beratung/01_service_zentren/krefeld_node.html","lat":51.340916,"lng":6.583417},"geometry":{"type":"Point","coordinates":[6.583417,51.340916]}},{"type":"Feature","properties":{"title":"Finanzamt Krefeld","description":"Finanzverwaltung Nordrhein-Westfalen","street":"Grenzstraße 100","zip":47799,"city":"Krefeld","district":"Krefeld","tel":"02151/8540","fax":"0800/10092675117","mail":"","web":"http://www.finanzamt-krefeld.de/","lat":51.339026,"lng":6.584602},"geometry":{"type":"Point","coordinates":[6.584602,51.339026]}},{"type":"Feature","properties":{"title":"Grundbuchamt","description":"Amtsgericht Krefeld, Abteilung 44, zuständig für Krefeld und Willich","street":"Preußenring 49","zip":47798,"city":"Krefeld","district":"Krefeld","tel":"02151/847105","fax":"02151/847552","mail":"poststelle@ag-krefeld.nrw.de","web":"http://www.ag-krefeld.nrw.de/aufgaben/abteilungen/Grundbuchamt/index.php","lat":51.333867,"lng":6.55081},"geometry":{"type":"Point","coordinates":[6.55081,51.333867]}},{"type":"Feature","properties":{"title":"Finanzamt für Groß- und Konzernbetriebsprüfung Krefeld","description":"Finanzverwaltung Nordrhein-Westfalen","street":"De-Greiff-Straße 199","zip":47803,"city":"Krefeld","district":"Krefeld","tel":"02151/36500","fax":"0800/10092675173","mail":"","web":"http://www.steuerfahndung.nrw.de/allgemein/eckdaten/fa173.php","lat":51.339953,"lng":6.536724},"geometry":{"type":"Point","coordinates":[6.536724,51.339953]}},{"type":"Feature","properties":{"title":"Hauptzollamt Krefeld (Nebengebäude)","description":"Finanzkontrolle Schwarzarbeit","street":"Gatherhofstraße 101b","zip":47804,"city":"Krefeld","district":"Krefeld","tel":"02151/72992500","fax":"02151/72992522","mail":"fks-krefeld.hza-krefeld@zoll.bund.de","web":"http://www.zoll.de/SharedDocs/Dienststellen/DE/1_DSSD_Importer/Hauptzollamt/HZA_Krefeld/HZA_Krefeld_2900/HZA_Krefeld_2900.html?bcnn=121952","lat":51.32326,"lng":6.52547},"geometry":{"type":"Point","coordinates":[6.52547,51.32326]}},{"type":"Feature","properties":{"title":"Gutachterausschuss für Grundstückswerte in der Stadt Krefeld","description":"Kollegialgremium als Einrichtung des Landes, das Verkehrswertgutachten erstellt und den Krefelder Grundstücks- und Immobilienmarkt transparent macht","street":"Friedrichstraße 25","zip":47798,"city":"Krefeld","district":"Krefeld","tel":"02151/36603868","fax":"02151/36603835","mail":"gutachterausschuss@krefeld.de","web":"http://www.gars.nrw.de/ga-krefeld/","lat":51.334485,"lng":6.561939},"geometry":{"type":"Point","coordinates":[6.561939,51.334485]}}]}