{"type":"FeatureCollection","features":[{"type":"Feature","properties":{"title":"Mobilfunksendemast Stockweg (Stellwerk)","description":"Sendemast","street":"Stockweg (Stellwerk)","zip":47804,"city":"Krefeld","district":"Krefeld","tel":"","fax":"","mail":"","web":"http://emf2.bundesnetzagentur.de/","lat":51.300717,"lng":6.49514},"geometry":{"type":"Point","coordinates":[6.49514,51.300717]}},{"type":"Feature","properties":{"title":"Mobilfunksendemast Hermann-Schumacher-Str. 42","description":"","street":"Hermann-Schumacher-Str. 42","zip":47804,"city":"Krefeld","district":"Krefeld","tel":"","fax":"","mail":"","web":"http://emf2.bundesnetzagentur.de/","lat":51.297471,"lng":6.50401},"geometry":{"type":"Point","coordinates":[6.50401,51.297471]}},{"type":"Feature","properties":{"title":"Mobilfunksendemast Max-Planck_Str. 12","description":"","street":"Max-Planck-Str. 12","zip":47829,"city":"Krefeld","district":"Krefeld","tel":"","fax":"","mail":"","web":"http://emf2.bundesnetzagentur.de/","lat":51.364928,"lng":6.627507},"geometry":{"type":"Point","coordinates":[6.627507,51.364928]}},{"type":"Feature","properties":{"title":"Mobilfunksendemast TKN Verw.-Geb. Tor 2","description":"TKN Verw.-Geb. Tor 2","street":"Gladbacher Straße 578","zip":47807,"city":"Krefeld","district":"Krefeld","tel":"","fax":"","mail":"","web":"http://emf2.bundesnetzagentur.de/","lat":51.306748,"lng":6.545667},"geometry":{"type":"Point","coordinates":[6.545667,51.306748]}},{"type":"Feature","properties":{"title":"Mobilfunksendemast Parkplatz Anrather Straße / Eisenbahn","description":"","street":"Oberschlesienstraße 16","zip":47807,"city":"Krefeld","district":"Krefeld","tel":"","fax":"","mail":"","web":"http://emf2.bundesnetzagentur.de/","lat":51.294515,"lng":6.540922},"geometry":{"type":"Point","coordinates":[6.540922,51.294515]}},{"type":"Feature","properties":{"title":"Mobilfunksendemast Jungfernweg 13","description":"","street":"Jungfernweg 13","zip":47799,"city":"Krefeld","district":"Krefeld","tel":"","fax":"","mail":"","web":"http://emf3.bundesnetzagentur.de/","lat":51.337028,"lng":6.566665},"geometry":{"type":"Point","coordinates":[6.566665,51.337028]}},{"type":"Feature","properties":{"title":"Mobilfunkmast Friedrich-Ebert-Straße 164","description":"","street":"Friedrich-Ebert-Straße 164","zip":47800,"city":"Krefeld","district":"Krefeld","tel":"","fax":"","mail":"","web":"","lat":51.344422,"lng":6.591558},"geometry":{"type":"Point","coordinates":[6.591558,51.344422]}},{"type":"Feature","properties":{"title":"Mobilfunksendemast Europark Fischtenhain A 17","description":"","street":"Europark Fichtenhain a 17","zip":47807,"city":"Krefeld","district":"Krefeld","tel":"","fax":"","mail":"","web":"http://emf2.bundesnetzagentur.de/","lat":51.290949,"lng":6.556572},"geometry":{"type":"Point","coordinates":[6.556572,51.290949]}},{"type":"Feature","properties":{"title":"Mobilfunksendemast Seyffardtstr.","description":"Bunker\n(Flur 69, Flurstück 161)","street":"Seyffardtstr.","zip":47805,"city":"Krefeld","district":"Krefeld","tel":"","fax":"","mail":"","web":"http://emf2.bundesnetzagentur.de/","lat":51.317944,"lng":6.562029},"geometry":{"type":"Point","coordinates":[6.562029,51.317944]}},{"type":"Feature","properties":{"title":"Mobilfunksendemast Adlerstr. 32","description":"Fachhochschule\nNiederrhein","street":"Adlerstr. 32","zip":47798,"city":"Krefeld","district":"Krefeld","tel":"","fax":"","mail":"","web":"http://emf2.bundesnetzagentur.de/","lat":51.323773,"lng":6.553406},"geometry":{"type":"Point","coordinates":[6.553406,51.323773]}},{"type":"Feature","properties":{"title":"Mobilfunksendemast Gladbacher Str. 140","description":"","street":"Gladbacher Str. 140","zip":47805,"city":"Krefeld","district":"Krefeld","tel":"","fax":"","mail":"","web":"http://emf2.bundesnetzagentur.de/","lat":51.32028,"lng":6.562402},"geometry":{"type":"Point","coordinates":[6.562402,51.32028]}},{"type":"Feature","properties":{"title":"Mobilfunksendemast Marktstr. 309-311","description":"","street":"Marktstr. 309-311","zip":47804,"city":"Krefeld","district":"Krefeld","tel":"","fax":"","mail":"","web":"http://emf2.bundesnetzagentur.de/","lat":51.326246,"lng":6.543882},"geometry":{"type":"Point","coordinates":[6.543882,51.326246]}},{"type":"Feature","properties":{"title":"Mobilfunksendemast Hülser Str. 530","description":"","street":"Hülser Str. 530","zip":47803,"city":"Krefeld","district":"Krefeld","tel":"","fax":"","mail":"","web":"http://emf2.bundesnetzagentur.de/","lat":51.353768,"lng":6.533985},"geometry":{"type":"Point","coordinates":[6.533985,51.353768]}},{"type":"Feature","properties":{"title":"Mobilfunksendemast Hülser Str. 386","description":"Roller","street":"Hülser Str. 386","zip":47803,"city":"Krefeld","district":"Krefeld","tel":"","fax":"","mail":"","web":"http://emf2.bundesnetzagentur.de/","lat":51.349841,"lng":6.539855},"geometry":{"type":"Point","coordinates":[6.539855,51.349841]}},{"type":"Feature","properties":{"title":"Mobilfunksendemast Den Ham 7","description":"","street":"Den Ham 7","zip":47839,"city":"Krefeld","district":"Krefeld","tel":"","fax":"","mail":"","web":"http://emf2.bundesnetzagentur.de/","lat":51.368936,"lng":6.500616},"geometry":{"type":"Point","coordinates":[6.500616,51.368936]}},{"type":"Feature","properties":{"title":"Mobilfunksendemast Josef-Heinrich-Str. 16","description":"","street":"Josef-Heinrich-Str. 16","zip":47839,"city":"Krefeld","district":"Krefeld","tel":"","fax":"","mail":"","web":"http://emf2.bundesnetzagentur.de/","lat":51.371847,"lng":6.507182},"geometry":{"type":"Point","coordinates":[6.507182,51.371847]}},{"type":"Feature","properties":{"title":"Mobilfunksendemast Krefelder Str. 145-155","description":"","street":"Krefelder Str. 145-155","zip":47839,"city":"Krefeld","district":"Krefeld","tel":"","fax":"","mail":"","web":"http://emf2.bundesnetzagentur.de/","lat":51.367405,"lng":6.51562},"geometry":{"type":"Point","coordinates":[6.51562,51.367405]}},{"type":"Feature","properties":{"title":"Mobilfunksendemast Preußenring 3","description":"","street":"Preußenring 3","zip":47798,"city":"Krefeld","district":"Krefeld","tel":"","fax":"","mail":"","web":"http://emf2.bundesnetzagentur.de/","lat":51.33165,"lng":6.549111},"geometry":{"type":"Point","coordinates":[6.549111,51.33165]}},{"type":"Feature","properties":{"title":"Mobilfunksendemast Roßstr. 204","description":"","street":"Roßstr. 204","zip":47798,"city":"Krefeld","district":"Krefeld","tel":"","fax":"","mail":"","web":"http://emf2.bundesnetzagentur.de/","lat":51.328532,"lng":6.554654},"geometry":{"type":"Point","coordinates":[6.554654,51.328532]}},{"type":"Feature","properties":{"title":"Mobilfunksendemast Marktstr. 121","description":"","street":"Marktstr. 121","zip":47798,"city":"Krefeld","district":"Krefeld","tel":"","fax":"","mail":"","web":"http://emf2.bundesnetzagentur.de/","lat":51.328985,"lng":6.555678},"geometry":{"type":"Point","coordinates":[6.555678,51.328985]}},{"type":"Feature","properties":{"title":"Mobilfunksendemast Ostwall 165","description":"","street":"Ostwall 165","zip":47798,"city":"Krefeld","district":"Krefeld","tel":"","fax":"","mail":"","web":"http://emf2.bundesnetzagentur.de/","lat":51.333681,"lng":6.566122},"geometry":{"type":"Point","coordinates":[6.566122,51.333681]}},{"type":"Feature","properties":{"title":"Mobilfunksendemast Philadelphiastr. 80","description":"","street":"Philadelphiastr. 80","zip":47799,"city":"Krefeld","district":"Krefeld","tel":"","fax":"","mail":"","web":"http://emf2.bundesnetzagentur.de/","lat":51.33124,"lng":6.572866},"geometry":{"type":"Point","coordinates":[6.572866,51.33124]}},{"type":"Feature","properties":{"title":"Mobilfunksendemast Rheinstr. 2-4","description":"","street":"Rheinstr. 2-4","zip":47799,"city":"Krefeld","district":"Krefeld","tel":"","fax":"","mail":"","web":"http://emf2.bundesnetzagentur.de/","lat":51.33469,"lng":6.571215},"geometry":{"type":"Point","coordinates":[6.571215,51.33469]}},{"type":"Feature","properties":{"title":"Mobilfunksendemast Uerdinger Str. 2-4","description":"","street":"Uerdinger Str. 2-4","zip":47799,"city":"Krefeld","district":"Krefeld","tel":"","fax":"","mail":"","web":"http://emf2.bundesnetzagentur.de/","lat":51.335183,"lng":6.571479},"geometry":{"type":"Point","coordinates":[6.571479,51.335183]}},{"type":"Feature","properties":{"title":"Mobilfunksendemast Ostwall 170-180","description":"ehem. Horten","street":"Ostwall 170-180","zip":47799,"city":"Krefeld","district":"Krefeld","tel":"","fax":"","mail":"","web":"http://emf2.bundesnetzagentur.de/","lat":51.334007,"lng":6.573144},"geometry":{"type":"Point","coordinates":[6.573144,51.334007]}},{"type":"Feature","properties":{"title":"Mobilfunksendemast Rektoratsstr. 19","description":"Kirche","street":"Rektoratsstr. 19","zip":47839,"city":"Krefeld","district":"Krefeld","tel":"","fax":"","mail":"","web":"http://emf2.bundesnetzagentur.de/","lat":51.373165,"lng":6.509984},"geometry":{"type":"Point","coordinates":[6.509984,51.373165]}},{"type":"Feature","properties":{"title":"Mobilfunksendemast Girmesgath 5","description":"Kamin VBL-Werk","street":"Girmesgath 5","zip":47803,"city":"Krefeld","district":"Krefeld","tel":"","fax":"","mail":"","web":"http://emf2.bundesnetzagentur.de/","lat":51.344092,"lng":6.546735},"geometry":{"type":"Point","coordinates":[6.546735,51.344092]}},{"type":"Feature","properties":{"title":"Mobilfunksendemast Lewerentzstr. 111","description":"","street":"Lewerentzstr. 111","zip":47798,"city":"Krefeld","district":"Krefeld","tel":"","fax":"","mail":"","web":"http://emf2.bundesnetzagentur.de/","lat":51.325745,"lng":6.55868},"geometry":{"type":"Point","coordinates":[6.55868,51.325745]}},{"type":"Feature","properties":{"title":"Mobilfunksendemast Oberdießemer Str. 80-84","description":"","street":"Oberdießemer Str. 80-84","zip":47805,"city":"Krefeld","district":"Krefeld","tel":"","fax":"","mail":"","web":"http://emf2.bundesnetzagentur.de/","lat":51.325832,"lng":6.583057},"geometry":{"type":"Point","coordinates":[6.583057,51.325832]}},{"type":"Feature","properties":{"title":"Mobilfunksendemast Seidenstr. 85","description":"","street":"Seidenstr. 85","zip":47799,"city":"Krefeld","district":"Krefeld","tel":"","fax":"","mail":"","web":"http://emf2.bundesnetzagentur.de/","lat":51.333838,"lng":6.574533},"geometry":{"type":"Point","coordinates":[6.574533,51.333838]}},{"type":"Feature","properties":{"title":"Mobilfunksendemast Hardenbergstr. 57","description":"","street":"Hardenbergstr. 57","zip":47799,"city":"Krefeld","district":"Krefeld","tel":"","fax":"","mail":"","web":"http://emf2.bundesnetzagentur.de/","lat":51.333015,"lng":6.581023},"geometry":{"type":"Point","coordinates":[6.581023,51.333015]}},{"type":"Feature","properties":{"title":"Mobilfunksendemast Inrather Str. 146","description":"","street":"Inrather Str. 146","zip":47803,"city":"Krefeld","district":"Krefeld","tel":"","fax":"","mail":"","web":"http://emf2.bundesnetzagentur.de/","lat":51.344376,"lng":6.551358},"geometry":{"type":"Point","coordinates":[6.551358,51.344376]}},{"type":"Feature","properties":{"title":"Mobilfunksendemast Wilmendyk 62","description":"","street":"Wilmendyk 62","zip":47803,"city":"Krefeld","district":"Krefeld","tel":"","fax":"","mail":"","web":"http://emf2.bundesnetzagentur.de/","lat":51.348826,"lng":6.551266},"geometry":{"type":"Point","coordinates":[6.551266,51.348826]}},{"type":"Feature","properties":{"title":"Mobilfunksendemast Weggenhofstr. 20-22","description":"","street":"Weggenhofstr. 20-22","zip":47798,"city":"Krefeld","district":"Krefeld","tel":"","fax":"","mail":"","web":"http://emf2.bundesnetzagentur.de/","lat":51.341525,"lng":6.559188},"geometry":{"type":"Point","coordinates":[6.559188,51.341525]}},{"type":"Feature","properties":{"title":"Mobilfunksendemast Nordwall 1","description":"Polizeipräsidium","street":"Nordwall 1","zip":47798,"city":"Krefeld","district":"Krefeld","tel":"","fax":"","mail":"","web":"http://emf2.bundesnetzagentur.de/","lat":51.337721,"lng":6.563417},"geometry":{"type":"Point","coordinates":[6.563417,51.337721]}},{"type":"Feature","properties":{"title":"Mobilfunksendemast Steinstr. 203-205","description":"","street":"Steinstr. 203-205","zip":47798,"city":"Krefeld","district":"Krefeld","tel":"","fax":"","mail":"","web":"http://emf2.bundesnetzagentur.de/","lat":51.336019,"lng":6.552938},"geometry":{"type":"Point","coordinates":[6.552938,51.336019]}},{"type":"Feature","properties":{"title":"Mobilfunksendemast Friedrichstr. 14-16","description":"","street":"Friedrichstr. 14-16","zip":47798,"city":"Krefeld","district":"Krefeld","tel":"","fax":"","mail":"","web":"http://emf2.bundesnetzagentur.de/","lat":51.333981,"lng":6.561593},"geometry":{"type":"Point","coordinates":[6.561593,51.333981]}},{"type":"Feature","properties":{"title":"Mobilfunksendemast Obergath 90","description":"Brauerei Königshof","street":"Obergath 90","zip":47805,"city":"Krefeld","district":"Krefeld","tel":"","fax":"","mail":"","web":"http://emf2.bundesnetzagentur.de/","lat":51.314573,"lng":6.569447},"geometry":{"type":"Point","coordinates":[6.569447,51.314573]}},{"type":"Feature","properties":{"title":"Mobilfunksendemast Kölner Str. 133","description":"","street":"Kölner Str. 133","zip":47805,"city":"Krefeld","district":"Krefeld","tel":"","fax":"","mail":"","web":"http://emf2.bundesnetzagentur.de/","lat":51.319862,"lng":6.57238},"geometry":{"type":"Point","coordinates":[6.57238,51.319862]}},{"type":"Feature","properties":{"title":"Mobilfunksendemast Kölner Str. 234","description":"","street":"Kölner Str. 234","zip":47805,"city":"Krefeld","district":"Krefeld","tel":"","fax":"","mail":"","web":"http://emf2.bundesnetzagentur.de/","lat":51.316957,"lng":6.576446},"geometry":{"type":"Point","coordinates":[6.576446,51.316957]}},{"type":"Feature","properties":{"title":"Mobilfunksendemast Blücher Str. 64-66","description":"","street":"Blücher Str. 64-66","zip":47799,"city":"Krefeld","district":"Krefeld","tel":"","fax":"","mail":"","web":"http://emf2.bundesnetzagentur.de/","lat":51.333644,"lng":6.58106},"geometry":{"type":"Point","coordinates":[6.58106,51.333644]}},{"type":"Feature","properties":{"title":"Mobilfunksendemast Bückerfeldstr. 18-20","description":"","street":"Bückerfeldstr. 18-20","zip":47803,"city":"Krefeld","district":"Krefeld","tel":"","fax":"","mail":"","web":"http://emf2.bundesnetzagentur.de/","lat":51.340775,"lng":6.525225},"geometry":{"type":"Point","coordinates":[6.525225,51.340775]}},{"type":"Feature","properties":{"title":"Mobilfunksendemast Obergath 215","description":"Studentenwohnheim","street":"Obergath 215","zip":47805,"city":"Krefeld","district":"Krefeld","tel":"","fax":"","mail":"","web":"http://emf2.bundesnetzagentur.de/","lat":51.312687,"lng":6.557935},"geometry":{"type":"Point","coordinates":[6.557935,51.312687]}},{"type":"Feature","properties":{"title":"Mobilfunksendemast Klever Str. 104-108","description":"","street":"Klever Str. 104-108","zip":47839,"city":"Krefeld","district":"Krefeld","tel":"","fax":"","mail":"","web":"http://emf2.bundesnetzagentur.de/","lat":51.379351,"lng":6.507453},"geometry":{"type":"Point","coordinates":[6.507453,51.379351]}},{"type":"Feature","properties":{"title":"Mobilfunksendemast Gladbacher Str. 21","description":"","street":"Gladbacher Str. 21","zip":47798,"city":"Krefeld","district":"Krefeld","tel":"","fax":"","mail":"","web":"http://emf2.bundesnetzagentur.de/","lat":51.325765,"lng":6.565654},"geometry":{"type":"Point","coordinates":[6.565654,51.325765]}},{"type":"Feature","properties":{"title":"Mobilfunksendemast Fütingsweg 34","description":"Kamin","street":"Fütingsweg 34","zip":47805,"city":"Krefeld","district":"Krefeld","tel":"","fax":"","mail":"","web":"http://emf2.bundesnetzagentur.de/","lat":51.320991,"lng":6.576942},"geometry":{"type":"Point","coordinates":[6.576942,51.320991]}},{"type":"Feature","properties":{"title":"Mobilfunksendemast Hochstr. 57-59","description":"Galeria Kaufhof","street":"Hochstr. 57-59","zip":47798,"city":"Krefeld","district":"Krefeld","tel":"","fax":"","mail":"","web":"http://emf2.bundesnetzagentur.de/","lat":51.330642,"lng":6.564523},"geometry":{"type":"Point","coordinates":[6.564523,51.330642]}},{"type":"Feature","properties":{"title":"Mobilfunksendemast Kempener-Allee 159","description":"","street":"Kempener-Allee 159","zip":47803,"city":"Krefeld","district":"Krefeld","tel":"","fax":"","mail":"","web":"http://emf2.bundesnetzagentur.de/","lat":51.344956,"lng":6.524842},"geometry":{"type":"Point","coordinates":[6.524842,51.344956]}},{"type":"Feature","properties":{"title":"Mobilfunksendemast Kempener Allee 145","description":"alte Kaserne","street":"Kempener Allee 145","zip":47803,"city":"Krefeld","district":"Krefeld","tel":"","fax":"","mail":"","web":"http://emf2.bundesnetzagentur.de/","lat":51.343082,"lng":6.529901},"geometry":{"type":"Point","coordinates":[6.529901,51.343082]}},{"type":"Feature","properties":{"title":"Mobilfunksendemast Westparkstr. 139","description":"Polizeiwache","street":"Westparkstr. 139","zip":47803,"city":"Krefeld","district":"Krefeld","tel":"","fax":"","mail":"","web":"http://emf2.bundesnetzagentur.de/","lat":51.341508,"lng":6.537991},"geometry":{"type":"Point","coordinates":[6.537991,51.341508]}},{"type":"Feature","properties":{"title":"Mobilfunksendemast Rennstieg 1a","description":"Aussichtsturm \nHülser Berg","street":"Rennstieg 1a","zip":47802,"city":"Krefeld","district":"Krefeld","tel":"","fax":"","mail":"","web":"http://emf2.bundesnetzagentur.de/","lat":51.386702,"lng":6.538306},"geometry":{"type":"Point","coordinates":[6.538306,51.386702]}},{"type":"Feature","properties":{"title":"Mobilfunksendemast Konrad-Adenauer-Platz 17","description":"Stadthaus","street":"Konrad-Adenauer-Platz 17","zip":47803,"city":"Krefeld","district":"Krefeld","tel":"","fax":"","mail":"","web":"http://emf2.bundesnetzagentur.de/","lat":51.340433,"lng":6.544996},"geometry":{"type":"Point","coordinates":[6.544996,51.340433]}},{"type":"Feature","properties":{"title":"Mobilfunksendemast Inrather Str. 325","description":"","street":"Inrather Str. 325","zip":47803,"city":"Krefeld","district":"Krefeld","tel":"","fax":"","mail":"","web":"http://emf2.bundesnetzagentur.de/","lat":51.348857,"lng":6.54468},"geometry":{"type":"Point","coordinates":[6.54468,51.348857]}},{"type":"Feature","properties":{"title":"Mobilfunksendemast Ostwall 11-19","description":"","street":"Ostwall 11-19","zip":47799,"city":"Krefeld","district":"Krefeld","tel":"","fax":"","mail":"","web":"http://emf2.bundesnetzagentur.de/","lat":51.329657,"lng":6.569332},"geometry":{"type":"Point","coordinates":[6.569332,51.329657]}},{"type":"Feature","properties":{"title":"Mobilfunksendemast Hansastr. 25","description":"Polizeiwache","street":"Hansastr. 25","zip":47799,"city":"Krefeld","district":"Krefeld","tel":"","fax":"","mail":"","web":"http://emf2.bundesnetzagentur.de/","lat":51.32788,"lng":6.572409},"geometry":{"type":"Point","coordinates":[6.572409,51.32788]}},{"type":"Feature","properties":{"title":"Mobilfunksendemast Niedieckstr. 7","description":"Schaffrath","street":"Niedieckstr. 7","zip":47803,"city":"Krefeld","district":"Krefeld","tel":"","fax":"","mail":"","web":"http://emf2.bundesnetzagentur.de/","lat":51.347723,"lng":6.535266},"geometry":{"type":"Point","coordinates":[6.535266,51.347723]}},{"type":"Feature","properties":{"title":"Mobilfunksendemast Hülser Str. 771-773","description":"","street":"Hülser Str. 771-773","zip":47803,"city":"Krefeld","district":"Krefeld","tel":"","fax":"","mail":"","web":"http://emf2.bundesnetzagentur.de/","lat":51.360292,"lng":6.52457},"geometry":{"type":"Point","coordinates":[6.52457,51.360292]}},{"type":"Feature","properties":{"title":"Mobilfunksendemast Ohlendorffstr. 29","description":"Compo-Werke (Turm)","street":"Ohlendorffstr. 29","zip":47809,"city":"Krefeld","district":"Krefeld","tel":"","fax":"","mail":"","web":"http://emf2.bundesnetzagentur.de/","lat":51.335643,"lng":6.675693},"geometry":{"type":"Point","coordinates":[6.675693,51.335643]}},{"type":"Feature","properties":{"title":"Mobilfunksendemast Kölner Str. 566-570","description":"Rettungswache","street":"Kölner Str. 566-570","zip":47807,"city":"Krefeld","district":"Krefeld","tel":"","fax":"","mail":"","web":"http://emf2.bundesnetzagentur.de/","lat":51.303787,"lng":6.589143},"geometry":{"type":"Point","coordinates":[6.589143,51.303787]}},{"type":"Feature","properties":{"title":"Mobilfunksendemast Wolfersstr. 21","description":"","street":"Wolfersstr. 21","zip":47807,"city":"Krefeld","district":"Krefeld","tel":"","fax":"","mail":"","web":"http://emf2.bundesnetzagentur.de/","lat":51.305064,"lng":6.58906},"geometry":{"type":"Point","coordinates":[6.58906,51.305064]}},{"type":"Feature","properties":{"title":"Mobilfunksendemast Kölner Str. 632","description":"","street":"Kölner Str. 632","zip":47807,"city":"Krefeld","district":"Krefeld","tel":"","fax":"","mail":"","web":"http://emf2.bundesnetzagentur.de/","lat":51.300815,"lng":6.592245},"geometry":{"type":"Point","coordinates":[6.592245,51.300815]}},{"type":"Feature","properties":{"title":"Mobilfunksendemast Hafelsstr. 61-65","description":"","street":"Hafelsstr. 61-65","zip":47807,"city":"Krefeld","district":"Krefeld","tel":"","fax":"","mail":"","web":"http://emf2.bundesnetzagentur.de/","lat":51.30924,"lng":6.589902},"geometry":{"type":"Point","coordinates":[6.589902,51.30924]}},{"type":"Feature","properties":{"title":"Mobilfunksendemast Uerdinger Str. 245","description":"Krefelder Hof","street":"Uerdinger Str. 245","zip":47800,"city":"Krefeld","district":"Krefeld","tel":"","fax":"","mail":"","web":"http://emf2.bundesnetzagentur.de/","lat":51.337972,"lng":6.589066},"geometry":{"type":"Point","coordinates":[6.589066,51.337972]}},{"type":"Feature","properties":{"title":"Mobilfunksendemast Schönwasserstr. 184","description":"Bunker","street":"Schönwasserstr. 184","zip":47800,"city":"Krefeld","district":"Krefeld","tel":"","fax":"","mail":"","web":"http://emf2.bundesnetzagentur.de/","lat":51.344849,"lng":6.592599},"geometry":{"type":"Point","coordinates":[6.592599,51.344849]}},{"type":"Feature","properties":{"title":"Mobilfunksendemast Glockenspitz 288","description":"","street":"Glockenspitz 288","zip":47809,"city":"Krefeld","district":"Krefeld","tel":"","fax":"","mail":"","web":"http://emf2.bundesnetzagentur.de/","lat":51.337742,"lng":6.607919},"geometry":{"type":"Point","coordinates":[6.607919,51.337742]}},{"type":"Feature","properties":{"title":"Mobilfunksendemast Hinter Schönhausen 1-3","description":"","street":"Hinter Schönhausen 1-3","zip":47800,"city":"Krefeld","district":"Krefeld","tel":"","fax":"","mail":"","web":"http://emf2.bundesnetzagentur.de/","lat":51.342933,"lng":6.604973},"geometry":{"type":"Point","coordinates":[6.604973,51.342933]}},{"type":"Feature","properties":{"title":"Mobilfunksendemast Hüttenallee 241","description":"Kamin\nPilzforschungsinstitut","street":"Hüttenallee 241","zip":47800,"city":"Krefeld","district":"Krefeld","tel":"","fax":"","mail":"","web":"http://emf2.bundesnetzagentur.de/","lat":51.357271,"lng":6.597927},"geometry":{"type":"Point","coordinates":[6.597927,51.357271]}},{"type":"Feature","properties":{"title":"Mobilfunksendemast Glockenspitz 410","description":"","street":"Glockenspitz 410","zip":47809,"city":"Krefeld","district":"Krefeld","tel":"","fax":"","mail":"","web":"http://emf2.bundesnetzagentur.de/","lat":51.337116,"lng":6.61754},"geometry":{"type":"Point","coordinates":[6.61754,51.337116]}},{"type":"Feature","properties":{"title":"Mobilfunksendemast Oberbruchstr. 59","description":"","street":"Oberbruchstr. 59","zip":47807,"city":"Krefeld","district":"Krefeld","tel":"","fax":"","mail":"","web":"http://emf2.bundesnetzagentur.de/","lat":51.317394,"lng":6.589763},"geometry":{"type":"Point","coordinates":[6.589763,51.317394]}},{"type":"Feature","properties":{"title":"Mobilfunksendemast Oberbruchstr. 58","description":"","street":"Oberbruchstr. 58","zip":47807,"city":"Krefeld","district":"Krefeld","tel":"","fax":"","mail":"","web":"http://emf2.bundesnetzagentur.de/","lat":51.317852,"lng":6.589697},"geometry":{"type":"Point","coordinates":[6.589697,51.317852]}},{"type":"Feature","properties":{"title":"Mobilfunksendemast Uerdinger Str. 590","description":"","street":"Uerdinger Str. 590","zip":47800,"city":"Krefeld","district":"Krefeld","tel":"","fax":"","mail":"","web":"http://emf2.bundesnetzagentur.de/","lat":51.346432,"lng":6.618296},"geometry":{"type":"Point","coordinates":[6.618296,51.346432]}},{"type":"Feature","properties":{"title":"Mobilfunksendemast Uerdinger Str. 627","description":"Kirche","street":"Uerdinger Str. 627","zip":47800,"city":"Krefeld","district":"Krefeld","tel":"","fax":"","mail":"","web":"http://emf2.bundesnetzagentur.de/","lat":51.347477,"lng":6.619459},"geometry":{"type":"Point","coordinates":[6.619459,51.347477]}},{"type":"Feature","properties":{"title":"Mobilfunksendemast Untergath 194 (186)","description":"Sendemast","street":"Untergath 194 (186)","zip":47805,"city":"Krefeld","district":"Krefeld","tel":"","fax":"","mail":"","web":"http://emf2.bundesnetzagentur.de/","lat":51.322514,"lng":6.590359},"geometry":{"type":"Point","coordinates":[6.590359,51.322514]}},{"type":"Feature","properties":{"title":"Mobilfunksendemast Hafelsstr. 247","description":"","street":"Hafelsstr. 247","zip":47809,"city":"Krefeld","district":"Krefeld","tel":"","fax":"","mail":"","web":"http://emf2.bundesnetzagentur.de/","lat":51.322611,"lng":6.605053},"geometry":{"type":"Point","coordinates":[6.605053,51.322611]}},{"type":"Feature","properties":{"title":"Mobilfunksendemast Hafelsstr. 249","description":"Baumarkt","street":"Hafelsstr. 249","zip":47809,"city":"Krefeld","district":"Krefeld","tel":"","fax":"","mail":"","web":"http://emf2.bundesnetzagentur.de/","lat":51.323311,"lng":6.606812},"geometry":{"type":"Point","coordinates":[6.606812,51.323311]}},{"type":"Feature","properties":{"title":"Mobilfunksendemast Dießemer Bruch 83","description":"","street":"Dießemer Bruch 83","zip":47805,"city":"Krefeld","district":"Krefeld","tel":"","fax":"","mail":"","web":"http://emf2.bundesnetzagentur.de/","lat":51.326891,"lng":6.590245},"geometry":{"type":"Point","coordinates":[6.590245,51.326891]}},{"type":"Feature","properties":{"title":"Mobilfunksendemast Höppnerstr. 101","description":"","street":"Höppnerstr. 101","zip":47809,"city":"Krefeld","district":"Krefeld","tel":"","fax":"","mail":"","web":"http://emf2.bundesnetzagentur.de/","lat":51.337402,"lng":6.622751},"geometry":{"type":"Point","coordinates":[6.622751,51.337402]}},{"type":"Feature","properties":{"title":"Mobilfunksendemast Elbestr. 16","description":"","street":"Elbestr. 16","zip":47800,"city":"Krefeld","district":"Krefeld","tel":"","fax":"","mail":"","web":"http://emf2.bundesnetzagentur.de/","lat":51.357161,"lng":6.615658},"geometry":{"type":"Point","coordinates":[6.615658,51.357161]}},{"type":"Feature","properties":{"title":"Mobilfunksendemast Saalestr. 3","description":"","street":"Saalestr. 3","zip":47800,"city":"Krefeld","district":"Krefeld","tel":"","fax":"","mail":"","web":"http://emf2.bundesnetzagentur.de/","lat":51.355992,"lng":6.622518},"geometry":{"type":"Point","coordinates":[6.622518,51.355992]}},{"type":"Feature","properties":{"title":"Mobilfunksendemast Zwingenbergstr. 108","description":"Kirche","street":"Zwingenbergstr. 108","zip":47802,"city":"Krefeld","district":"Krefeld","tel":"","fax":"","mail":"","web":"http://emf2.bundesnetzagentur.de/","lat":51.363311,"lng":6.596353},"geometry":{"type":"Point","coordinates":[6.596353,51.363311]}},{"type":"Feature","properties":{"title":"Mobilfunksendemast Dießemer Bruch 112","description":"Betonwerk","street":"Dießemer Bruch 112","zip":47805,"city":"Krefeld","district":"Krefeld","tel":"","fax":"","mail":"","web":"http://emf2.bundesnetzagentur.de/","lat":51.32717,"lng":6.59184},"geometry":{"type":"Point","coordinates":[6.59184,51.32717]}},{"type":"Feature","properties":{"title":"Mobilfunksendemast Dießemer Bruch 100","description":"","street":"Dießemer Bruch 100","zip":47805,"city":"Krefeld","district":"Krefeld","tel":"","fax":"","mail":"","web":"http://emf2.bundesnetzagentur.de/","lat":51.327775,"lng":6.591403},"geometry":{"type":"Point","coordinates":[6.591403,51.327775]}},{"type":"Feature","properties":{"title":"Mobilfunksendemast Oststr. 11","description":"","street":"Oststr. 11","zip":47798,"city":"Krefeld","district":"Krefeld","tel":"","fax":"","mail":"","web":"http://emf2.bundesnetzagentur.de/","lat":51.339132,"lng":6.563377},"geometry":{"type":"Point","coordinates":[6.563377,51.339132]}},{"type":"Feature","properties":{"title":"Mobilfunksendemast Leyentalstr. 103","description":"","street":"Leyentalstr. 103","zip":47799,"city":"Krefeld","district":"Krefeld","tel":"","fax":"","mail":"","web":"http://emf2.bundesnetzagentur.de/","lat":51.340288,"lng":6.567913},"geometry":{"type":"Point","coordinates":[6.567913,51.340288]}},{"type":"Feature","properties":{"title":"Mobilfunksendemast Cracauer Str. 91-93","description":"","street":"Cracauer Str. 91-93","zip":47799,"city":"Krefeld","district":"Krefeld","tel":"","fax":"","mail":"","web":"http://emf2.bundesnetzagentur.de/","lat":51.338683,"lng":6.574566},"geometry":{"type":"Point","coordinates":[6.574566,51.338683]}},{"type":"Feature","properties":{"title":"Mobilfunksendemast Alte Kemmerhoferstr. 116-118","description":"Sendemast Hosterhof","street":"Alte Kemmerhoferstr. 116-118","zip":47802,"city":"Krefeld","district":"Krefeld","tel":"","fax":"","mail":"","web":"http://emf2.bundesnetzagentur.de/","lat":51.3702,"lng":6.601083},"geometry":{"type":"Point","coordinates":[6.601083,51.3702]}},{"type":"Feature","properties":{"title":"Mobilfunksendemast Moerser Landstr. 287","description":"","street":"Moerser Landstr. 287","zip":47802,"city":"Krefeld","district":"Krefeld","tel":"","fax":"","mail":"","web":"http://emf2.bundesnetzagentur.de/","lat":51.377209,"lng":6.590994},"geometry":{"type":"Point","coordinates":[6.590994,51.377209]}},{"type":"Feature","properties":{"title":"Mobilfunksendemast Moerser Str. 157-159","description":"Kamin","street":"Moerser Str. 157-159","zip":47803,"city":"Krefeld","district":"Krefeld","tel":"","fax":"","mail":"","web":"http://emf2.bundesnetzagentur.de/","lat":51.344045,"lng":6.57182},"geometry":{"type":"Point","coordinates":[6.57182,51.344045]}},{"type":"Feature","properties":{"title":"Mobilfunksendemast Bismarckplatz 38","description":"","street":"Bismarckplatz 38","zip":47799,"city":"Krefeld","district":"Krefeld","tel":"","fax":"","mail":"","web":"http://emf2.bundesnetzagentur.de/","lat":51.340482,"lng":6.57621},"geometry":{"type":"Point","coordinates":[6.57621,51.340482]}},{"type":"Feature","properties":{"title":"Mobilfunksendemast Uerdinger Str. 143","description":"","street":"Uerdinger Str. 143","zip":47799,"city":"Krefeld","district":"Krefeld","tel":"","fax":"","mail":"","web":"http://emf2.bundesnetzagentur.de/","lat":51.336837,"lng":6.580584},"geometry":{"type":"Point","coordinates":[6.580584,51.336837]}},{"type":"Feature","properties":{"title":"Mobilfunksendemast Kuhleshütte 85","description":"","street":"Kuhleshütte 85","zip":47809,"city":"Krefeld","district":"Krefeld","tel":"","fax":"","mail":"","web":"http://emf2.bundesnetzagentur.de/","lat":51.331669,"lng":6.598372},"geometry":{"type":"Point","coordinates":[6.598372,51.331669]}},{"type":"Feature","properties":{"title":"Mobilfunksendemast Kuhleshütte 168","description":"","street":"Kuhleshütte 168","zip":47809,"city":"Krefeld","district":"Krefeld","tel":"","fax":"","mail":"","web":"http://emf2.bundesnetzagentur.de/","lat":51.330686,"lng":6.602274},"geometry":{"type":"Point","coordinates":[6.602274,51.330686]}},{"type":"Feature","properties":{"title":"Mobilfunksendemast Glockenspitz 160","description":"Richtfunkturm","street":"Glockenspitz 160","zip":47800,"city":"Krefeld","district":"Krefeld","tel":"","fax":"","mail":"","web":"http://emf2.bundesnetzagentur.de/","lat":51.33627,"lng":6.600296},"geometry":{"type":"Point","coordinates":[6.600296,51.33627]}},{"type":"Feature","properties":{"title":"Mobilfunksendemast Bökendonk 15-17","description":"Bildungszentrum Bau","street":"Bökendonk 15-17","zip":47809,"city":"Krefeld","district":"Krefeld","tel":"","fax":"","mail":"","web":"http://emf2.bundesnetzagentur.de/","lat":51.323119,"lng":6.609061},"geometry":{"type":"Point","coordinates":[6.609061,51.323119]}},{"type":"Feature","properties":{"title":"Mobilfunksendemast Hauptstr. 213","description":"","street":"Hauptstr. 213","zip":47809,"city":"Krefeld","district":"Krefeld","tel":"","fax":"","mail":"","web":"http://emf2.bundesnetzagentur.de/","lat":51.321749,"lng":6.620231},"geometry":{"type":"Point","coordinates":[6.620231,51.321749]}},{"type":"Feature","properties":{"title":"Mobilfunksendemast Moerser Landstr. 377","description":"","street":"Moerser Landstr. 377","zip":47802,"city":"Krefeld","district":"Krefeld","tel":"","fax":"","mail":"","web":"http://emf2.bundesnetzagentur.de/","lat":51.379673,"lng":6.595708},"geometry":{"type":"Point","coordinates":[6.595708,51.379673]}},{"type":"Feature","properties":{"title":"Mobilfunksendemast Lilienthalweg 10-12","description":"Segelflugplatz Egelsberg\n(Flughalle)","street":"Lilienthalweg 10-12","zip":47802,"city":"Krefeld","district":"Krefeld","tel":"","fax":"","mail":"","web":"http://emf2.bundesnetzagentur.de/","lat":51.383501,"lng":6.59006},"geometry":{"type":"Point","coordinates":[6.59006,51.383501]}},{"type":"Feature","properties":{"title":"Mobilfunksendemast Akazienstr. 90-92","description":"","street":"Akazienstr. 90-92","zip":47829,"city":"Krefeld","district":"Krefeld","tel":"","fax":"","mail":"","web":"http://emf2.bundesnetzagentur.de/","lat":51.366295,"lng":6.613625},"geometry":{"type":"Point","coordinates":[6.613625,51.366295]}},{"type":"Feature","properties":{"title":"Mobilfunksendemast Neukirchener Str. 56","description":"","street":"Neukirchener Str. 56","zip":47829,"city":"Krefeld","district":"Krefeld","tel":"","fax":"","mail":"","web":"http://emf2.bundesnetzagentur.de/","lat":51.36855,"lng":6.617358},"geometry":{"type":"Point","coordinates":[6.617358,51.36855]}},{"type":"Feature","properties":{"title":"Mobilfunksendemast Hauptstr. 18","description":"Kirche","street":"Hauptstr. 18","zip":47809,"city":"Krefeld","district":"Krefeld","tel":"","fax":"","mail":"","web":"http://emf2.bundesnetzagentur.de/","lat":51.329107,"lng":6.612496},"geometry":{"type":"Point","coordinates":[6.612496,51.329107]}},{"type":"Feature","properties":{"title":"Mobilfunksendemast Rheinuferstr. 7-9","description":"Bayer AG\nGeb. N 71","street":"Rheinuferstr. 7-9","zip":47829,"city":"Krefeld","district":"Krefeld","tel":"","fax":"","mail":"","web":"http://emf2.bundesnetzagentur.de/","lat":51.373298,"lng":6.656675},"geometry":{"type":"Point","coordinates":[6.656675,51.373298]}},{"type":"Feature","properties":{"title":"Mobilfunksendemast Rheinuferstr. 7-9","description":"Bayer AG  - Tor 4 -\nGeb. R 85","street":"Rheinuferstr. 7-9","zip":47829,"city":"Krefeld","district":"Krefeld","tel":"","fax":"","mail":"","web":"http://emf2.bundesnetzagentur.de/","lat":51.369717,"lng":6.663658},"geometry":{"type":"Point","coordinates":[6.663658,51.369717]}},{"type":"Feature","properties":{"title":"Mobilfunksendemast Uerdinger Str. 202-204","description":"Gerling","street":"Uerdinger Str. 202-204","zip":47799,"city":"Krefeld","district":"Krefeld","tel":"","fax":"","mail":"","web":"http://emf2.bundesnetzagentur.de/","lat":51.338238,"lng":6.584362},"geometry":{"type":"Point","coordinates":[6.584362,51.338238]}},{"type":"Feature","properties":{"title":"Mobilfunksendemast Heyenbaumstr. 1","description":"Sendemast","street":"Heyenbaumstr. 1","zip":47802,"city":"Krefeld","district":"Krefeld","tel":"","fax":"","mail":"","web":"http://emf2.bundesnetzagentur.de/","lat":51.361197,"lng":6.571172},"geometry":{"type":"Point","coordinates":[6.571172,51.361197]}},{"type":"Feature","properties":{"title":"Mobilfunksendemast Moerser Landstr. 60","description":"Kamin","street":"Moerser Landstr. 60","zip":47802,"city":"Krefeld","district":"Krefeld","tel":"","fax":"","mail":"","web":"http://emf2.bundesnetzagentur.de/","lat":51.367592,"lng":6.572398},"geometry":{"type":"Point","coordinates":[6.572398,51.367592]}},{"type":"Feature","properties":{"title":"Mobilfunksendemast Gubener Str. 2","description":"","street":"Gubener Str. 2","zip":47829,"city":"Krefeld","district":"Krefeld","tel":"","fax":"","mail":"","web":"http://emf2.bundesnetzagentur.de/","lat":51.367435,"lng":6.6226},"geometry":{"type":"Point","coordinates":[6.6226,51.367435]}},{"type":"Feature","properties":{"title":"Mobilfunksendemast Max-Planck-Str. 10","description":"","street":"Max-Planck-Str. 10","zip":47829,"city":"Krefeld","district":"Krefeld","tel":"","fax":"","mail":"","web":"http://emf2.bundesnetzagentur.de/","lat":51.364155,"lng":6.627525},"geometry":{"type":"Point","coordinates":[6.627525,51.364155]}},{"type":"Feature","properties":{"title":"Mobilfunksendemast Max-Planck-Str. 14","description":"","street":"Max-Planck-Str. 14","zip":47829,"city":"Krefeld","district":"Krefeld","tel":"","fax":"","mail":"","web":"http://emf2.bundesnetzagentur.de/","lat":51.365612,"lng":6.627287},"geometry":{"type":"Point","coordinates":[6.627287,51.365612]}},{"type":"Feature","properties":{"title":"Mobilfunksendemast Königsberger Str. 10","description":"","street":"Königsberger Str. 10","zip":47809,"city":"Krefeld","district":"Krefeld","tel":"","fax":"","mail":"","web":"http://emf2.bundesnetzagentur.de/","lat":51.336583,"lng":6.634838},"geometry":{"type":"Point","coordinates":[6.634838,51.336583]}},{"type":"Feature","properties":{"title":"Mobilfunksendemast Maasweg 56","description":"","street":"Maasweg 56","zip":47807,"city":"Krefeld","district":"Krefeld","tel":"","fax":"","mail":"","web":"http://emf2.bundesnetzagentur.de/","lat":51.298173,"lng":6.586662},"geometry":{"type":"Point","coordinates":[6.586662,51.298173]}},{"type":"Feature","properties":{"title":"Mobilfunksendemast Maasweg 52","description":"","street":"Maasweg 52","zip":47807,"city":"Krefeld","district":"Krefeld","tel":"","fax":"","mail":"","web":"http://emf2.bundesnetzagentur.de/","lat":51.298324,"lng":6.587037},"geometry":{"type":"Point","coordinates":[6.587037,51.298324]}},{"type":"Feature","properties":{"title":"Mobilfunksendemast Kölner Str./Feldweg\nA 44 Kreuz Osterath\nGem. Fischeln, Fl. 30, Flst.38","description":"Hochspannungsmast\nAB-Anschl. 26/Osterath","street":"Kölner Str./Feldweg\nA 44 Kreuz Osterath\nGem. Fischeln, Fl. 30, Flst.38","zip":47807,"city":"Krefeld","district":"Krefeld","tel":"","fax":"","mail":"","web":"http://emf2.bundesnetzagentur.de/","lat":51.286965,"lng":6.604407},"geometry":{"type":"Point","coordinates":[6.604407,51.286965]}},{"type":"Feature","properties":{"title":"Mobilfunksendemast Breitenbachstr. 69","description":"Kuppelgerüst","street":"Breitenbachstr. 69","zip":47809,"city":"Krefeld","district":"Krefeld","tel":"","fax":"","mail":"","web":"http://emf2.bundesnetzagentur.de/","lat":51.332176,"lng":6.616684},"geometry":{"type":"Point","coordinates":[6.616684,51.332176]}},{"type":"Feature","properties":{"title":"Mobilfunksendemast Bischofstr. 95","description":"Sendemast\nSportpark Oppum","street":"Bischofstr. 95","zip":47809,"city":"Krefeld","district":"Krefeld","tel":"","fax":"","mail":"","web":"http://emf2.bundesnetzagentur.de/","lat":51.327272,"lng":6.624466},"geometry":{"type":"Point","coordinates":[6.624466,51.327272]}},{"type":"Feature","properties":{"title":"Mobilfunksendemast Weidenbruchweg 135-137","description":"","street":"Weidenbruchweg 135-137","zip":47809,"city":"Krefeld","district":"Krefeld","tel":"","fax":"","mail":"","web":"http://emf2.bundesnetzagentur.de/","lat":51.336024,"lng":6.660833},"geometry":{"type":"Point","coordinates":[6.660833,51.336024]}},{"type":"Feature","properties":{"title":"Mobilfunksendemast Düsseldorfer Str. 304","description":"","street":"Düsseldorfer Str. 304","zip":47809,"city":"Krefeld","district":"Krefeld","tel":"","fax":"","mail":"","web":"http://emf2.bundesnetzagentur.de/","lat":51.329562,"lng":6.670151},"geometry":{"type":"Point","coordinates":[6.670151,51.329562]}},{"type":"Feature","properties":{"title":"Mobilfunksendemast Römer Str. 22","description":"","street":"Römer Str. 22","zip":47809,"city":"Krefeld","district":"Krefeld","tel":"","fax":"","mail":"","web":"http://emf2.bundesnetzagentur.de/","lat":51.329143,"lng":6.676027},"geometry":{"type":"Point","coordinates":[6.676027,51.329143]}},{"type":"Feature","properties":{"title":"Mobilfunksendemast Memeler Platz 15","description":"","street":"Memeler Platz 15","zip":47809,"city":"Krefeld","district":"Krefeld","tel":"","fax":"","mail":"","web":"http://emf2.bundesnetzagentur.de/","lat":51.340993,"lng":6.641815},"geometry":{"type":"Point","coordinates":[6.641815,51.340993]}},{"type":"Feature","properties":{"title":"Mobilfunksendemast Bruchfeld 91","description":"","street":"Bruchfeld 91","zip":47809,"city":"Krefeld","district":"Krefeld","tel":"","fax":"","mail":"","web":"http://emf2.bundesnetzagentur.de/","lat":51.344782,"lng":6.631105},"geometry":{"type":"Point","coordinates":[6.631105,51.344782]}},{"type":"Feature","properties":{"title":"Mobilfunksendemast Dülkener Str. 40","description":"","street":"Dülkener Str. 40","zip":47804,"city":"Krefeld","district":"Krefeld","tel":"","fax":"","mail":"","web":"http://emf2.bundesnetzagentur.de/","lat":51.320631,"lng":6.527318},"geometry":{"type":"Point","coordinates":[6.527318,51.320631]}},{"type":"Feature","properties":{"title":"Mobilfunksendemast Zur alten Schmiede 75","description":"","street":"Zur alten Schmiede 75","zip":47804,"city":"Krefeld","district":"Krefeld","tel":"","fax":"","mail":"","web":"http://emf2.bundesnetzagentur.de/","lat":51.312658,"lng":6.533222},"geometry":{"type":"Point","coordinates":[6.533222,51.312658]}},{"type":"Feature","properties":{"title":"Mobilfunksendemast St. Töniser Str. 275","description":"","street":"St. Töniser Str. 275","zip":47804,"city":"Krefeld","district":"Krefeld","tel":"","fax":"","mail":"","web":"http://emf2.bundesnetzagentur.de/","lat":51.328184,"lng":6.530865},"geometry":{"type":"Point","coordinates":[6.530865,51.328184]}},{"type":"Feature","properties":{"title":"Mobilfunksendemast Westpreußenstr. 30","description":"","street":"Westpreußenstr. 30","zip":47809,"city":"Krefeld","district":"Krefeld","tel":"","fax":"","mail":"","web":"http://emf2.bundesnetzagentur.de/","lat":51.340278,"lng":6.650861},"geometry":{"type":"Point","coordinates":[6.650861,51.340278]}},{"type":"Feature","properties":{"title":"Mobilfunksendemast Mündelheimer Str. 34","description":"","street":"Mündelheimer Str. 34","zip":47829,"city":"Krefeld","district":"Krefeld","tel":"","fax":"","mail":"","web":"http://emf2.bundesnetzagentur.de/","lat":51.348462,"lng":6.650302},"geometry":{"type":"Point","coordinates":[6.650302,51.348462]}},{"type":"Feature","properties":{"title":"Mobilfunksendemast Kaiserstraße 102","description":"","street":"Kaiserstraße 102","zip":47800,"city":"Krefeld","district":"Krefeld","tel":"","fax":"","mail":"","web":"http://emf2.bundesnetzagentur.de/","lat":51.339063,"lng":6.591542},"geometry":{"type":"Point","coordinates":[6.591542,51.339063]}},{"type":"Feature","properties":{"title":"Mobilfunksendemast Uerdinger Str. 786","description":"786a","street":"Uerdinger Str. 786","zip":47800,"city":"Krefeld","district":"Krefeld","tel":"","fax":"","mail":"","web":"http://emf2.bundesnetzagentur.de/","lat":51.350641,"lng":6.633051},"geometry":{"type":"Point","coordinates":[6.633051,51.350641]}},{"type":"Feature","properties":{"title":"Mobilfunksendemast Niederstr. 15","description":"","street":"Niederstr. 15","zip":47829,"city":"Krefeld","district":"Krefeld","tel":"","fax":"","mail":"","web":"http://emf2.bundesnetzagentur.de/","lat":51.354661,"lng":6.649228},"geometry":{"type":"Point","coordinates":[6.649228,51.354661]}},{"type":"Feature","properties":{"title":"Mobilfunksendemast Parkstraße 10","description":"","street":"Parkstraße 10","zip":47829,"city":"Krefeld","district":"Krefeld","tel":"","fax":"","mail":"","web":"http://emf2.bundesnetzagentur.de/","lat":51.357437,"lng":6.642647},"geometry":{"type":"Point","coordinates":[6.642647,51.357437]}},{"type":"Feature","properties":{"title":"Mobilfunksendemast Von Brempt-Str. 4","description":"","street":"Von Brempt-Str. 4","zip":47829,"city":"Krefeld","district":"Krefeld","tel":"","fax":"","mail":"","web":"http://emf2.bundesnetzagentur.de/","lat":51.355208,"lng":6.647727},"geometry":{"type":"Point","coordinates":[6.647727,51.355208]}},{"type":"Feature","properties":{"title":"Mobilfunksendemast TKN Tor 3","description":"TKN Tor 3 (Geb. 26)","street":"Oberschlesienstr. 16 (Gladbacher Str. 578)","zip":47807,"city":"Krefeld","district":"Krefeld","tel":"","fax":"","mail":"","web":"http://emf2.bundesnetzagentur.de/","lat":51.299159,"lng":6.548394},"geometry":{"type":"Point","coordinates":[6.548394,51.299159]}},{"type":"Feature","properties":{"title":"Mobilfunksendemast Europapark Fichtenhain A 17","description":"Fa. Sitel","street":"Europapark Fichtenhain A 17","zip":47807,"city":"Krefeld","district":"Krefeld","tel":"","fax":"","mail":"","web":"http://emf2.bundesnetzagentur.de/","lat":51.290798,"lng":6.556493},"geometry":{"type":"Point","coordinates":[6.556493,51.290798]}},{"type":"Feature","properties":{"title":"Mobilfunksendemast Europapark Fichtenhain A 10","description":"Fa. Canon","street":"Europapark Fichtenhain A 10","zip":47807,"city":"Krefeld","district":"Krefeld","tel":"","fax":"","mail":"","web":"http://emf2.bundesnetzagentur.de/","lat":51.292733,"lng":6.557936},"geometry":{"type":"Point","coordinates":[6.557936,51.292733]}},{"type":"Feature","properties":{"title":"Mobilfunksendemast Europapark Fichtenhain B 10","description":"T-Systems","street":"Europapark Fichtenhain B 10","zip":47807,"city":"Krefeld","district":"Krefeld","tel":"","fax":"","mail":"","web":"http://emf2.bundesnetzagentur.de/","lat":51.29943,"lng":6.557688},"geometry":{"type":"Point","coordinates":[6.557688,51.29943]}},{"type":"Feature","properties":{"title":"Mobilfunksendemast Gladbacher Str. 465, 469","description":"TAG-Werk (Kamin)","street":"Gladbacher Str. 465, 469","zip":47805,"city":"Krefeld","district":"Krefeld","tel":"","fax":"","mail":"","web":"http://emf2.bundesnetzagentur.de/","lat":51.310489,"lng":6.551254},"geometry":{"type":"Point","coordinates":[6.551254,51.310489]}},{"type":"Feature","properties":{"title":"Mobilfunksendemast Parkstr. 234","description":"Treppenturm \nzu den Faulbehältern","street":"Parkstr. 234","zip":47829,"city":"Krefeld","district":"Krefeld","tel":"","fax":"","mail":"","web":"http://emf2.bundesnetzagentur.de/","lat":51.378553,"lng":6.636238},"geometry":{"type":"Point","coordinates":[6.636238,51.378553]}},{"type":"Feature","properties":{"title":"Mobilfunksendemast Duisburger Str.","description":"Chemiepark Uerdingen\nGeb. N 169","street":"Duisburger Str.","zip":47829,"city":"Krefeld","district":"Krefeld","tel":"","fax":"","mail":"","web":"http://emf2.bundesnetzagentur.de/","lat":51.378581,"lng":6.653949},"geometry":{"type":"Point","coordinates":[6.653949,51.378581]}},{"type":"Feature","properties":{"title":"Mobilfunksendemast Silostr. 25","description":"Cerestar","street":"Silostr. 25","zip":47809,"city":"Krefeld","district":"Krefeld","tel":"","fax":"","mail":"","web":"http://emf2.bundesnetzagentur.de/","lat":51.342789,"lng":6.662966},"geometry":{"type":"Point","coordinates":[6.662966,51.342789]}},{"type":"Feature","properties":{"title":"Mobilfunksendemast Körnerstr. 11-13","description":"","street":"Körnerstr. 11-13","zip":47829,"city":"Krefeld","district":"Krefeld","tel":"","fax":"","mail":"","web":"http://emf2.bundesnetzagentur.de/","lat":51.362794,"lng":6.646385},"geometry":{"type":"Point","coordinates":[6.646385,51.362794]}},{"type":"Feature","properties":{"title":"Mobilfunksendemast Duisburger Str. 145","description":"Duewag","street":"Duisburger Str. 145","zip":47829,"city":"Krefeld","district":"Krefeld","tel":"","fax":"","mail":"","web":"http://emf2.bundesnetzagentur.de/","lat":51.367009,"lng":6.648068},"geometry":{"type":"Point","coordinates":[6.648068,51.367009]}},{"type":"Feature","properties":{"title":"Mobilfunksendemast Rheinuferstr. 7-9","description":"Bayer AG  - Tor 1 - \nGeb. L 134","street":"Rheinuferstr. 7-9","zip":47829,"city":"Krefeld","district":"Krefeld","tel":"","fax":"","mail":"","web":"http://emf2.bundesnetzagentur.de/","lat":51.366668,"lng":6.652788},"geometry":{"type":"Point","coordinates":[6.652788,51.366668]}},{"type":"Feature","properties":{"title":"Mobilfunksendemast Oberschlesienstr. 16\n(Gladbacher Str. 578)","description":"TKN Verwaltung","street":"Oberschlesienstr. 16\n(Gladbacher Str. 578)","zip":47807,"city":"Krefeld","district":"Krefeld","tel":"","fax":"","mail":"","web":"http://emf2.bundesnetzagentur.de/","lat":51.301686,"lng":6.555909},"geometry":{"type":"Point","coordinates":[6.555909,51.301686]}},{"type":"Feature","properties":{"title":"Mobilfunksendemast Remscheider Str. 29","description":"","street":"Remscheider Str. 29","zip":47807,"city":"Krefeld","district":"Krefeld","tel":"","fax":"","mail":"","web":"http://emf2.bundesnetzagentur.de/","lat":51.308911,"lng":6.565418},"geometry":{"type":"Point","coordinates":[6.565418,51.308911]}},{"type":"Feature","properties":{"title":"Mobilfunksendemast Altmühlenfeld 248","description":"","street":"Altmühlenfeld 248","zip":47807,"city":"Krefeld","district":"Krefeld","tel":"","fax":"","mail":"","web":"http://emf2.bundesnetzagentur.de/","lat":51.305497,"lng":6.583343},"geometry":{"type":"Point","coordinates":[6.583343,51.305497]}},{"type":"Feature","properties":{"title":"Sendemast Forstwald A44","description":"","street":"Forstwald A44","zip":47804,"city":"Krefeld","district":"Krefeld","tel":"","fax":"","mail":"","web":"htp://emf2.bundesnetzagentur.de/","lat":51.289211,"lng":6.523885},"geometry":{"type":"Point","coordinates":[6.523885,51.289211]}},{"type":"Feature","properties":{"title":"Sendemast Traar","description":"","street":"Krienshütte","zip":47802,"city":"Krefeld","district":"Krefeld","tel":"","fax":"","mail":"","web":"","lat":51.383715,"lng":6.61639},"geometry":{"type":"Point","coordinates":[6.61639,51.383715]}},{"type":"Feature","properties":{"title":"Sendemast Ostwall 11","description":"","street":"Ostwall 11","zip":47798,"city":"Krefeld","district":"Krefeld","tel":"","fax":"","mail":"","web":"","lat":51.326883,"lng":6.56931},"geometry":{"type":"Point","coordinates":[6.56931,51.326883]}},{"type":"Feature","properties":{"title":"Mobilfunkmast Alte Gladbacher Straße 49","description":"","street":"Alte Gladbacher Straße 49","zip":47805,"city":"Krefeld","district":"Krefeld","tel":"","fax":"","mail":"","web":"http://emf2.bundesnetzagentur.de/","lat":51.319559,"lng":6.550904},"geometry":{"type":"Point","coordinates":[6.550904,51.319559]}},{"type":"Feature","properties":{"title":"Mobilfunksendemast Nordwall 88","description":"","street":"Nordwall 88","zip":47798,"city":"Krefeld","district":"Krefeld","tel":"","fax":"","mail":"","web":"http://emf2.bundesnetzagentur.de/","lat":51.335693,"lng":6.556111},"geometry":{"type":"Point","coordinates":[6.556111,51.335693]}},{"type":"Feature","properties":{"title":"Mobilfunksendemast Eduard-Küsters-Straße 1","description":"","street":"Eduard-Küsters-Straße 1","zip":47805,"city":"Krefeld","district":"Krefeld","tel":"","fax":"","mail":"","web":"http://emf2.bundesnetzagentur.de/","lat":51.310792,"lng":6.552369},"geometry":{"type":"Point","coordinates":[6.552369,51.310792]}},{"type":"Feature","properties":{"title":"Mobilfunkmast Hochbendweg 1","description":"","street":"Hochbendweg 1","zip":47804,"city":"Krefeld","district":"Krefeld","tel":"","fax":"","mail":"","web":"","lat":51.309108,"lng":6.513442},"geometry":{"type":"Point","coordinates":[6.513442,51.309108]}},{"type":"Feature","properties":{"title":"Mobilfunkmast Stahlwerkstraße 2","description":"","street":"Stahlwerkstraße 2","zip":47804,"city":"Krefeld","district":"Krefeld","tel":"","fax":"","mail":"","web":"","lat":51.302428,"lng":6.537362},"geometry":{"type":"Point","coordinates":[6.537362,51.302428]}}]}