{"type":"FeatureCollection","features":[{"type":"Feature","properties":{"title":"Friedhof Traar","description":"Städtischer Friedhof","street":"Kemmerhofstraße","zip":47802,"city":"Krefeld","district":"Krefeld","tel":"02151/475472","fax":"02151/864470","mail":"fb67@krefeld.de","web":"https://www.krefeld.de/de/gruenflaechen/vorortfriedhoefe/","lat":51.381203,"lng":6.600958},"geometry":{"type":"Point","coordinates":[6.600958,51.381203]}},{"type":"Feature","properties":{"title":"Friedhof Verberg","description":"Städtischer Friedhof","street":"Hüttenallee","zip":47802,"city":"Krefeld","district":"Krefeld","tel":"02151/475472","fax":"02151/864470","mail":"fb67@krefeld.de","web":"https://www.krefeld.de/de/gruenflaechen/vorortfriedhoefe/","lat":51.361229,"lng":6.598954},"geometry":{"type":"Point","coordinates":[6.598954,51.361229]}},{"type":"Feature","properties":{"title":"Friedhof Elfrath","description":"Städtischer Friedhof","street":"An der Elfrather Mühle 115","zip":47802,"city":"Krefeld","district":"Krefeld","tel":"02151/475472","fax":"02151/864470","mail":"fb67@krefeld.de","web":"https://www.krefeld.de/de/gruenflaechen/vorortfriedhoefe/","lat":51.375685,"lng":6.617785},"geometry":{"type":"Point","coordinates":[6.617785,51.375685]}},{"type":"Feature","properties":{"title":"Friedhof Hüls","description":"Städtischer Friedhof","street":"Am Strathof","zip":47839,"city":"Krefeld","district":"Krefeld","tel":"02151/734475","fax":"02151/864470","mail":"fb67@krefeld.de","web":"https://www.krefeld.de/de/gruenflaechen/vorortfriedhoefe/","lat":51.380576,"lng":6.504117},"geometry":{"type":"Point","coordinates":[6.504117,51.380576]}},{"type":"Feature","properties":{"title":"Jüdischer Friedhof Hüls","description":"Ehemaliger Friedhof der jüdischen Gemeinde Hüls","street":"Am Strathof","zip":47839,"city":"Krefeld","district":"Krefeld","tel":"02151/864454","fax":"02151/864470","mail":"fb67@krefeld.de","web":"https://www.krefeld.de/de/gruenflaechen/weitere-friedhoefe/","lat":51.378121,"lng":6.503019},"geometry":{"type":"Point","coordinates":[6.503019,51.378121]}},{"type":"Feature","properties":{"title":"Friedhof Hohenbudberg","description":"Katholischer Friedhof der Gemeinde St. Matthias","street":"Kirchstraße","zip":47829,"city":"Krefeld","district":"Krefeld","tel":"02151/480186","fax":"02151/46927","mail":"gemeindebuero.stpeter@gdg-st-nikolaus.de","web":"https://www.krefeld.de/de/gruenflaechen/weitere-friedhoefe/","lat":51.370329,"lng":6.665579},"geometry":{"type":"Point","coordinates":[6.665579,51.370329]}},{"type":"Feature","properties":{"title":"Friedhof Dreifaltigkeitskloster","description":"Klosterfriedhof","street":"Am Dreifaltigkeitskloster","zip":47807,"city":"Krefeld","district":"Krefeld","tel":"","fax":"","mail":"sr.laurentia@ak-neuss.de","web":"https://www.krefeld.de/de/gruenflaechen/weitere-friedhoefe/","lat":51.313044,"lng":6.575827},"geometry":{"type":"Point","coordinates":[6.575827,51.313044]}},{"type":"Feature","properties":{"title":"Friedhof Fichtenhain","description":"Ehemaliger Friedhof des Jugendheims Fichtenhain","street":"Fichtenhainer Allee","zip":47807,"city":"Krefeld","district":"Krefeld","tel":"02151/864454","fax":"02151/864470","mail":"fb67@krefeld.de","web":"https://www.krefeld.de/de/gruenflaechen/weitere-friedhoefe/","lat":51.291674,"lng":6.567163},"geometry":{"type":"Point","coordinates":[6.567163,51.291674]}},{"type":"Feature","properties":{"title":"Friedhof Linn","description":"Städtischer Friedhof","street":"Hammerstraße","zip":47809,"city":"Krefeld","district":"Krefeld","tel":"02151/573830","fax":"02151/864470","mail":"fb67@krefeld.de","web":"https://www.krefeld.de/de/gruenflaechen/vorortfriedhoefe/","lat":51.338586,"lng":6.641524},"geometry":{"type":"Point","coordinates":[6.641524,51.338586]}},{"type":"Feature","properties":{"title":"Alter Jüdischer Friedhof","description":"Ehemaliger Friedhof der jüdischen Gemeinde Krefeld","street":"Heideckstraße","zip":47805,"city":"Krefeld","district":"Krefeld","tel":"02151/864454","fax":"02151/864469","mail":"fb67@krefeld.de","web":"https://www.krefeld.de/de/gruenflaechen/weitere-friedhoefe/","lat":51.317288,"lng":6.551579},"geometry":{"type":"Point","coordinates":[6.551579,51.317288]}},{"type":"Feature","properties":{"title":"Friedhof Oppum","description":"Städtischer Friedhof","street":"Heckschenstraße","zip":47809,"city":"Krefeld","district":"Krefeld","tel":"02151/547160","fax":"02151/864470","mail":"fb67@krefeld.de","web":"https://www.krefeld.de/de/gruenflaechen/vorortfriedhoefe/","lat":51.325181,"lng":6.619979},"geometry":{"type":"Point","coordinates":[6.619979,51.325181]}},{"type":"Feature","properties":{"title":"Hauptfriedhof (neuer Teil)","description":"Städtischer Friedhof","street":"Heideckstraße 127","zip":47805,"city":"Krefeld","district":"Krefeld","tel":"02151/864454","fax":"02151/864470","mail":"fb67@krefeld.de","web":"https://www.krefeld.de/de/gruenflaechen/der-hauptfriedhof/","lat":51.313709,"lng":6.548571},"geometry":{"type":"Point","coordinates":[6.548571,51.313709]}},{"type":"Feature","properties":{"title":"Friedhof Bockum","description":"Städtischer Friedhof","street":"Am Badezentrum 141","zip":47800,"city":"Krefeld","district":"Krefeld","tel":"02151/594566","fax":"02151/864470","mail":"fb67@krefeld.de","web":"https://www.krefeld.de/de/gruenflaechen/vorortfriedhoefe/","lat":51.353992,"lng":6.618026},"geometry":{"type":"Point","coordinates":[6.618026,51.353992]}},{"type":"Feature","properties":{"title":"Friedhof Gellep-Stratum","description":"Städtischer Friedhof","street":"Heidbergsweg","zip":47809,"city":"Krefeld","district":"Krefeld","tel":"02151/572977","fax":"02151/864470","mail":"fb67@krefeld.de","web":"https://www.krefeld.de/de/gruenflaechen/vorortfriedhoefe/","lat":51.324265,"lng":6.679204},"geometry":{"type":"Point","coordinates":[6.679204,51.324265]}},{"type":"Feature","properties":{"title":"Hauptfriedhof (alter Teil)","description":"Städtischer Friedhof","street":"Heideckstraße","zip":47805,"city":"Krefeld","district":"Krefeld","tel":"02151/864454","fax":"02151/864470","mail":"fb67@krefeld.de","web":"https://www.krefeld.de/de/gruenflaechen/der-hauptfriedhof/","lat":51.317323,"lng":6.555407},"geometry":{"type":"Point","coordinates":[6.555407,51.317323]}},{"type":"Feature","properties":{"title":"Friedhof Uerdingen","description":"Städtischer Friedhof","street":"Friedensstraße","zip":47829,"city":"Krefeld","district":"Krefeld","tel":"02151/43814","fax":"02151/864470","mail":"fb67@krefeld.de","web":"https://www.krefeld.de/de/gruenflaechen/vorortfriedhoefe/","lat":51.372002,"lng":6.645927},"geometry":{"type":"Point","coordinates":[6.645927,51.372002]}},{"type":"Feature","properties":{"title":"Neuer Jüdischer Friedhof","description":"Friedhof der jüdischen Gemeinde Krefeld","street":"Alte Gladbacher Straße","zip":47905,"city":"Krefeld","district":"Krefeld","tel":"02151/565450","fax":"02151/5654520","mail":"info@jg-krefeld.de","web":"https://www.krefeld.de/de/gruenflaechen/weitere-friedhoefe/","lat":51.317405,"lng":6.548197},"geometry":{"type":"Point","coordinates":[6.548197,51.317405]}},{"type":"Feature","properties":{"title":"Jüdischer Friedhof Linn","description":"Ehemaliger Friedhof der jüdischen Gemeinde Linn","street":"Kreuzweg","zip":47809,"city":"Krefeld","district":"Krefeld","tel":"02151/864454","fax":"02151/864470","mail":"fb67@krefeld.de","web":"https://www.krefeld.de/de/gruenflaechen/weitere-friedhoefe/","lat":51.336181,"lng":6.632563},"geometry":{"type":"Point","coordinates":[6.632563,51.336181]}},{"type":"Feature","properties":{"title":"Friedhof Fischeln","description":"Städtischer Friedhof","street":"Kölner Straße 730","zip":47807,"city":"Krefeld","district":"Krefeld","tel":"02151/305889","fax":"02151/864470","mail":"fb67@krefeld.de","web":"https://www.krefeld.de/de/gruenflaechen/vorortfriedhoefe/","lat":51.29821,"lng":6.598951},"geometry":{"type":"Point","coordinates":[6.598951,51.29821]}}]}