{"type":"FeatureCollection","features":[{"type":"Feature","properties":{"title":"Cafe talk about","description":"Christliches Café der Evangelisch-Freikirchlichen Gemeinde","street":"Dreikönigenstraße 6","zip":47799,"city":"Krefeld","district":"Krefeld","tel":"02151/7633536","fax":"","mail":"talkabout@bruedergemeinde.de","web":"http://www.bruedergemeinde.de/gemeinde/cafe-talk-about.asp","lat":51.331129,"lng":6.571093},"geometry":{"type":"Point","coordinates":[6.571093,51.331129]}},{"type":"Feature","properties":{"title":"Heilsarmee","description":"","street":"Voltastraße 50","zip":47805,"city":"Krefeld","district":"Krefeld","tel":"02151/937260","fax":"02151/9372626","mail":"krefeldgbh@heilsarmee.de","web":"http://www.heilsarmee.de/goestablomberghaus/","lat":51.325871,"lng":6.578845},"geometry":{"type":"Point","coordinates":[6.578845,51.325871]}},{"type":"Feature","properties":{"title":"Buddhistisches Zentrum Krefeld","description":"","street":"Mariannenstraße 33","zip":47799,"city":"Krefeld","district":"Krefeld","tel":"02151/6554622","fax":"","mail":"krefeld@diamondway-center.org","web":"http://www.buddhismus-krefeld.de","lat":51.329762,"lng":6.571442},"geometry":{"type":"Point","coordinates":[6.571442,51.329762]}},{"type":"Feature","properties":{"title":"Evangelischer Kirchenkreis Krefeld-Viersen","description":"Verwaltungsamt des Kirchenkreises und des Evangelischen Gemeindeverbandes Krefeld","street":"An der Pauluskirche 1","zip":47803,"city":"Krefeld","district":"Krefeld","tel":"02151/76900","fax":"02151/769055","mail":"info@ev-kirche-krefeld-viersen.de","web":"http://www.ekir.de/krefeld/","lat":51.345521,"lng":6.548764},"geometry":{"type":"Point","coordinates":[6.548764,51.345521]}},{"type":"Feature","properties":{"title":"Büro der Regionaldekane für die Regionen Krefeld und Kempen-Viersen","description":"Verwaltung der katholischen Kirche","street":"Dionysiusplatz 22","zip":47798,"city":"Krefeld","district":"Krefeld","tel":"02151/656860","fax":"02151/6568650","mail":"regionen-kv-kr@bistum-aachen.de","web":"http://www.region-kr.kibac.de/","lat":51.332961,"lng":6.55959},"geometry":{"type":"Point","coordinates":[6.55959,51.332961]}},{"type":"Feature","properties":{"title":"Freie Volksmission Krefeld e.V.","description":"","street":"Am Herbertzhof 11","zip":47809,"city":"Krefeld","district":"Krefeld","tel":"02151/545151","fax":"02151/951293","mail":"","web":"http://www.freie-volksmission.de/","lat":51.322747,"lng":6.601714},"geometry":{"type":"Point","coordinates":[6.601714,51.322747]}},{"type":"Feature","properties":{"title":"Stadtoase Krefeld (katholisch)","description":"Haus für Spiritualität und Begegnung, Fachbereich Exerzitienarbeit im Bistum Aachen","street":"Schroersstraße 9","zip":47803,"city":"Krefeld","district":"Krefeld","tel":"02151/755862","fax":"","mail":"info@stadtoase-krefeld.de","web":"http://www.stadtoase-krefeld.de/","lat":51.340936,"lng":6.549239},"geometry":{"type":"Point","coordinates":[6.549239,51.340936]}},{"type":"Feature","properties":{"title":"Ökumenische Begegnungsstätte Hüls","description":"Raum für gemeindliche Aktivitäten und Treffpunkt der Katholischen Pfarrgemeinde St. Cyriakus und der Evangelischen Kirchengemeinde Hüls","street":"Leuther Straße 19","zip":47839,"city":"Krefeld","district":"Krefeld","tel":"02151/748471","fax":"02151/369595","mail":"denter@oekumenische-begegnungsstaette.de","web":"http://www.oekumenische-begegnungsstaette.de/","lat":51.373978,"lng":6.494496},"geometry":{"type":"Point","coordinates":[6.494496,51.373978]}},{"type":"Feature","properties":{"title":"Gemeinsames Haus Elfrath","description":"Ökumenisches Gemeindezentrum","street":"Alte Rather Straße 105","zip":47802,"city":"Krefeld","district":"Krefeld","tel":"02151/472379","fax":"","mail":"","web":"http://st-nikolaus-krefeld.de/oekumene/","lat":51.371701,"lng":6.614783},"geometry":{"type":"Point","coordinates":[6.614783,51.371701]}},{"type":"Feature","properties":{"title":"Gemeindedienst für Mission und Ökumene Niederrhein (evangelisch)","description":"Regionales Büro für ökumenische Projekte der Evangelischen Kirche im Rheinland","street":"Westwall 37","zip":47798,"city":"Krefeld","district":"Krefeld","tel":"02151/62680","fax":"02151/626820","mail":"niederrhein@gmoe.de","web":"http://gmoe.de/index.php?article_id=51","lat":51.32876,"lng":6.560877},"geometry":{"type":"Point","coordinates":[6.560877,51.32876]}},{"type":"Feature","properties":{"title":"Hindutempel Sri Naagapoosani Ambaal","description":"Tamilische Hindugemeinde","street":"Girmesgath 7","zip":47803,"city":"Krefeld","district":"Krefeld","tel":"02151/5650045","fax":"","mail":"","web":"https://de-de.facebook.com/tempelkrefeld","lat":51.342307,"lng":6.545137},"geometry":{"type":"Point","coordinates":[6.545137,51.342307]}},{"type":"Feature","properties":{"title":"Christliche Gemeinde im Haus am See","description":"","street":"Buschstraße 79","zip":47800,"city":"Krefeld","district":"Krefeld","tel":"02151/3270487","fax":"","mail":"kontakt@christen-in-krefeld.de","web":"http://christen-in-krefeld.de/","lat":51.351001,"lng":6.599556},"geometry":{"type":"Point","coordinates":[6.599556,51.351001]}},{"type":"Feature","properties":{"title":"THOBIM - The House of Blessing International Ministries (Haus des Segens International e.V.)","description":"In der Evangelischen Kirchengemeinde Krefeld-Oppum","street":"Thielenstraße 34","zip":47809,"city":"Krefeld","district":"Krefeld","tel":"02151/4468138","fax":"","mail":"pastorsamuel.mukete@yahoo.com","web":"http://www.thehouseofblessinginternationalministries.org/","lat":51.331415,"lng":6.610398},"geometry":{"type":"Point","coordinates":[6.610398,51.331415]}}]}