{"type":"FeatureCollection","features":[{"type":"Feature","properties":{"title":"St.-Karl-Borromäus-Kirche (katholisch)","description":"Gemeinde St. Karl Borromäus in der Pfarrei St. Augustinus (Krefeld-Süd)","street":"Fungendonk 14","zip":47809,"city":"Krefeld","district":"Krefeld","tel":"02151/55850","fax":"02151/548544","mail":"pfarrbuero@kabop.de","web":"http://www.kabop.de/","lat":51.318983,"lng":6.606342},"geometry":{"type":"Point","coordinates":[6.606342,51.318983]}},{"type":"Feature","properties":{"title":"St.-Pius-X.-Kirche (katholisch)","description":"Gemeinde St. Nikolaus (Krefeld-Ost)","street":"Traarer Straße 380","zip":47829,"city":"Krefeld","district":"Krefeld","tel":"02151/493470","fax":"02151/493499","mail":"gemeindebuero.stpiusx@gdg-st-nikolaus.de","web":"http://st-nikolaus-krefeld.de/kirchen/sanktpius","lat":51.363261,"lng":6.615956},"geometry":{"type":"Point","coordinates":[6.615956,51.363261]}},{"type":"Feature","properties":{"title":"Liebfrauenkirche (katholisch)","description":"Gemeinde Papst Johannes XXIII. (Krefeld-Mitte)","street":"Von-Itter-Platz 1","zip":47798,"city":"Krefeld","district":"Krefeld","tel":"02151/27560","fax":"02151/615731","mail":"johannes23-krefeld@web.de","web":"http://papst-johannes-xxxiii-krefeld.kibac.de/","lat":51.337588,"lng":6.556759},"geometry":{"type":"Point","coordinates":[6.556759,51.337588]}},{"type":"Feature","properties":{"title":"St.-Anna-Kirche (katholisch)","description":"Gemeinde St. Anna in der Pfarrei Heiligste Dreifaltigkeit (Krefeld-Nordwest)","street":"Inrather Straße 123","zip":47803,"city":"Krefeld","district":"Krefeld","tel":"02151/754235","fax":"","mail":"gemeindebuero@st-anna-krefeld.de","web":"http://www.st-anna-krefeld.de/","lat":51.344321,"lng":6.553262},"geometry":{"type":"Point","coordinates":[6.553262,51.344321]}},{"type":"Feature","properties":{"title":"St.-Heinrich-Kirche (katholisch)","description":"Gemeinde St. Nikolaus (Krefeld-Ost)","street":"Heinrich-Theißen-Straße","zip":47829,"city":"Krefeld","district":"Krefeld","tel":"02151/493470","fax":"02151/493499","mail":"gemeindebuero.stpiusx@gdg-st-nikolaus.de","web":"http://st-nikolaus-krefeld.de/kirchen/sanktheinrich","lat":51.361042,"lng":6.643459},"geometry":{"type":"Point","coordinates":[6.643459,51.361042]}},{"type":"Feature","properties":{"title":"Mennonitenkirche","description":"Mennonitengemeinde Krefeld K.d.ö.R.","street":"Königstraße 134","zip":47798,"city":"Krefeld","district":"Krefeld","tel":"02151/658390","fax":"02151/6583916","mail":"info@mennoniten-kr.de","web":"http://www.mennoniten-kr.de/","lat":51.332865,"lng":6.563328},"geometry":{"type":"Point","coordinates":[6.563328,51.332865]}},{"type":"Feature","properties":{"title":"Markuskirche (evangelisch)","description":"Evangelische Kirchengemeinde Krefeld-Süd im Gemeindeverband Krefeld","street":"Kölner Straße 480","zip":47807,"city":"Krefeld","district":"Krefeld","tel":"02151/301302","fax":"02151/150675","mail":"kamphausen@evangelischeimsueden.de","web":"http://www.evangelischimsueden.de/","lat":51.307432,"lng":6.586092},"geometry":{"type":"Point","coordinates":[6.586092,51.307432]}},{"type":"Feature","properties":{"title":"Thomaskirche (evangelisch)","description":"Evangelische Kirchengemeinde Krefeld-Nord im Gemeindeverband Krefeld","street":"Flünnertzdyk 310","zip":47802,"city":"Krefeld","district":"Krefeld","tel":"02151/561455","fax":"","mail":"krefeld-nord@ekir.de","web":"http://www.ekir.de/krefeld/kirchenkreis/krefeld-nord.php","lat":51.369846,"lng":6.574232},"geometry":{"type":"Point","coordinates":[6.574232,51.369846]}},{"type":"Feature","properties":{"title":"Evangeliumshaus (Christengemeinde Krefeld)","description":"Gemeinde im Bund Freikirchlicher Pfingstgemeinden KdöR, auch Kirche der Tamilischen Christlichen Gemeinde","street":"Gladbacher Straße 547","zip":47805,"city":"Krefeld","district":"Krefeld","tel":"02151/318487","fax":"","mail":"buero@evangeliumshaus.de","web":"http://www.evangeliumshaus.de/","lat":51.308722,"lng":6.548022},"geometry":{"type":"Point","coordinates":[6.548022,51.308722]}},{"type":"Feature","properties":{"title":"Adventhaus Krefeld (Adventgemeinde Krefeld)","description":"Freikirche der Siebenten-Tags-Adventisten","street":"Freiligrathstraße 48","zip":47799,"city":"Krefeld","district":"Krefeld","tel":"0203/39207229","fax":"","mail":"adventisten.krefeld@googlemail.com","web":"http://krefeld.adventist.eu/","lat":51.3341,"lng":6.57965},"geometry":{"type":"Point","coordinates":[6.57965,51.3341]}},{"type":"Feature","properties":{"title":"Neuapostolische Kirche Krefeld-Fischeln","description":"","street":"Anrather Straße 140","zip":47807,"city":"Krefeld","district":"Krefeld","tel":"0180/13157700402","fax":"","mail":"krefeld-fischeln@nak-krefeld.de","web":"http://www.nak-krefeld.de/krefeld-fischeln","lat":51.301108,"lng":6.579261},"geometry":{"type":"Point","coordinates":[6.579261,51.301108]}},{"type":"Feature","properties":{"title":"Neuapostolische Kirche Krefeld-Uerdingen","description":"","street":"Kastanienstraße 113","zip":47829,"city":"Krefeld","district":"Krefeld","tel":"0180/13157700404","fax":"","mail":"krefeld-uerdingen@nak-krefeld.de","web":"http://www.nak-krefeld.de/krefeld-uerdingen","lat":51.361602,"lng":6.640339},"geometry":{"type":"Point","coordinates":[6.640339,51.361602]}},{"type":"Feature","properties":{"title":"St.-Cyriakus-Kirche (katholisch)","description":"Gemeinde St. Cyriakus (Krefeld-Nordwest)","street":"Hülser Markt 21","zip":47839,"city":"Krefeld","district":"Krefeld","tel":"02151/730397","fax":"02151/735824","mail":"buero@st-cyriakus-huels.de","web":"http://www.st-cyriakus-huels.de/","lat":51.373326,"lng":6.51042},"geometry":{"type":"Point","coordinates":[6.51042,51.373326]}},{"type":"Feature","properties":{"title":"St.-Barbara-Kirche (russisch-orthodox)","description":"Russisch-orthodoxe Kirche, Gemeinde der Hl. Großmärtyrerin Barbara","street":"Wielandstraße 11","zip":47799,"city":"Krefeld","district":"Krefeld","tel":"0176/62696262","fax":"","mail":"pfarrer@rok-krefeld.de","web":"http://www.rok-krefeld.de/","lat":51.34075,"lng":6.570009},"geometry":{"type":"Point","coordinates":[6.570009,51.34075]}},{"type":"Feature","properties":{"title":"St.-Josef-Kirche (Mitte) (katholisch)","description":"Gemeinde Papst Johannes XXIII. (Krefeld-Mitte)","street":"Roßstraße 159","zip":47798,"city":"Krefeld","district":"Krefeld","tel":"02151/770932","fax":"02151/770960","mail":"johannes23-krefeld@web.de","web":"http://papst-johannes-xxxiii-krefeld.kibac.de/","lat":51.327124,"lng":6.5561},"geometry":{"type":"Point","coordinates":[6.5561,51.327124]}},{"type":"Feature","properties":{"title":"St.-Michael-Kirche (katholisch)","description":"Gemeinde St. Michael in der Pfarrei St. Michael (Krefeld-Süd)","street":"Am Konnertzfeld 29","zip":47804,"city":"Krefeld","district":"Krefeld","tel":"02151/711529","fax":"02151/711530","mail":"st.michael-krefeld@t-online.de","web":"http://st-michael-lindental.kibac.de/","lat":51.320344,"lng":6.532635},"geometry":{"type":"Point","coordinates":[6.532635,51.320344]}},{"type":"Feature","properties":{"title":"St.-Thomas-Morus-Kirche (katholisch)","description":"Gemeinde St. Thomas Morus in der Pfarrei Heiligste Dreifaltigkeit (Krefeld-Nordwest)","street":"Kempener Allee 70","zip":47803,"city":"Krefeld","district":"Krefeld","tel":"02151/750298","fax":"","mail":"kontakt@st-thomas-morus-krefeld.de","web":"http://www.st-thomas-morus-krefeld.de/","lat":51.33663,"lng":6.539537},"geometry":{"type":"Point","coordinates":[6.539537,51.33663]}},{"type":"Feature","properties":{"title":"Heilige-Schutzengel-Kirche (katholisch)","description":"Gemeinde Zu den Heiligen Schutzengeln in der Pfarrei St. Augustinus (Krefeld-Süd)","street":"Hauptstraße 12","zip":47809,"city":"Krefeld","district":"Krefeld","tel":"02151/55850","fax":"02151/511575","mail":"pfarrbuero@schutzengel-krefeld.de","web":"http://www.schutzengel-krefeld.de/","lat":51.329287,"lng":6.612662},"geometry":{"type":"Point","coordinates":[6.612662,51.329287]}},{"type":"Feature","properties":{"title":"Pax-Christi-Kirche (katholisch)","description":"Pax-Christi-Gemeinde in der Pfarrei St. Augustinus (Krefeld-Süd)","street":"Glockenspitz 265","zip":47809,"city":"Krefeld","district":"Krefeld","tel":"02151/55850","fax":"02151/558579","mail":"info@pax-christi-krefeld.de","web":"http://pax-christi-krefeld.de/","lat":51.336421,"lng":6.606937},"geometry":{"type":"Point","coordinates":[6.606937,51.336421]}},{"type":"Feature","properties":{"title":"Kirche Jesu Christi der Heiligen der letzten Tage (Mormonen)","description":"","street":"Untergath 25","zip":47805,"city":"Krefeld","district":"Krefeld","tel":"02151/399227","fax":"","mail":"","web":"http://www.kirche-jesu-christi.org/","lat":51.316709,"lng":6.577819},"geometry":{"type":"Point","coordinates":[6.577819,51.316709]}},{"type":"Feature","properties":{"title":"Apostolische Gemeinschaft e.V.","description":"Gemeinde Krefeld","street":"Prinzenbergstraße 89","zip":47803,"city":"Krefeld","district":"Krefeld","tel":"","fax":"","mail":"krefeld@apostolisch.de","web":"http://www.apostolisch.de/duesseldorf-bez/krefeld.html","lat":51.341988,"lng":6.543565},"geometry":{"type":"Point","coordinates":[6.543565,51.341988]}},{"type":"Feature","properties":{"title":"St.-Dionysius-Kirche (katholisch)","description":"Gemeinde Papst Johannes XXIII. (Krefeld-Mitte)","street":"Dionysiusplatz 1","zip":47798,"city":"Krefeld","district":"Krefeld","tel":"02151/602190","fax":"02151/602192","mail":"johannes23-krefeld@web.de","web":"http://papst-johannes-xxxiii-krefeld.kibac.de/","lat":51.332672,"lng":6.560432},"geometry":{"type":"Point","coordinates":[6.560432,51.332672]}},{"type":"Feature","properties":{"title":"St.-Gertrudis-Kirche (katholisch)","description":"Gemeinde St. Gertrudis in der Pfarrei St. Christophorus (Krefeld-Nord)","street":"Uerdinger Straße 627","zip":47800,"city":"Krefeld","district":"Krefeld","tel":"02151/952350","fax":"","mail":"st-gertrudis@st-christophorus-krefeld.de","web":"http://st-gertrudis-krefeld.de/","lat":51.347279,"lng":6.619219},"geometry":{"type":"Point","coordinates":[6.619219,51.347279]}},{"type":"Feature","properties":{"title":"St.-Martin-Kirche (katholisch)","description":"Gemeinde Maria Frieden (Krefeld-Süd)","street":"Ispelsstraße 69","zip":47805,"city":"Krefeld","district":"Krefeld","tel":"02151/312976","fax":"02151/317024","mail":"st.martin@maria-frieden-krefeld.de","web":"http://maria-frieden-krefeld.de/","lat":51.318681,"lng":6.559854},"geometry":{"type":"Point","coordinates":[6.559854,51.318681]}},{"type":"Feature","properties":{"title":"St.-Antonius-Pfarrheim (katholisch)","description":"Gemeinde Heilig Geist (Krefeld-Mitte)","street":"Antoniusplatz 11","zip":47805,"city":"Krefeld","district":"Krefeld","tel":"02151/24402","fax":"02151/24477","mail":"pfarrbuero@heilig-geist-krefeld.de","web":"http://heilig-geist-krefeld.de/","lat":51.324659,"lng":6.580521},"geometry":{"type":"Point","coordinates":[6.580521,51.324659]}},{"type":"Feature","properties":{"title":"Neuapostolische Kirche Krefeld-West","description":"","street":"Forstwaldstraße 201","zip":47804,"city":"Krefeld","district":"Krefeld","tel":"0180/13157700405","fax":"","mail":"krefeld-west@nak-krefeld.de","web":"http://www.nak-krefeld.de/krefeld-west","lat":51.314332,"lng":6.53185},"geometry":{"type":"Point","coordinates":[6.53185,51.314332]}},{"type":"Feature","properties":{"title":"St.-Stephan-Kirche (katholisch)","description":"Gemeinde Heilig Geist (Krefeld-Mitte)","street":"Stephanplatz","zip":47799,"city":"Krefeld","district":"Krefeld","tel":"02151/24402","fax":"02151/24477","mail":"pfarrbuero@heilig-geist-krefeld.de","web":"http://www.heilig-geist-krefeld.de/","lat":51.330119,"lng":6.570054},"geometry":{"type":"Point","coordinates":[6.570054,51.330119]}},{"type":"Feature","properties":{"title":"Johanneskirche (Forstwald) (evangelisch)","description":"Evangelische Kirchengemeinde Alt-Krefeld im Gemeindeverband Krefeld","street":"Bellenweg 159","zip":47804,"city":"Krefeld","district":"Krefeld","tel":"02151/398837","fax":"02151/318079","mail":"sylvia.pleger@ekir.de","web":"http://johanneskirche.alt-krefeld.de/","lat":51.300431,"lng":6.505518},"geometry":{"type":"Point","coordinates":[6.505518,51.300431]}},{"type":"Feature","properties":{"title":"Lutherkirche (evangelisch)","description":"Evangelische Kirchengemeinde Krefeld-Süd im Gemeindeverband Krefeld","street":"Lutherplatz 27","zip":47805,"city":"Krefeld","district":"Krefeld","tel":"02151/315669","fax":"","mail":"busmann@evangelischeimsueden.de","web":"http://www.evangelischimsueden.de/","lat":51.32083,"lng":6.563977},"geometry":{"type":"Point","coordinates":[6.563977,51.32083]}},{"type":"Feature","properties":{"title":"Erste Kirche Christi - Wissenschaftler - Krefeld","description":"Christliche Wissenschaft (Christan Science) in Deutschland","street":"Dießemer Straße 147","zip":47799,"city":"Krefeld","district":"Krefeld","tel":"02151/631311","fax":"","mail":"","web":"http://christliche-wissenschaft.de/adresse/erste-kirche-christi-wissenschaftler-krefeld","lat":51.334395,"lng":6.574955},"geometry":{"type":"Point","coordinates":[6.574955,51.334395]}},{"type":"Feature","properties":{"title":"Freie evangelische Gemeinde Krefeld KdöR (FeG)","description":"","street":"Oelschlägerstraße 53","zip":47798,"city":"Krefeld","district":"Krefeld","tel":"02151/310067","fax":"02151/9495790","mail":"info@feg-krefeld.de","web":"http://www.feg-krefeld.de/","lat":51.3261,"lng":6.562574},"geometry":{"type":"Point","coordinates":[6.562574,51.3261]}},{"type":"Feature","properties":{"title":"Heiliger Geist (griechisch-orthodox)","description":"Kirche des Heiligen Geistes zu Krefeld","street":"Sachsenweg 1","zip":47807,"city":"Krefeld","district":"Krefeld","tel":"02151/753790","fax":"","mail":"","web":"http://www.orthodoxie.net/index.php?id=3","lat":51.3106,"lng":6.558666},"geometry":{"type":"Point","coordinates":[6.558666,51.3106]}},{"type":"Feature","properties":{"title":"Michael-Kirche (Die Christengemeinschaft)","description":"","street":"Grenzstraße 130","zip":47799,"city":"Krefeld","district":"Krefeld","tel":"02151/592855","fax":"02151/594798","mail":"ingrid.grossbach@christengemeinschaft.org","web":"http://www.christengemeinschaft.de/gemeinden/1727/index.html","lat":51.340136,"lng":6.583869},"geometry":{"type":"Point","coordinates":[6.583869,51.340136]}},{"type":"Feature","properties":{"title":"Christus-König-Kirche (katholisch)","description":"Gemeinde Christus König in der Pfarrei St. Christophorus (Krefeld-Nord)","street":"Zwingenbergstraße 106a","zip":47802,"city":"Krefeld","district":"Krefeld","tel":"02151/560847","fax":"","mail":"christus-koenig@st-christophorus-krefeld.de","web":"http://christus-koenig-verberg.de/","lat":51.363504,"lng":6.596378},"geometry":{"type":"Point","coordinates":[6.596378,51.363504]}},{"type":"Feature","properties":{"title":"St.-Paul-Kirche (katholisch)","description":"Gemeinde St. Nikolaus (Krefeld-Ost)","street":"Irmgardisweg 6","zip":47829,"city":"Krefeld","district":"Krefeld","tel":"02151/470278","fax":"02151/470479","mail":"pfarre.sanktpaul@arcor.de","web":"http://st-nikolaus-krefeld.de/kirchen/sanktpaul","lat":51.355381,"lng":6.632419},"geometry":{"type":"Point","coordinates":[6.632419,51.355381]}},{"type":"Feature","properties":{"title":"Erlöserkirche (evangelisch)","description":"Evangelische Kirchengemeinde Alt-Krefeld im Gemeindeverband Krefeld","street":"Forstwaldstraße 91","zip":47804,"city":"Krefeld","district":"Krefeld","tel":"02151/711646","fax":"02151/711850","mail":"info@erloeserkirche.org","web":"http://erloeserkirche.org/","lat":51.320662,"lng":6.537102},"geometry":{"type":"Point","coordinates":[6.537102,51.320662]}},{"type":"Feature","properties":{"title":"Christuskirche (evangelisch)","description":"Evangelische Kirchengemeinde Krefeld-Ost im Gemeindeverband Krefeld","street":"Schönwasserstraße 110","zip":47800,"city":"Krefeld","district":"Krefeld","tel":"02151/591060","fax":"02151/599523","mail":"gemeindebuero@christus-kirche.de","web":"http://www.christus-kirche.de/","lat":51.341631,"lng":6.594644},"geometry":{"type":"Point","coordinates":[6.594644,51.341631]}},{"type":"Feature","properties":{"title":"St.-Margareta-Kirche (katholisch)","description":"Gemeinde St. Nikolaus (Krefeld-Ost)","street":"Rheinbabenstraße 131","zip":47809,"city":"Krefeld","district":"Krefeld","tel":"02151/570382","fax":"02151/952219","mail":"gemeindebuero.linn@gdg-st-nikolaus.de","web":"http://st-nikolaus-krefeld.de/kirchen/sanktmargareta","lat":51.334845,"lng":6.638903},"geometry":{"type":"Point","coordinates":[6.638903,51.334845]}},{"type":"Feature","properties":{"title":"Königreichsaal Krefeld-Uerdingen (Jehovas Zeugen)","description":"","street":"Kohlplatzweg 61","zip":47809,"city":"Krefeld","district":"Krefeld","tel":"02151/520665","fax":"","mail":"","web":"http://www.jehovaszeugen.de/","lat":51.340326,"lng":6.648387},"geometry":{"type":"Point","coordinates":[6.648387,51.340326]}},{"type":"Feature","properties":{"title":"Königreichsaal Krefeld (Jehovas Zeugen)","description":"","street":"Gatherhofstraße 45","zip":47804,"city":"Krefeld","district":"Krefeld","tel":"02151/9360628","fax":"","mail":"","web":"http://www.jehovaszeugen.de/","lat":51.325139,"lng":6.528446},"geometry":{"type":"Point","coordinates":[6.528446,51.325139]}},{"type":"Feature","properties":{"title":"St.-Elisabeth-von-Thüringen-Kirche (Inrath) (katholisch)","description":"Gemeinde St. Elisabeth von Thüringen in der Pfarrei Heiligste Dreifaltigkeit (Krefeld-Nordwest)","street":"Hülser Straße 576","zip":47803,"city":"Krefeld","district":"Krefeld","tel":"02151/751015","fax":"02151/620798","mail":"gemeindebuero@stelisabeth-inrath.de","web":"http://www.stelisabeth-inrath.de/","lat":51.354706,"lng":6.531853},"geometry":{"type":"Point","coordinates":[6.531853,51.354706]}},{"type":"Feature","properties":{"title":"St.-Maria-Himmelfahrt-Kirche (katholisch)","description":"Gemeinde St. Nikolaus (Krefeld-Ost)","street":"Boedikerstraße 25","zip":47809,"city":"Krefeld","district":"Krefeld","tel":"02151/570382","fax":"02151/952219","mail":"gemeindebuero.linn@gdg-st-nikolaus.de","web":"http://st-nikolaus-krefeld.de/kirchen/sanktmhimmelfahrt","lat":51.342241,"lng":6.642405},"geometry":{"type":"Point","coordinates":[6.642405,51.342241]}},{"type":"Feature","properties":{"title":"St.-Bonifatius-Kirche (katholisch)","description":"Gemeinde Maria Frieden (Krefeld-Süd)","street":"Bonifatiusstraße 17","zip":47807,"city":"Krefeld","district":"Krefeld","tel":"02151/311798","fax":"02151/368326","mail":"st.bonifatius@maria-frieden-krefeld.de","web":"http://maria-frieden-krefeld.de/","lat":51.309475,"lng":6.557318},"geometry":{"type":"Point","coordinates":[6.557318,51.309475]}},{"type":"Feature","properties":{"title":"St.-Hubertus-Kirche (katholisch)","description":"Gemeinde St. Hubertus in der Pfarrei St. Christophorus (Krefeld-Nord)","street":"Hohen Dyk 130","zip":47803,"city":"Krefeld","district":"Krefeld","tel":"02151/620389","fax":"","mail":"st-hubertus@st-christophorus-krefeld.de","web":"http://st-hubertus-krefeld.de/","lat":51.357972,"lng":6.571539},"geometry":{"type":"Point","coordinates":[6.571539,51.357972]}},{"type":"Feature","properties":{"title":"Zionskirche (Evangelisch-Freikirchliche Gemeinde - Baptisten)","description":"auch Kirche der Indischen Gemeinde Krefeld","street":"Seidenstraße 43","zip":47799,"city":"Krefeld","district":"Krefeld","tel":"0151/15154871","fax":"","mail":"a-steinke@arcor.de","web":"http://www.baptisten-krefeld.de/","lat":51.332338,"lng":6.575486},"geometry":{"type":"Point","coordinates":[6.575486,51.332338]}},{"type":"Feature","properties":{"title":"Michaelskirche (evangelisch)","description":"Evangelische Kirchengemeinde Uerdingen, auch Kirche der Abundant Life Ministries","street":"Am Zollhof 1","zip":47829,"city":"Krefeld","district":"Krefeld","tel":"02151/480601","fax":"02151/480696","mail":"info@uerdingen-evangelisch.de","web":"http://www.uerdingen-evangelisch.de/","lat":51.356995,"lng":6.649431},"geometry":{"type":"Point","coordinates":[6.649431,51.356995]}},{"type":"Feature","properties":{"title":"Pauluskirche (evangelisch)","description":"Evangelische Pauluskirchengemeinde Krefeld im Gemeindeverband Krefeld","street":"Hülser Straße 193","zip":47803,"city":"Krefeld","district":"Krefeld","tel":"02151/753785","fax":"","mail":"volker.hendricks@ekir.de","web":"http://www.pauluskirche.info/","lat":51.345085,"lng":6.549047},"geometry":{"type":"Point","coordinates":[6.549047,51.345085]}},{"type":"Feature","properties":{"title":"Evangelisch-Freikirchliche Gemeinde - Brüdergemeinde","description":"","street":"Steckendorfer Straße 70","zip":47799,"city":"Krefeld","district":"Krefeld","tel":"02151/6554892","fax":"","mail":"info@bruedergemeinde.de","web":"http://www.bruedergemeinde.de/","lat":51.338114,"lng":6.567019},"geometry":{"type":"Point","coordinates":[6.567019,51.338114]}},{"type":"Feature","properties":{"title":"Alte Kirche (evangelisch)","description":"Evangelische Kirchengemeinde Alt-Krefeld im Gemeindeverband Krefeld","street":"Evangelischer-Kirch-Platz 1","zip":47798,"city":"Krefeld","district":"Krefeld","tel":"02151/23929","fax":"","mail":"alte.kirche@alt-krefeld.de","web":"http://www.altekirche.alt-krefeld.de/","lat":51.331157,"lng":6.562554},"geometry":{"type":"Point","coordinates":[6.562554,51.331157]}},{"type":"Feature","properties":{"title":"Auferstehungskirche (evangelisch)","description":"Evangelische Kirchengemeinde Krefeld-Oppum im Gemeindeverband Krefeld","street":"Buschdonk 42a","zip":47809,"city":"Krefeld","district":"Krefeld","tel":"02151/542121","fax":"","mail":"","web":"http://oppum.ekir.de/","lat":51.320166,"lng":6.604249},"geometry":{"type":"Point","coordinates":[6.604249,51.320166]}},{"type":"Feature","properties":{"title":"Lukaskirche (evangelisch)","description":"Evangelische Kirchengemeinde Krefeld-Nord im Gemeindeverband Krefeld, auch Kirche der Église évangélique Les Merveilles de Dieu","street":"Breslauer Straße 2","zip":47829,"city":"Krefeld","district":"Krefeld","tel":"02151/42884","fax":"","mail":"krefeld-nord@ekir.de","web":"http://www.ekir.de/krefeld/kirchenkreis/krefeld-nord.php","lat":51.361903,"lng":6.622424},"geometry":{"type":"Point","coordinates":[6.622424,51.361903]}},{"type":"Feature","properties":{"title":"St.-Clemens-Kirche (katholisch)","description":"Gemeinde Maria Frieden (Krefeld-Süd)","street":"Clemensplatz","zip":47807,"city":"Krefeld","district":"Krefeld","tel":"02151/301212","fax":"02151/938776","mail":"st.clemens@maria-frieden-krefeld.de","web":"http://maria-frieden-krefeld.de/","lat":51.302645,"lng":6.586556},"geometry":{"type":"Point","coordinates":[6.586556,51.302645]}},{"type":"Feature","properties":{"title":"St.-Andreas-Kirche (katholisch)","description":"Gemeinde St. Nikolaus (Krefeld-Ost)","street":"Legionstraße 40","zip":47809,"city":"Krefeld","district":"Krefeld","tel":"02151/570382","fax":"02151/952219","mail":"gemeindebuero.linn@gdg-st-nikolaus.de","web":"http://st-nikolaus-krefeld.de/kirchen/sanktandreas","lat":51.329688,"lng":6.673311},"geometry":{"type":"Point","coordinates":[6.673311,51.329688]}},{"type":"Feature","properties":{"title":"St.-Elisabeth-Kirche (Cracau) (katholisch)","description":"Gemeinde Heilig Geist (Krefeld-Mitte)","street":"Viktoriaplatz 1","zip":47799,"city":"Krefeld","district":"Krefeld","tel":"02151/24402","fax":"02151/24477","mail":"pfarrbuero@heilig-geist-krefeld.de","web":"http://www.heilig-geist-krefeld.de/","lat":51.334389,"lng":6.578122},"geometry":{"type":"Point","coordinates":[6.578122,51.334389]}},{"type":"Feature","properties":{"title":"St.-Johann-Baptist-Kirche (katholisch)","description":"Gemeinde Maria Frieden (Krefeld-Süd)","street":"Johannesplatz","zip":47805,"city":"Krefeld","district":"Krefeld","tel":"02151/311059","fax":"02151/394473","mail":"st.johann@maria-frieden-krefeld.de","web":"http://maria-frieden-krefeld.de/","lat":51.319402,"lng":6.56975},"geometry":{"type":"Point","coordinates":[6.56975,51.319402]}},{"type":"Feature","properties":{"title":"St.-Josef-Kirche (Traar) (katholisch)","description":"Gemeinde St. Josef in der Pfarrei St. Christophorus (Krefeld-Nord)","street":"Moerser Landstraße 425","zip":47802,"city":"Krefeld","district":"Krefeld","tel":"02151/560556","fax":"","mail":"st-josef@st-christophorus-krefeld.de","web":"http://gemeinde-st-josef-traar.de/","lat":51.382014,"lng":6.60077},"geometry":{"type":"Point","coordinates":[6.60077,51.382014]}},{"type":"Feature","properties":{"title":"St.-Matthias-Kirche (katholisch)","description":"Gemeinde St. Nikolaus (Krefeld-Ost)","street":"Kirchstraße 1","zip":47829,"city":"Krefeld","district":"Krefeld","tel":"02151/480186","fax":"02151/46927","mail":"gemeindebuero.stpeter@gdg-st-nikolaus.de","web":"http://st-nikolaus-krefeld.de/kirchen/sanktmatthias","lat":51.370643,"lng":6.665655},"geometry":{"type":"Point","coordinates":[6.665655,51.370643]}},{"type":"Feature","properties":{"title":"St.-Peter-Kirche (katholisch)","description":"Gemeinde St. Nikolaus (Krefeld-Ost)","street":"Kirchplatz 2","zip":47829,"city":"Krefeld","district":"Krefeld","tel":"02151/480186","fax":"02151/46927","mail":"gemeindebuero.stpeter@gdg-st-nikolaus.de","web":"http://st-nikolaus-krefeld.de/kirchen/sanktpeter","lat":51.35357,"lng":6.650404},"geometry":{"type":"Point","coordinates":[6.650404,51.35357]}},{"type":"Feature","properties":{"title":"Erscheinung Christi (altkatholisch)","description":"Katholische Pfarrgemeinde der Alt-Katholiken am Niederrhein","street":"Dreikönigenstraße 54","zip":47799,"city":"Krefeld","district":"Krefeld","tel":"02151/601500","fax":"02151/615000","mail":"krefeld@alt-katholisch.de","web":"http://www.alt-katholisch.de/gemeinden/gemeinden/gemeinde-krefeld.html","lat":51.330433,"lng":6.568199},"geometry":{"type":"Point","coordinates":[6.568199,51.330433]}},{"type":"Feature","properties":{"title":"Herz-Jesu-Kirche (Bockum) (katholisch)","description":"Gemeinde Christus König in der Pfarrei St. Christophorus (Krefeld-Nord)","street":"Friedrich-Ebert-Straße 164","zip":47800,"city":"Krefeld","district":"Krefeld","tel":"02151/950420","fax":"02151/950427","mail":"herz-jesu@st-christophorus-krefeld.de","web":"http://herz-jesu-krefeld-bockum.kibac.de/","lat":51.344655,"lng":6.592083},"geometry":{"type":"Point","coordinates":[6.592083,51.344655]}},{"type":"Feature","properties":{"title":"Herz-Jesu-Kirche (Königshof) (katholisch)","description":"Gemeinde Maria Frieden (Krefeld-Süd)","street":"Kneinstraße 64","zip":47807,"city":"Krefeld","district":"Krefeld","tel":"02151/311363","fax":"02151/933604","mail":"herz-jesu@maria-frieden-krefeld.de","web":"http://maria-frieden-krefeld.de/","lat":51.314759,"lng":6.581054},"geometry":{"type":"Point","coordinates":[6.581054,51.314759]}},{"type":"Feature","properties":{"title":"Maria-Waldrast-Kirche (St. Mariä Heimsuchung) (katholisch)","description":"Gemeinde Maria-Waldrast in der Pfarrei St. Michael (Krefeld-Süd)","street":"Hermann-Schumacher-Straße 48","zip":47804,"city":"Krefeld","district":"Krefeld","tel":"02151/312717","fax":"02151/318253","mail":"pfarrbuero@pfarre-maria-waldrast.de","web":"http://www.pfarre-maria-waldrast.de/","lat":51.296939,"lng":6.504192},"geometry":{"type":"Point","coordinates":[6.504192,51.296939]}},{"type":"Feature","properties":{"title":"Kreuzkirche Hüls (evangelisch)","description":"Evangelische Kirchengemeinde Hüls","street":"Bonhoefferstraße 31","zip":47839,"city":"Krefeld","district":"Krefeld","tel":"02151/730988","fax":"02151/734568","mail":"ev.kirchengemeinde-huels@t-online.de","web":"http://www.kreuzkirche-huels.de/","lat":51.371211,"lng":6.50974},"geometry":{"type":"Point","coordinates":[6.50974,51.371211]}},{"type":"Feature","properties":{"title":"Friedenskirche (evangelisch)","description":"Evangelische Friedenskirchengemeinde Krefeld im Gemeindeverband Krefeld, auch Kirche der Evangelischen Koreanischen Missionsgemeinde","street":"Luisenplatz 1","zip":47799,"city":"Krefeld","district":"Krefeld","tel":"02151/76900","fax":"","mail":"info@friedenskirche-krefeld.de","web":"http://www.friedenskirche-krefeld.de/","lat":51.332589,"lng":6.56903},"geometry":{"type":"Point","coordinates":[6.56903,51.332589]}},{"type":"Feature","properties":{"title":"Kirche Maria Schutz (ukrainisch-byzantinisch)","description":"Ukrainische Autokephale Orthodoxe Kirche","street":"Maria-Sohmann-Straße 45","zip":47802,"city":"Krefeld","district":"Krefeld","tel":"02151/647900","fax":"02151/647901","mail":"uaok-krefeld@web.de","web":"http://www.uaok-krefeld.de","lat":51.37769,"lng":6.579532},"geometry":{"type":"Point","coordinates":[6.579532,51.37769]}},{"type":"Feature","properties":{"title":"Johanneskirche (Linn) (evangelisch)","description":"Evangelische Kirchengemeinde Uerdingen","street":"Ostpreußenstraße 6","zip":47809,"city":"Krefeld","district":"Krefeld","tel":"02151/480601","fax":"02151/480696","mail":"info@uerdingen-evangelisch.de","web":"http://www.uerdingen-evangelisch.de/","lat":51.335597,"lng":6.645323},"geometry":{"type":"Point","coordinates":[6.645323,51.335597]}},{"type":"Feature","properties":{"title":"Mimar-Sinan-Moschee Uerdingen (DİTİB Türkisch-Islamischer Verein e.V.)","description":"DİTİB","street":"Lübecker Weg 60","zip":47829,"city":"Krefeld","district":"Krefeld","tel":"02151/477287","fax":"","mail":"yildiz.yalcin1@web.de","web":"","lat":51.355412,"lng":6.636012},"geometry":{"type":"Point","coordinates":[6.636012,51.355412]}},{"type":"Feature","properties":{"title":"Fatih-Moschee (Türkisch-Islamische Vereinigung und Kulturaustauschstätte e.V.)","description":"DİTİB","street":"Saumstraße 14","zip":47805,"city":"Krefeld","district":"Krefeld","tel":"02151/311303","fax":"","mail":"","web":"https://de-de.facebook.com/pages/Fatih-Cami-Krefeld/136859316362620","lat":51.323498,"lng":6.566112},"geometry":{"type":"Point","coordinates":[6.566112,51.323498]}},{"type":"Feature","properties":{"title":"Yesil-Moschee","description":"VIKZ","street":"Niederstraße 131","zip":47829,"city":"Krefeld","district":"Krefeld","tel":"02151/480980","fax":"","mail":"","web":"","lat":51.359257,"lng":6.648437},"geometry":{"type":"Point","coordinates":[6.648437,51.359257]}},{"type":"Feature","properties":{"title":"Alevitische Gemeinde","description":"Alevitisches Kulturzentrum Krefeld und Umgebung e.V.","street":"Steinstraße 69","zip":47798,"city":"Krefeld","district":"Krefeld","tel":"02151/786198","fax":"02151/647890","mail":"info@aleviten-krefeld.de","web":"http://www.aleviten-krefeld.de/","lat":51.330993,"lng":6.555851},"geometry":{"type":"Point","coordinates":[6.555851,51.330993]}},{"type":"Feature","properties":{"title":"Merkez-Moschee (Islamische Gemeinschaft Krefeld e.V.)","description":"","street":"Viersener Straße 41","zip":47805,"city":"Krefeld","district":"Krefeld","tel":"02151/396347","fax":"","mail":"","web":"http://www.moschee-krefeld.de/","lat":51.322839,"lng":6.560681},"geometry":{"type":"Point","coordinates":[6.560681,51.322839]}},{"type":"Feature","properties":{"title":"Moschee Anour Krefeld (MVDT)","description":"","street":"Seidenstraße 13","zip":47799,"city":"Krefeld","district":"Krefeld","tel":"","fax":"","mail":"anourmoschee@hotmail.com","web":"https://www.facebook.com/Moschee-Anour-Krefeld-529995310472924/","lat":51.33167,"lng":6.577057},"geometry":{"type":"Point","coordinates":[6.577057,51.33167]}},{"type":"Feature","properties":{"title":"Hacı-Bayram-Veli-Moschee (İGMG Islamische Gemeinschaft e.V.)","description":"İGMG","street":"Sprödentalstraße 56","zip":47799,"city":"Krefeld","district":"Krefeld","tel":"02151/801074","fax":"02151/620263","mail":"info@hacibayram-krefeld.de","web":"http://hacibayram-krefeld.de/","lat":51.335142,"lng":6.582043},"geometry":{"type":"Point","coordinates":[6.582043,51.335142]}},{"type":"Feature","properties":{"title":"Yavuz-Sultan-Selim-Moschee (Türkischer Kulturverein Krefeld e.V.)","description":"","street":"Seidenstraße 6","zip":47799,"city":"Krefeld","district":"Krefeld","tel":"02151/29353","fax":"02151/24671","mail":"","web":"","lat":51.33137,"lng":6.577354},"geometry":{"type":"Point","coordinates":[6.577354,51.33137]}},{"type":"Feature","properties":{"title":"Al-Qods-Moschee (Islamische Vereinigung Krefeld e.V.)","description":"","street":"Am Verschubbahnhof 81","zip":47809,"city":"Krefeld","district":"Krefeld","tel":"02151/313774","fax":"","mail":"info@ivek.de","web":"http://www.ivek.de","lat":51.329539,"lng":6.592884},"geometry":{"type":"Point","coordinates":[6.592884,51.329539]}},{"type":"Feature","properties":{"title":"Yunus-Emre-Moschee (DİTİB-Türkisch-Islamische Gemeinde zu Krefeld-Stahldorf e. V.)","description":"DİTİB","street":"Obergath 166","zip":47805,"city":"Krefeld","district":"Krefeld","tel":"02151/933636","fax":"02151/933638","mail":"info@yunus-emre.de","web":"http://www.yunus-emre.de/","lat":51.312874,"lng":6.562683},"geometry":{"type":"Point","coordinates":[6.562683,51.312874]}},{"type":"Feature","properties":{"title":"Synagoge Krefeld (Jüdische Gemeinde KdöR)","description":"","street":"Wiedstraße 17","zip":47799,"city":"Krefeld","district":"Krefeld","tel":"02151/565450","fax":"02151/5654520","mail":"info@jg-krefeld.de","web":"http://www.jg-krefeld.de/","lat":51.335841,"lng":6.572307},"geometry":{"type":"Point","coordinates":[6.572307,51.335841]}}]}