{"type":"FeatureCollection","features":[{"type":"Feature","properties":{"title":"Design Apotheke Krefeld","description":"","street":"Hubertusstraße 113","zip":47798,"city":"Krefeld","district":"Krefeld","tel":"02151/975730-0","fax":"02151/97573099","mail":"","web":"","lat":51.332527,"lng":6.556729},"geometry":{"type":"Point","coordinates":[6.556729,51.332527]}},{"type":"Feature","properties":{"title":"Frauenkulturbüro","description":"","street":"Virchowstraße 130ab","zip":47805,"city":"Krefeld","district":"Krefeld","tel":"02151/393025","fax":"02151/862636","mail":"info@frauenkulturbuero-nrw.de","web":"http://www.frauenkulturbuero-nrw.de","lat":51.323055,"lng":6.573023},"geometry":{"type":"Point","coordinates":[6.573023,51.323055]}},{"type":"Feature","properties":{"title":"Niederrheinisches Literaturhaus","description":"","street":"Gutenbergstraße 21","zip":47803,"city":"Krefeld","district":"Krefeld","tel":"02151/543766","fax":"02151/543767","mail":"anette.ostrowski@krefeld.de","web":"http://www.krefeld.de","lat":51.335005,"lng":6.548305},"geometry":{"type":"Point","coordinates":[6.548305,51.335005]}},{"type":"Feature","properties":{"title":"Krefelder Kunstverein - Malschule","description":"","street":"Evertsstraße 42","zip":47798,"city":"Krefeld","district":"Krefeld","tel":"02151/777080","fax":"","mail":"info@krefelder-kunstverein.de","web":"http://www.krefelder-kunstverein.de","lat":51.330787,"lng":6.560141},"geometry":{"type":"Point","coordinates":[6.560141,51.330787]}}]}