{"type":"FeatureCollection","features":[{"type":"Feature","properties":{"title":"Kulturelle Begegnungsstätte Südbahnhof","description":"","street":"Saumstraße 9  ,9 a","zip":47805,"city":"Krefeld","district":"Krefeld","tel":"02151/318728","fax":"","mail":"","web":"","lat":51.32419,"lng":6.566035},"geometry":{"type":"Point","coordinates":[6.566035,51.32419]}},{"type":"Feature","properties":{"title":"Jazzkeller Krefeld","description":"","street":"Lohstraße 90  ,92","zip":47798,"city":"Krefeld","district":"Krefeld","tel":"01622013145","fax":"","mail":"","web":"http://www.jazzkeller-krefeld.de","lat":51.33255,"lng":6.564333},"geometry":{"type":"Point","coordinates":[6.564333,51.33255]}},{"type":"Feature","properties":{"title":"Volkshochschule (VHS)","description":"","street":"Von-der-Leyen-Platz 2","zip":47798,"city":"Krefeld","district":"Krefeld","tel":"02151/86-2664","fax":"02151/86-2680","mail":"vhs@krefeld.de","web":"http://www.krefeld.de/vhs","lat":51.334477,"lng":6.559389},"geometry":{"type":"Point","coordinates":[6.559389,51.334477]}},{"type":"Feature","properties":{"title":"Rheinlandhalle","description":"","street":"Westparkstraße 126  ,128","zip":47803,"city":"Krefeld","district":"Krefeld","tel":"02151/878880","fax":"02151/87888113","mail":"","web":"http://www.krefeld.de/sport-und-baeder","lat":51.340056,"lng":6.540403},"geometry":{"type":"Point","coordinates":[6.540403,51.340056]}},{"type":"Feature","properties":{"title":"Cinemaxx (Kino)","description":"","street":"Am Hauptbahnhof 3","zip":47798,"city":"Krefeld","district":"Krefeld","tel":"02151/80806969","fax":"","mail":"","web":"http://www.cinemaxx.de","lat":51.326613,"lng":6.570628},"geometry":{"type":"Point","coordinates":[6.570628,51.326613]}},{"type":"Feature","properties":{"title":"Galopprennbahn","description":"","street":"An der Rennbahn 5","zip":47800,"city":"Krefeld","district":"Krefeld","tel":"02151/58990","fax":"02151/589939","mail":"kontakt@krefelder-rennclub.de","web":"http://www.krefeld.de/sport-und-baeder","lat":51.356991,"lng":6.58761},"geometry":{"type":"Point","coordinates":[6.58761,51.356991]}},{"type":"Feature","properties":{"title":"Campus 44 (Tagungszentrum)","description":"","street":"Campus Fichtenhain 44","zip":47807,"city":"Krefeld","district":"Krefeld","tel":"02151/82074-48","fax":"","mail":"info@wfg-krefeld.de","web":"http://www.campus-fichtenhain.de","lat":51.289704,"lng":6.566626},"geometry":{"type":"Point","coordinates":[6.566626,51.289704]}},{"type":"Feature","properties":{"title":"Heinrich-Joeppen-Haus","description":"","street":"Herrenweg 6a","zip":47839,"city":"Krefeld","district":"Krefeld","tel":"02151/735299","fax":"","mail":"","web":"","lat":51.374302,"lng":6.512472},"geometry":{"type":"Point","coordinates":[6.512472,51.374302]}},{"type":"Feature","properties":{"title":"Geologischer Dienst Nordrhein-Westfalen","description":"Vorträge und Ausstellungen zu geologischen Themen","street":"De-Greiff-Straße 195","zip":47803,"city":"Krefeld","district":"Krefeld","tel":"02151/897336","fax":"02151/897505","mail":"geoinfo@gd.nrw.de","web":"http://www.gd.nrw.de/gd_veranstaltungen.htm","lat":51.340643,"lng":6.536215},"geometry":{"type":"Point","coordinates":[6.536215,51.340643]}},{"type":"Feature","properties":{"title":"Grotenburg-Stadion","description":"","street":"Tiergartenstraße 165","zip":47800,"city":"Krefeld","district":"Krefeld","tel":"02151/591200","fax":"","mail":"","web":"http://www.krefeld.de/sportundbaeder","lat":51.338922,"lng":6.603644},"geometry":{"type":"Point","coordinates":[6.603644,51.338922]}},{"type":"Feature","properties":{"title":"Museum Burg Linn","description":"","street":"Rheinbabenstraße 85","zip":47809,"city":"Krefeld","district":"Krefeld","tel":"02151/570035","fax":"02151/571972","mail":"burglinn@krefeld.de","web":"http://www.krefeld.de/burglinn","lat":51.332956,"lng":6.634646},"geometry":{"type":"Point","coordinates":[6.634646,51.332956]}},{"type":"Feature","properties":{"title":"KönigPALAST","description":"Seidenweberhaus GmbH, Veranstaltungs- und Eissporthalle","street":"Westparkstraße 111","zip":47803,"city":"Krefeld","district":"Krefeld","tel":"02151/78100","fax":"02151/7810222","mail":"info@koenigpalast.de","web":"http://www.koenigpalast.de/","lat":51.341012,"lng":6.539994},"geometry":{"type":"Point","coordinates":[6.539994,51.341012]}},{"type":"Feature","properties":{"title":"Sprödentalplatz","description":"","street":"Sprödentalplatz","zip":47799,"city":"Krefeld","district":"Krefeld","tel":"","fax":"","mail":"","web":"http://www.krefeld.de/fb21","lat":51.33673,"lng":6.583941},"geometry":{"type":"Point","coordinates":[6.583941,51.33673]}},{"type":"Feature","properties":{"title":"Botanischer Garten","description":"","street":"Sandberg 2a","zip":47809,"city":"Krefeld","district":"Krefeld","tel":"02151/540519","fax":"02151/548335","mail":"botanischer.garten@krefeld.de","web":"https://www.krefeld.de/botanischergarten","lat":51.332469,"lng":6.603439},"geometry":{"type":"Point","coordinates":[6.603439,51.332469]}},{"type":"Feature","properties":{"title":"Saal Gietz","description":"","street":"Marienstraße 108","zip":47807,"city":"Krefeld","district":"Krefeld","tel":"02151/301268","fax":"02151/307223","mail":"","web":"http://www.zum-fischelner-burghof.de","lat":51.30303,"lng":6.586726},"geometry":{"type":"Point","coordinates":[6.586726,51.30303]}},{"type":"Feature","properties":{"title":"Kulturfabrik Krefeld","description":"","street":"Dießemer Straße 13","zip":47799,"city":"Krefeld","district":"Krefeld","tel":"02151/858687","fax":"02151/858688","mail":"info@kulturfabrik-krefeld.de","web":"http://www.kulturfabrik-krefeld.de","lat":51.329984,"lng":6.581373},"geometry":{"type":"Point","coordinates":[6.581373,51.329984]}},{"type":"Feature","properties":{"title":"Musikschule Krefeld","description":"","street":"Uerdinger Straße 500","zip":47800,"city":"Krefeld","district":"Krefeld","tel":"02151/590011","fax":"02151/503206","mail":"musikschule@krefeld.de","web":"http://www.musik.krefeld.schulen.net","lat":51.344668,"lng":6.609899},"geometry":{"type":"Point","coordinates":[6.609899,51.344668]}},{"type":"Feature","properties":{"title":"Seidenweberhaus","description":"","street":"Theaterplatz 1","zip":47798,"city":"Krefeld","district":"Krefeld","tel":"02151/7810-0","fax":"02151/7810-415","mail":"info@seidenweberhaus.de","web":"http://www.seidenweberhaus.de","lat":51.334493,"lng":6.563526},"geometry":{"type":"Point","coordinates":[6.563526,51.334493]}},{"type":"Feature","properties":{"title":"Casablanca und Cinema (Kinos)","description":"","street":"Lewerentzstraße 40","zip":47798,"city":"Krefeld","district":"Krefeld","tel":"02151/314180","fax":"","mail":"","web":"http://www.casablancakino.de","lat":51.325598,"lng":6.562983},"geometry":{"type":"Point","coordinates":[6.562983,51.325598]}},{"type":"Feature","properties":{"title":"Fabrik Heeder","description":"","street":"Virchowstraße 130a","zip":47805,"city":"Krefeld","district":"Krefeld","tel":"02151/862600","fax":"02151/862636","mail":"kultur@krefeld.de","web":"http://www.krefeld.de/kulturbuero","lat":51.322848,"lng":6.5723},"geometry":{"type":"Point","coordinates":[6.5723,51.322848]}},{"type":"Feature","properties":{"title":"Glockenspitzhalle","description":"Dreifachsporthalle","street":"Glockenspitz 350","zip":47809,"city":"Krefeld","district":"Krefeld","tel":"02151/540037","fax":"","mail":"sportundbaeder@krefeld.de","web":"https://www.krefeld.de/de/sport/sporthallen/","lat":51.339245,"lng":6.613589},"geometry":{"type":"Point","coordinates":[6.613589,51.339245]}},{"type":"Feature","properties":{"title":"Habima","description":"","street":"Wiedstraße 17","zip":47799,"city":"Krefeld","district":"Krefeld","tel":"02151/5654512","fax":"02151/5654520","mail":"info@jg-krefeld.de","web":"http://www.jg-krefeld.de","lat":51.335936,"lng":6.572022},"geometry":{"type":"Point","coordinates":[6.572022,51.335936]}}]}