{"type":"FeatureCollection","features":[{"type":"Feature","properties":{"title":"KoKoBe Krefeld (Trägerverbund)","description":"Koordinierungs-, Kontakt- und Beratungsangebote für Menschen mit geistiger Behinderung","street":"Mühlenstraße                   40","zip":47798,"city":"Krefeld","district":"Krefeld","tel":"02151/3603754","fax":"02151/5680143","mail":"info@kokobe-krefeld.de","web":"http://www.kokobe-krefeld.de/","lat":51.329268,"lng":6.562988},"geometry":{"type":"Point","coordinates":[6.562988,51.329268]}},{"type":"Feature","properties":{"title":"Lebenshilfe Krefeld e.V. (Beratung)","description":"Beratung für Menschen mit geistiger Behinderung zu ambulant unterstütztem Wohnen und flexiblen Familienhilfen","street":"Westwall 155","zip":47798,"city":"Krefeld","district":"Krefeld","tel":"02151/4547170","fax":"02151/4547177","mail":"info@lebenshilfe-krefeld.de","web":"http://www.lebenshilfe-krefeld.de/de/einrichtungen_dienste/besondere_angebote/beratung.php","lat":51.335122,"lng":6.557882},"geometry":{"type":"Point","coordinates":[6.557882,51.335122]}},{"type":"Feature","properties":{"title":"Behindertengerechte Toilette Jugendzentrum Fischeln","description":"geöffnet wochentags 15.00 - 20:00 Uhr, an Wochenenden und während der Schulferien abweichend","street":"Wilhelmstraße 9","zip":47807,"city":"Krefeld","district":"Krefeld","tel":"","fax":"","mail":"","web":"","lat":51.309003,"lng":6.584819},"geometry":{"type":"Point","coordinates":[6.584819,51.309003]}},{"type":"Feature","properties":{"title":"Behindertengerechte Toilette Agentur für Arbeit","description":"im Berufsinformationszentrum, montags bis mittwochs 8:00 - 16:00 Uhr, donnerstags 8:00 - 18:00 Uhr, freitags 8:00 - 13:00 Uhr, Euroschlüssel notwendig","street":"Philadelphiastraße 2","zip":47799,"city":"Krefeld","district":"Krefeld","tel":"","fax":"","mail":"","web":"","lat":51.328659,"lng":6.573573},"geometry":{"type":"Point","coordinates":[6.573573,51.328659]}},{"type":"Feature","properties":{"title":"Behindertengerechte Toilette Schulzentrum Horkesgath (Schulgebäude)","description":"geöffnet während der Schulzeiten, Euroschlüssel notwendig","street":"Horkesgath 33","zip":47803,"city":"Krefeld","district":"Krefeld","tel":"","fax":"","mail":"","web":"","lat":51.337342,"lng":6.528819},"geometry":{"type":"Point","coordinates":[6.528819,51.337342]}},{"type":"Feature","properties":{"title":"Behindertengerechte Toilette Tiefgarage Wiedenhofstraße","description":"geöffnet täglich 7:00 - 21:00 Uhr, Euroschlüssel notwendig","street":"Wiedenhofstraße","zip":47798,"city":"Krefeld","district":"Krefeld","tel":"","fax":"","mail":"","web":"","lat":51.329282,"lng":6.562874},"geometry":{"type":"Point","coordinates":[6.562874,51.329282]}},{"type":"Feature","properties":{"title":"Behindertengerechte Toilette Hauptbahnhof","description":"geöffnet rund um die Uhr, an der Radstation, Tür ist mit Automatikanlage ausgerüstet","street":"Am Hauptbahnhof 1","zip":47798,"city":"Krefeld","district":"Krefeld","tel":"","fax":"","mail":"","web":"","lat":51.325827,"lng":6.569089},"geometry":{"type":"Point","coordinates":[6.569089,51.325827]}},{"type":"Feature","properties":{"title":"Behindertengerechte Toilette Sinn Leffers","description":"im 1. Obergeschoss, geöffnet montags bis mittwochs 9:30 - 19:00 Uhr, donnerstags und freitags 9:30 - 20:00, samstags 9:30 - 18:00 Uhr","street":"Hochstraße 91","zip":47798,"city":"Krefeld","district":"Krefeld","tel":"","fax":"","mail":"","web":"","lat":51.331881,"lng":6.563111},"geometry":{"type":"Point","coordinates":[6.563111,51.331881]}},{"type":"Feature","properties":{"title":"Behindertengerechte Toilette Behnisch-Haus","description":"im 1. Obergeschoss im C-Block, geöffnet montags bis mittwochs 8:30 - 16:00 Uhr, donnerstags 8:30 - 17:30 Uhr, freitags 8:30 - 12:30 Uhr","street":"Petersstraße 118","zip":47798,"city":"Krefeld","district":"Krefeld","tel":"","fax":"","mail":"","web":"","lat":51.331349,"lng":6.565219},"geometry":{"type":"Point","coordinates":[6.565219,51.331349]}},{"type":"Feature","properties":{"title":"Behindertengerechte Toilette Rathaus (Block A)","description":"im Erdgeschoss, geöffnet montags bis mittwochs 8:30 - 16:00 Uhr, donnerstags 8:30 - 17:30 Uhr, freitags 8:30 - 12:30 Uhr, Euroschlüssel notwendig","street":"Von-der-Leyen-Platz 1","zip":47798,"city":"Krefeld","district":"Krefeld","tel":"","fax":"","mail":"","web":"","lat":51.333621,"lng":6.559249},"geometry":{"type":"Point","coordinates":[6.559249,51.333621]}},{"type":"Feature","properties":{"title":"Behindertengerechte Toilette Cinemaxx","description":"im 1. Obergeschoss, geöffnet montags bis mittwochs 14:00 - 21:00 Uhr, donnerstags 14:00 - 23:30 Uhr, sonntags 11:00 - 21:00 Uhr","street":"Am Hauptbahnhof 3","zip":47798,"city":"Krefeld","district":"Krefeld","tel":"","fax":"","mail":"","web":"","lat":51.326542,"lng":6.570531},"geometry":{"type":"Point","coordinates":[6.570531,51.326542]}},{"type":"Feature","properties":{"title":"Behindertengerechte Toilette KönigPALAST","description":"eine im Eingang des VIP-Bereiches, zwei im 1. Obergeschoss des Publikumsbereiches (mit Aufzug erreichbar), geöffnet bei Veranstaltungen","street":"Westparkstraße 111","zip":47803,"city":"Krefeld","district":"Krefeld","tel":"","fax":"","mail":"","web":"","lat":51.340782,"lng":6.540104},"geometry":{"type":"Point","coordinates":[6.540104,51.340782]}},{"type":"Feature","properties":{"title":"Behindertengerechte Toilette Polizeipräsidium","description":"in der Bürgerbetreuung melden, geöffnet rund um die Uhr","street":"Nordwall 1","zip":47798,"city":"Krefeld","district":"Krefeld","tel":"","fax":"","mail":"","web":"","lat":51.337613,"lng":6.563521},"geometry":{"type":"Point","coordinates":[6.563521,51.337613]}},{"type":"Feature","properties":{"title":"Behindertengerechte Toilette Museum Burg Linn (Museumsgebäude)","description":"geöffnet 01.04. bis 31.10. dienstags bis sonntags 10:00 -18:00 Uhr, 01.11. bis 31.03. dienstags bis sonntags 11:00 - 17:00 Uhr, Euroschlüssel notwendig","street":"Rheinbabenstraße 85","zip":47809,"city":"Krefeld","district":"Krefeld","tel":"","fax":"","mail":"","web":"","lat":51.334675,"lng":6.636178},"geometry":{"type":"Point","coordinates":[6.636178,51.334675]}},{"type":"Feature","properties":{"title":"Behindertengerechte Toilette Rathaus-Tiefgarage","description":"geöffnet rund um die Uhr, Euroschlüssel notwendig","street":"Westwall 141","zip":47798,"city":"Krefeld","district":"Krefeld","tel":"","fax":"","mail":"","web":"","lat":51.334192,"lng":6.55849},"geometry":{"type":"Point","coordinates":[6.55849,51.334192]}},{"type":"Feature","properties":{"title":"Behindertengerechte Toilette Gaststätte Hülser Bergschänke","description":"geöffnet dienstags bis freitags 12:00 - 22:00, samstags und sonntags 10:00 - 22:00 Uhr","street":"Rennstieg 1","zip":47802,"city":"Krefeld","district":"Krefeld","tel":"","fax":"","mail":"","web":"","lat":51.388384,"lng":6.536532},"geometry":{"type":"Point","coordinates":[6.536532,51.388384]}},{"type":"Feature","properties":{"title":"Behindertengerechte Toilette Zoo","description":"geöffnet 01.05. bis 30.09. täglich 8:00 - 19:00 Uhr, 01.10. bis 30.04. täglich 9:00 - 18:00 Uhr, Euroschlüssel notwendig","street":"Uerdinger Straße 377","zip":47800,"city":"Krefeld","district":"Krefeld","tel":"","fax":"","mail":"","web":"","lat":51.340895,"lng":6.599385},"geometry":{"type":"Point","coordinates":[6.599385,51.340895]}},{"type":"Feature","properties":{"title":"Behindertengerechte Toilette Stadttheater","description":"geöffnet etwa eine Stunde vor Veranstaltungen bis zu deren Ende, Euroschlüssel notwendig","street":"Theaterplatz 3","zip":47798,"city":"Krefeld","district":"Krefeld","tel":"","fax":"","mail":"","web":"","lat":51.335212,"lng":6.563823},"geometry":{"type":"Point","coordinates":[6.563823,51.335212]}},{"type":"Feature","properties":{"title":"Behindertengerechte Toilette Museum Burg Linn (Kassengebäude)","description":"im Innenhof der Burg, geöffnet 01.04. bis 31.10. dienstags bis sonntags 10:00 -18:00 Uhr, 01.11. bis 31.03. dienstags bis sonntags 11:00 - 17:00 Uhr, Euroschlüssel notwendig","street":"Albert-Steeger-Straße 19a","zip":47809,"city":"Krefeld","district":"Krefeld","tel":"","fax":"","mail":"","web":"","lat":51.333273,"lng":6.635538},"geometry":{"type":"Point","coordinates":[6.635538,51.333273]}},{"type":"Feature","properties":{"title":"Behindertengerechte Toilette Museum Haus Lange","description":"geöffnet dienstags bis sonntags 11:00 - 17:00 Uhr bei Ausstellungen","street":"Wilhelmshofallee 91","zip":47800,"city":"Krefeld","district":"Krefeld","tel":"02151 975580","fax":"","mail":"kunstmuseen@krefeld.de","web":"http://www.kunstmuseenkrefeld.de/d/info/barrierefrei/","lat":51.346851,"lng":6.581936},"geometry":{"type":"Point","coordinates":[6.581936,51.346851]}},{"type":"Feature","properties":{"title":"Behindertengerechte Toilette Mediothek","description":"geöffnet dienstags bis freitags 11:00 - 19:00, samstags 11:00 - 14:00 Uhr, im Erdgeschoss, Euroschlüssel notwendig","street":"Theaterplatz 2","zip":47798,"city":"Krefeld","district":"Krefeld","tel":"","fax":"","mail":"","web":"","lat":51.335063,"lng":6.563176},"geometry":{"type":"Point","coordinates":[6.563176,51.335063]}},{"type":"Feature","properties":{"title":"Behindertengerechte Toilette Fachbereich Ordnung","description":"geöffnet montags bis mittwochs 8:30 - 16:00 Uhr, donnerstags 8:30 - 17:30 Uhr, freitags 8:30 - 12:30 Uhr","street":"Hansastraße 32","zip":47799,"city":"Krefeld","district":"Krefeld","tel":"","fax":"","mail":"","web":"","lat":51.327206,"lng":6.571966},"geometry":{"type":"Point","coordinates":[6.571966,51.327206]}},{"type":"Feature","properties":{"title":"Behindertengerechte Toilette Markt-Café Schoenen","description":"geöffnet montags bis samstags 8:00 - 18:00 Uhr, sonntags 8:00 - 17:00 Uhr","street":"Hülser Markt 7","zip":47839,"city":"Krefeld","district":"Krefeld","tel":"","fax":"","mail":"","web":"","lat":51.37289,"lng":6.509617},"geometry":{"type":"Point","coordinates":[6.509617,51.37289]}},{"type":"Feature","properties":{"title":"Behindertengerechte Toilette Restaurant Stadtwaldhaus","description":"","street":"Hüttenallee 108","zip":47800,"city":"Krefeld","district":"Krefeld","tel":"","fax":"","mail":"","web":"","lat":51.352038,"lng":6.58663},"geometry":{"type":"Point","coordinates":[6.58663,51.352038]}},{"type":"Feature","properties":{"title":"Behindertengerechte Toilette Real SB-Warenhaus Hafelsstraße","description":"in der Mall, geöffnet montags bis samstags 8:00 - 22:00 Uhr","street":"Hafelsstraße 200","zip":47809,"city":"Krefeld","district":"Krefeld","tel":"","fax":"","mail":"","web":"","lat":51.321836,"lng":6.599916},"geometry":{"type":"Point","coordinates":[6.599916,51.321836]}},{"type":"Feature","properties":{"title":"Behindertengerechte Toilette Restaurant Forsthaus","description":"geöffnet mittwochs bis montags 10:00 - 23:00 Uhr","street":"Forstwaldstraße 530","zip":47804,"city":"Krefeld","district":"Krefeld","tel":"","fax":"","mail":"","web":"","lat":51.300841,"lng":6.515102},"geometry":{"type":"Point","coordinates":[6.515102,51.300841]}},{"type":"Feature","properties":{"title":"Behindertengerechte Toilette Kulturzentrum Fabrik Heeder","description":"geöffnet montags bis freitags 8:30 - 12:30 Uhr, montags bis mittwochs 14:00 - 16:00 Uhr, donnerstags 14:00 - 17:30 Uhr und bei Veranstaltungen, Euroschlüssel notwendig","street":"Virchowstraße 130","zip":47805,"city":"Krefeld","district":"Krefeld","tel":"","fax":"","mail":"","web":"","lat":51.322992,"lng":6.572624},"geometry":{"type":"Point","coordinates":[6.572624,51.322992]}},{"type":"Feature","properties":{"title":"Behindertengerechte Toilette Volkshochschule","description":"geöffnet montags bis mitwochs 8:30 - 16:00 Uhr, donnerstags 8:30 - 17:30 Uhr, freitags 8:30 - 12:30 Uhr und zusätzlich bei Veranstaltungen","street":"Von-der-Leyen-Platz 2","zip":47798,"city":"Krefeld","district":"Krefeld","tel":"","fax":"","mail":"","web":"","lat":51.334568,"lng":6.55916},"geometry":{"type":"Point","coordinates":[6.55916,51.334568]}},{"type":"Feature","properties":{"title":"Behindertengerechte Toilette Schulzentrum Horkesgath (Turnhalle)","description":"geöffnet während der Schulzeiten, Euroschlüssel notwendig","street":"Horkesgath 33","zip":47803,"city":"Krefeld","district":"Krefeld","tel":"","fax":"","mail":"","web":"","lat":51.336111,"lng":6.530117},"geometry":{"type":"Point","coordinates":[6.530117,51.336111]}},{"type":"Feature","properties":{"title":"Behindertengerechte Toilette Real SB-Warenhaus Mevissenstraße","description":"im Bereich des Eingangs, geöffnet montags bis samstags 8:00 - 22:00 Uhr","street":"Mevissenstraße 60","zip":47803,"city":"Krefeld","district":"Krefeld","tel":"","fax":"","mail":"","web":"","lat":51.345191,"lng":6.533345},"geometry":{"type":"Point","coordinates":[6.533345,51.345191]}},{"type":"Feature","properties":{"title":"Behindertengerechte Toilette Berufskolleg Glockenspitz (Turnhalle)","description":"geöffnet während der Schulzeiten","street":"Glockenspitz 350","zip":47809,"city":"Krefeld","district":"Krefeld","tel":"","fax":"","mail":"","web":"","lat":51.339092,"lng":6.613061},"geometry":{"type":"Point","coordinates":[6.613061,51.339092]}},{"type":"Feature","properties":{"title":"Behindertengerechte Toilette Gesamtschule Kaiserplatz","description":"in der Turnhalle, geöffnet nur bei Veranstaltungen","street":"Kaiserplatz 31","zip":47800,"city":"Krefeld","district":"Krefeld","tel":"","fax":"","mail":"","web":"","lat":51.344465,"lng":6.590273},"geometry":{"type":"Point","coordinates":[6.590273,51.344465]}},{"type":"Feature","properties":{"title":"Selbsthilfe-Kontaktstelle Krefeld (Der Paritätische)","description":"Vermittlung von Selbsthilfegruppen","street":"Mühlenstraße 42","zip":47798,"city":"Krefeld","district":"Krefeld","tel":"02151/9619025","fax":"02151/9619022","mail":"selbsthilfe-krefeld@paritaet-nrw.org","web":"http://www.selbsthilfe-krefeld.de","lat":51.329334,"lng":6.562989},"geometry":{"type":"Point","coordinates":[6.562989,51.329334]}},{"type":"Feature","properties":{"title":"Förderverein Freizeit Behinderter e.V. (FFB)","description":"Freizeitgestaltung, betreutes Wohnen und Unterstützung für Menschen mit Behinderungen","street":"Hochstraße 60","zip":47798,"city":"Krefeld","district":"Krefeld","tel":"02151/610300","fax":"02151/610330","mail":"info@ffb-krefeld.de","web":"http://www.ffb-krefeld.de/","lat":51.330316,"lng":6.563592},"geometry":{"type":"Point","coordinates":[6.563592,51.330316]}},{"type":"Feature","properties":{"title":"Südwallstübchen (Diakonisches Werk Krefeld-Viersen)","description":"Ambulant betreutes Wohnen und Tagestreff für Menschen mit psychischen und Suchtkrankheiten, werktags 8:00 - 16:00","street":"Südwall 63","zip":47798,"city":"Krefeld","district":"Krefeld","tel":"02151/154980","fax":"","mail":"bewo@diakonie-krefeld-viersen.de","web":"http://www.diakonie-krefeld-viersen.de/angebot-krefeld/ambulant-betreutes-wohnen/","lat":51.327653,"lng":6.562853},"geometry":{"type":"Point","coordinates":[6.562853,51.327653]}},{"type":"Feature","properties":{"title":"Heilpädagogisches Zentrum Krefeld-Kreis Viersen gGmbH (HPZ), Standort Krefeld","description":"Behindertenwerkstatt","street":"Siemensstraße 75","zip":47805,"city":"Krefeld","district":"Krefeld","tel":"02151/372121","fax":"02151/372120","mail":"p.hagen@hpzkrefeld.de","web":"http://www.hpz-krefeld.de/Home/Standorte/Krefeld","lat":51.322889,"lng":6.57552},"geometry":{"type":"Point","coordinates":[6.57552,51.322889]}},{"type":"Feature","properties":{"title":"Heilpädagogisches Zentrum Krefeld-Kreis Viersen gGmbH (HPZ), Standort impuls Krefeld-Bockum","description":"Behindertenwerkstatt","street":"Emil-Schäfer-Straße 24","zip":47800,"city":"Krefeld","district":"Krefeld","tel":"02151/5241890","fax":"02151/5241899","mail":"w.richter@hpzkrefeld.de","web":"http://www.hpz-krefeld.de/Home/Standorte/Krefeld-Bockum","lat":51.356151,"lng":6.619613},"geometry":{"type":"Point","coordinates":[6.619613,51.356151]}},{"type":"Feature","properties":{"title":"Behindertengerechte Toilette Badezentrum Bockum","description":"rollstuhlgerechte Toilette im Eingangsbereich und behindertengerechte Toilette im Sanitärbereich, geöffnet während der Öffnungszeiten","street":"Am Badezentrum 2","zip":47800,"city":"Krefeld","district":"Krefeld","tel":"","fax":"","mail":"","web":"","lat":51.350564,"lng":6.613463},"geometry":{"type":"Point","coordinates":[6.613463,51.350564]}},{"type":"Feature","properties":{"title":"Reha- und Behindertensportgemeinschaft Krefeld e.V. (BSG)","description":"","street":"Mühlenstraße 42","zip":47798,"city":"Krefeld","district":"Krefeld","tel":"02151/711154","fax":"02151/711154","mail":"","web":"http://www.behindertensport.de/rbsg-krefeld/","lat":51.329413,"lng":6.562802},"geometry":{"type":"Point","coordinates":[6.562802,51.329413]}},{"type":"Feature","properties":{"title":"Behindertengerechte Toilette McDonald\"s","description":"für Rollstühle bedingt geeignet, geöffnet montags bis donnerstags 8:30 - 24:00, freitags 8:30 - 3:00 Uhr, samstags 9:30 - 3:00 Uhr, sonntags 9:30 - 24:00 Uhr","street":"Rheinstraße 94","zip":47798,"city":"Krefeld","district":"Krefeld","tel":"","fax":"","mail":"","web":"","lat":51.333261,"lng":6.564463},"geometry":{"type":"Point","coordinates":[6.564463,51.333261]}},{"type":"Feature","properties":{"title":"Tagesstätte Uerdinger Treff (Lebenshilfe Krefeld)","description":"Angebot für Menschen mit Behinderung im Ruhestand, montags, donnerstags und freitags 10:00 - 14:00 Uhr, mittwochs 14:30 - 18:00 Uhr","street":"Bruchstraße 54","zip":47829,"city":"Krefeld","district":"Krefeld","tel":"02151/3258789","fax":"02151/3258790","mail":"info@lebenshilfe-krefeld.de","web":"http://www.lebenshilfe-krefeld.de/de/einrichtungen_dienste/freizeit/tagesstaette_uerdinger_treff.php","lat":51.356044,"lng":6.65016},"geometry":{"type":"Point","coordinates":[6.65016,51.356044]}},{"type":"Feature","properties":{"title":"Behindertengerechte Toilette Rathaus (Block C)","description":"im Erdgeschoss, geöffnet montags bis mittwochs 8:30 - 16:00 Uhr, donnerstags 8:30 - 17:30 Uhr, freitags 8:30 - 12:30 Uhr, Euroschlüssel notwendig","street":"Von-der-Leyen-Platz 1","zip":47798,"city":"Krefeld","district":"Krefeld","tel":"","fax":"","mail":"","web":"","lat":51.334648,"lng":6.558767},"geometry":{"type":"Point","coordinates":[6.558767,51.334648]}},{"type":"Feature","properties":{"title":"Heilpädagogisches Zentrum Krefeld-Kreis Viersen gGmbH (HPZ), Standort Krefeld-Uerdingen","description":"Behindertenwerkstatt","street":"Adolf-Dembach-Straße 15","zip":47829,"city":"Krefeld","district":"Krefeld","tel":"02151/65038930","fax":"02151/65038940","mail":"p.hagen@hpzkrefeld.de","web":"http://www.hpz-krefeld.de/Home/Standorte/Krefeld-Uerdingen","lat":51.371312,"lng":6.639333},"geometry":{"type":"Point","coordinates":[6.639333,51.371312]}},{"type":"Feature","properties":{"title":"Behindertengerechte Toilette Berufskolleg Glockenspitz (Gebäude B)","description":"geöffnet während der Schulzeiten, Euroschlüssel notwendig","street":"Glockenspitz 350","zip":47809,"city":"Krefeld","district":"Krefeld","tel":"","fax":"","mail":"","web":"","lat":51.337896,"lng":6.612982},"geometry":{"type":"Point","coordinates":[6.612982,51.337896]}},{"type":"Feature","properties":{"title":"Beratungs- und Begegnungszentrum Netzwerk Luisenstraße (St. Augustinus Behindertenhilfe)","description":"Ambulant betreutes Wohnen und Tagestreff für Menschen mit psychischen und geistigen Behinderungen","street":"Luisenstraße 79","zip":47799,"city":"Krefeld","district":"Krefeld","tel":"02151/82317772","fax":"02151/82317773","mail":"m.hanke@ak-neuss.de","web":"http://www.abh-krefeld.de/beratung-begegnung/treffpunkte/netzwerke/","lat":51.331364,"lng":6.56891},"geometry":{"type":"Point","coordinates":[6.56891,51.331364]}},{"type":"Feature","properties":{"title":"Verein für Integrative Betreuung e.V. (VIB)","description":"Amblantes betreutes Wohnen und Tagestreff für Menschen mit psychischen Behinderungen oder Abhängigkeitserkrankungen, montags 10:00 - 12:00, dienstags - freitags 12:00 - 14:00","street":"Gladbacher Straße 125","zip":47805,"city":"Krefeld","district":"Krefeld","tel":"02151/3686413","fax":"02151/3689429","mail":"vib@vib-krefeld.de","web":"http://www.vib-krefeld.de/","lat":51.320931,"lng":6.562247},"geometry":{"type":"Point","coordinates":[6.562247,51.320931]}},{"type":"Feature","properties":{"title":"Behindertengerechte Toilette Restaurant Nordbahnhof","description":"","street":"Oranierring 91","zip":47798,"city":"Krefeld","district":"Krefeld","tel":"","fax":"","mail":"","web":"","lat":51.339242,"lng":6.552454},"geometry":{"type":"Point","coordinates":[6.552454,51.339242]}},{"type":"Feature","properties":{"title":"Behindertengerechte Toilette Fachbereich Gesundheit","description":"geöffnet montags bis mittwochs 8:30 - 16:00 Uhr, donnerstags 8:30 - 17:30 Uhr, freitags 8:30 - 12:30 Uhr, Euroschlüssel notwendig","street":"Gartenstraße 32","zip":47798,"city":"Krefeld","district":"Krefeld","tel":"","fax":"","mail":"","web":"","lat":51.334838,"lng":6.559721},"geometry":{"type":"Point","coordinates":[6.559721,51.334838]}},{"type":"Feature","properties":{"title":"Behindertengerechte Toilette Maria-Sibylla-Merian-Gymnasium","description":"Hauptgebäude und Turnhalle","street":"Johannes-Blum-Straße 101","zip":47807,"city":"Krefeld","district":"Krefeld","tel":"","fax":"","mail":"","web":"geöffnet während der Schulzeiten, Euroschlüssel notwendig","lat":51.312657,"lng":6.584873},"geometry":{"type":"Point","coordinates":[6.584873,51.312657]}},{"type":"Feature","properties":{"title":"Behindertengerechte Toilette Berufskolleg Uerdingen","description":"auf allen Etagen, geöffnet während der Schulzeiten","street":"Alte Krefelder Straße 93","zip":47829,"city":"Krefeld","district":"Krefeld","tel":"","fax":"","mail":"","web":"","lat":51.350137,"lng":6.635539},"geometry":{"type":"Point","coordinates":[6.635539,51.350137]}},{"type":"Feature","properties":{"title":"Behindertengerechte Toilette Kaiser-Wilhelm-Museum","description":"geöffnet dienstags bis sonntags 11:00 - 17:00 Uhr","street":"Joseph-Beuys-Platz 1","zip":47798,"city":"Krefeld","district":"Krefeld","tel":"02151 975580","fax":"","mail":"kunstmuseen@krefeld.de","web":"http://www.kunstmuseenkrefeld.de/d/info/barrierefrei/","lat":51.330363,"lng":6.559332},"geometry":{"type":"Point","coordinates":[6.559332,51.330363]}},{"type":"Feature","properties":{"title":"Sozialpsychiatrisches Zentrum Krefeld (Psychosoziale Hilfe Krefeld e.V.)","description":"Hilfen für Menschen mit psychischen Krankheiten und Behinderungen, offener Treff","street":"Schwertstraße 135 a","zip":47799,"city":"Krefeld","district":"Krefeld","tel":"02151/646800","fax":"02151/6468075","mail":"info@psh-krefeld.de","web":"http://www.spz-krefeld.de","lat":51.328856,"lng":6.569177},"geometry":{"type":"Point","coordinates":[6.569177,51.328856]}},{"type":"Feature","properties":{"title":"Sozialpsychiatrischer Dienst (Stadt Krefeld)","description":"Fachbereich Gesundheit, Beratung für psychisch kranke Menschen und ihre Angehörigen","street":"Gartenstraße 32","zip":47798,"city":"Krefeld","district":"Krefeld","tel":"02151/863528","fax":"02151/863552","mail":"gesundheitsamt@krefeld.de","web":"http://www.krefeld.de/de/gesundheit/hilfen-im-sozialpsychiatrischen-bereich/","lat":51.334905,"lng":6.56017},"geometry":{"type":"Point","coordinates":[6.56017,51.334905]}},{"type":"Feature","properties":{"title":"Interdisziplinäre Frühförderung IFF (HPZ)","description":"Hilfsangebote vom Säuglings- bis zum Schulalter","street":"Mühlenstraße 42","zip":47798,"city":"Krefeld","district":"Krefeld","tel":"02151/3697381","fax":"","mail":"iff.krefeld@hpzkrefeld.de","web":"http://www.hpz-krefeld.de/Kinder/Interdisziplinäre-Frühförderung","lat":51.329352,"lng":6.562858},"geometry":{"type":"Point","coordinates":[6.562858,51.329352]}},{"type":"Feature","properties":{"title":"St. Augustinus-Behindertenhilfe in Krefeld (St. Augustinus-Kliniken)","description":"Wohnen und Unterstützung für Menschen mit psychischer Behinderung","street":"Obergath                       50","zip":47805,"city":"Krefeld","district":"Krefeld","tel":"02151/82317690","fax":"02151/82317691","mail":"k.pilatzki@ak-neuss.de","web":"http://www.abh-krefeld.de/","lat":51.315017,"lng":6.573815},"geometry":{"type":"Point","coordinates":[6.573815,51.315017]}},{"type":"Feature","properties":{"title":"Lebenshilfe Krefeld e.V. (Geschäftsstelle)","description":"Hilfen für Menschen mit geistiger Behinderung","street":"Frankenring 65","zip":47798,"city":"Krefeld","district":"Krefeld","tel":"02151/3633880","fax":"","mail":"info@lebenshilfe-krefeld.de","web":"http://www.lebenshilfe-krefeld.de/","lat":51.327737,"lng":6.551171},"geometry":{"type":"Point","coordinates":[6.551171,51.327737]}},{"type":"Feature","properties":{"title":"Gemeinschaft ohne Grenzen (GoG) (Friedenskirche)","description":"freitags 19:30 - 22:00 außer in den Schulferien","street":"Mariannenstraße 106","zip":47799,"city":"Krefeld","district":"Krefeld","tel":"0157/50787799","fax":"","mail":"gog.krefeld@t-online.de","web":"http://www.gog.ag.vu/","lat":51.33237,"lng":6.569435},"geometry":{"type":"Point","coordinates":[6.569435,51.33237]}},{"type":"Feature","properties":{"title":"Tagesstruktureinrichtung Treffpunkt (Alexianer Krefeld GmbH)","description":"Einrichtung für Menschen mit psychisch, geistig und körperlich bedingten Leistungseinschränkungen, ambulant betreutes Wohnen, montags bis donnerstags 8:00 - 16:00, freitags 8:00 - 12:00","street":"Jungfernweg 33","zip":47799,"city":"Krefeld","district":"Krefeld","tel":"02151/3347171","fax":"02151/334897171","mail":"s.gietz@alexianer.de","web":"http://www.alexianer-krefeld.de/unsere_angebote/angebote_fuer_menschen_mit_behinderung/beschaeftigung/tagesstruktureinrichtung_treffpunkt/","lat":51.336336,"lng":6.56603},"geometry":{"type":"Point","coordinates":[6.56603,51.336336]}},{"type":"Feature","properties":{"title":"Integrationsfachdienst Krefeld/Viersen (IFD) (Menschen im Zentrum e.V.)","description":"Berufsberatung und -begleitung für behinderte Menschen","street":"Königstraße 1","zip":47798,"city":"Krefeld","district":"Krefeld","tel":"02151/6597810","fax":"","mail":"info@ifd-kr.de","web":"http://www.ifd-kr.de/","lat":51.328344,"lng":6.566165},"geometry":{"type":"Point","coordinates":[6.566165,51.328344]}}]}