{"type":"FeatureCollection","features":[{"type":"Feature","properties":{"title":"Wohnstätte Unser Haus Haydnstraße (Förderverein Freizeit Behinderter e.V.)","description":"Wohnheim für Menschen mit psychischer Erkrankung","street":"Haydnstraße 4","zip":47800,"city":"Krefeld","district":"Krefeld","tel":"02151/595536","fax":"02151/595540","mail":"info@ffb-krefeld.de","web":"http://www.ffb-krefeld.de/docs/unserhaus.php","lat":51.34311,"lng":6.586324},"geometry":{"type":"Point","coordinates":[6.586324,51.34311]}},{"type":"Feature","properties":{"title":"Haus am Berg (Lebenshilfe Krefeld e.V.)","description":"Wohnhaus für Kinder und Jugendliche mit Autismus und Mehrfachbehinderungen","street":"Rennstieg 5","zip":47802,"city":"Krefeld","district":"Krefeld","tel":"02151/4119880","fax":"02151/41198815","mail":"f.bloch@lebenshilfe-krefeld.de","web":"http://www.lebenshilfe-krefeld.de/de/einrichtungen_dienste/wohnen/haus_am_berg.php","lat":51.389942,"lng":6.53958},"geometry":{"type":"Point","coordinates":[6.53958,51.389942]}},{"type":"Feature","properties":{"title":"Wohnstätte Viktorheim (Förderverein Freizeit Behinderter e.V.)","description":"Wohnhaus für Menschen mit geistiger Behinderung","street":"Benrader Straße 189","zip":47804,"city":"Krefeld","district":"Krefeld","tel":"02151/76590","fax":"02151/765922","mail":"info@ffb-krefeld.de","web":"http://www.ffb-krefeld.de/docs/viktorheim.php","lat":51.348169,"lng":6.52175},"geometry":{"type":"Point","coordinates":[6.52175,51.348169]}},{"type":"Feature","properties":{"title":"Wohnhaus Herrenweg (Lebenshilfe Krefeld e.V.)","description":"Wohnheim für Menschen mit geistiger oder mehrfacher Behinderung","street":"Herrenweg 11","zip":47839,"city":"Krefeld","district":"Krefeld","tel":"02151/746660","fax":"02151/7466622","mail":"herrenweg@lebenshilfe-krefeld.de","web":"http://www.lebenshilfe-krefeld.de/de/einrichtungen_dienste/wohnen/herrenweg.php","lat":51.374568,"lng":6.510844},"geometry":{"type":"Point","coordinates":[6.510844,51.374568]}},{"type":"Feature","properties":{"title":"Dr. Ulrich-Lange-Stiftung gGmbH (Dulst)","description":"Wohnanlage für Körperbehinderte","street":"Buscher Holzweg 100","zip":47802,"city":"Krefeld","district":"Krefeld","tel":"02151/956920","fax":"02151/956917","mail":"dulst@dulst.de","web":"http://www.dulst.de/wohnangebote.html","lat":51.37728,"lng":6.587141},"geometry":{"type":"Point","coordinates":[6.587141,51.37728]}},{"type":"Feature","properties":{"title":"Haus Stephanus (St. Augustinus-Behindertenhilfe)","description":"Wohneinrichtung für Menschen mit psychischen Behinderungen","street":"Obergath 50","zip":47805,"city":"Krefeld","district":"Krefeld","tel":"02151/82317700","fax":"02151/82317701","mail":"info@st-augustinus-behindertenhilfe.de","web":"http://www.abh-krefeld.de/wohnen/wohnen-in-krefeld/","lat":51.315053,"lng":6.573626},"geometry":{"type":"Point","coordinates":[6.573626,51.315053]}},{"type":"Feature","properties":{"title":"Haus Martin (St. Augustinus-Behindertenhilfe)","description":"Wohneinrichtung für Menschen mit psychischen Behinderungen","street":"Am Dreifaltigkeitskloster 16a","zip":47807,"city":"Krefeld","district":"Krefeld","tel":"02151/82317720","fax":"02151/82317721","mail":"info@st-augustinus-behindertenhilfe.de","web":"http://www.abh-krefeld.de/wohnen/wohnen-in-krefeld/","lat":51.314767,"lng":6.574865},"geometry":{"type":"Point","coordinates":[6.574865,51.314767]}},{"type":"Feature","properties":{"title":"Haus Alte Landstraße (Lebenshilfe Krefeld e.V.)","description":"Haus für Menschen mit der Diagnose Autismus","street":"Klever Straße 174","zip":47839,"city":"Krefeld","district":"Krefeld","tel":"02151/4119880","fax":"","mail":"f.schreinemacher@lebenshilfe-krefeld.de","web":"http://www.lebenshilfe-krefeld.de/de/einrichtungen_dienste/wohnen/HausAlteLandstrasse.php","lat":51.385092,"lng":6.50561},"geometry":{"type":"Point","coordinates":[6.50561,51.385092]}},{"type":"Feature","properties":{"title":"Haus Judith (Alexianer Krefeld GmbH)","description":"Wohnheim für Menschen mit psychischen Behinderungen","street":"Hülser Straße 262","zip":47803,"city":"Krefeld","district":"Krefeld","tel":"0163/8797871","fax":"","mail":"c.kuhnke@alexianer.de","web":"http://www.alexianer-krefeld.de/unsere_angebote/angebote_fuer_menschen_mit_behinderung/wohnen/haus_judith/","lat":51.346527,"lng":6.545165},"geometry":{"type":"Point","coordinates":[6.545165,51.346527]}},{"type":"Feature","properties":{"title":"Dr.-Walter-Taenzler-Haus (Lebenshilfe Krefeld e.V.)","description":"Wohnheim für Menschen mit geistiger oder mehrfacher Behinderung","street":"Voltastraße 72","zip":47805,"city":"Krefeld","district":"Krefeld","tel":"02151/4422600","fax":"02151/44226015","mail":"taenzlerhaus@lebenshilfe-krefeld.de","web":"http://www.lebenshilfe-krefeld.de/de/einrichtungen_dienste/wohnen/dr_walter_taenzler_haus.php","lat":51.323621,"lng":6.581444},"geometry":{"type":"Point","coordinates":[6.581444,51.323621]}},{"type":"Feature","properties":{"title":"Peter-Billecke-Haus (Dr. Ulrich-Lange-Stiftung gGmbH)","description":"Wohnhaus für Körperbehinderte","street":"Virchowstraße 105","zip":47805,"city":"Krefeld","district":"Krefeld","tel":"02151/3363742","fax":"02151/3363745","mail":"pbh@dulst.de","web":"http://www.dulst.de/wohnangebote-40.html","lat":51.324332,"lng":6.573836},"geometry":{"type":"Point","coordinates":[6.573836,51.324332]}},{"type":"Feature","properties":{"title":"Wohnhaus Gartenstadt (Lebenshilfe Krefeld e.V.)","description":"Wohnheim für Menschen mit geistiger oder mehrfacher Behinderung","street":"Traarer Straße 399","zip":47829,"city":"Krefeld","district":"Krefeld","tel":"02151/4119900","fax":"02151/41199099","mail":"gartenstadt@lebenshilfe-krefeld.de","web":"http://www.lebenshilfe-krefeld.de/de/einrichtungen_dienste/wohnen/gartenstadt.php","lat":51.362465,"lng":6.613573},"geometry":{"type":"Point","coordinates":[6.613573,51.362465]}},{"type":"Feature","properties":{"title":"Haus Monika (St. Augustinus-Behindertenhilfe)","description":"Wohneinrichtung für Menschen mit psychischen Behinderungen","street":"Am Dreifaltigkeitskloster 16","zip":47807,"city":"Krefeld","district":"Krefeld","tel":"02151/82317740","fax":"02151/82317731","mail":"info@st-augustinus-behindertenhilfe.de","web":"http://www.abh-krefeld.de/wohnen/wohnen-in-krefeld/","lat":51.314538,"lng":6.574439},"geometry":{"type":"Point","coordinates":[6.574439,51.314538]}},{"type":"Feature","properties":{"title":"Maximilian-Kolbe-Haus (Alexianer Krefeld GmbH)","description":"Wohnheim für Menschen mit psychischer Behinderung, ambulant betreutes Wohnen","street":"Oberdießemer Straße 95","zip":47805,"city":"Krefeld","district":"Krefeld","tel":"02151/3341450","fax":"02151/334551405","mail":"j.agricola@alexianer.de","web":"http://www.alexianer-krefeld.de/unsere_angebote/angebote_fuer_menschen_mit_behinderung/wohnen/maximilian_kolbe_haus/","lat":51.325314,"lng":6.58231},"geometry":{"type":"Point","coordinates":[6.58231,51.325314]}},{"type":"Feature","properties":{"title":"Wohnhaus St. Peter (Lebenshilfe Krefeld e.V.)","description":"Wohnheim für Menschen mit geistiger oder mehrfacher Behinderung","street":"Fabritiusstraße 49","zip":47829,"city":"Krefeld","district":"Krefeld","tel":"02151/4919490","fax":"02151/49194911","mail":"st.peter@lebenshilfe-krefeld.de","web":"http://www.lebenshilfe-krefeld.de/de/einrichtungen_dienste/wohnen/st_peter.php","lat":51.347413,"lng":6.643462},"geometry":{"type":"Point","coordinates":[6.643462,51.347413]}},{"type":"Feature","properties":{"title":"Haus Markus (St. Augustinus-Behindertenhilfe)","description":"Wohneinrichtung für Menschen mit psychischen Behinderungen","street":"Am Schirkeshof 8","zip":47804,"city":"Krefeld","district":"Krefeld","tel":"02151/82317800","fax":"02151/82317801","mail":"hausmarkus@ak-neuss.de","web":"http://www.abh-krefeld.de/wohnen/wohnen-in-krefeld/","lat":51.327892,"lng":6.527906},"geometry":{"type":"Point","coordinates":[6.527906,51.327892]}},{"type":"Feature","properties":{"title":"Haus St. Antonius (Alexianer Krefeld GmbH)","description":"Wohnheim für Menschen mit psychischer Behinderung","street":"Antoniusplatz 8","zip":47805,"city":"Krefeld","district":"Krefeld","tel":"02151/3797871","fax":"","mail":"c.kuhnke@alexianer.de","web":"http://www.alexianer-krefeld.de/unsere_angebote/angebote_fuer_menschen_mit_behinderung/wohnen/haus_st_antonius/","lat":51.324743,"lng":6.580997},"geometry":{"type":"Point","coordinates":[6.580997,51.324743]}},{"type":"Feature","properties":{"title":"Haus Madeleine (St. Augustinus-Behindertenhilfe)","description":"Wohneinrichtung für Menschen mit psychischen Behinderungen","street":"Heinrichsplatz 5","zip":47829,"city":"Krefeld","district":"Krefeld","tel":"02151/82312510","fax":"02151/82312511","mail":"info@st-augustinus-behinderternhilfe.de","web":"http://www.abh-krefeld.de/wohnen/wohnen-in-krefeld/","lat":51.360717,"lng":6.643449},"geometry":{"type":"Point","coordinates":[6.643449,51.360717]}},{"type":"Feature","properties":{"title":"Wohnstätte Unser Haus Dahlienstraße (Förderverein Freizeit Behinderter e.V.)","description":"Wohnheim für Menschen mit psychischer Erkrankung","street":"Dahlienstraße 55","zip":47800,"city":"Krefeld","district":"Krefeld","tel":"02151/1531460","fax":"02151/1531461","mail":"info@ffb-krefeld.de","web":"http://www.ffb-krefeld.de/docs/unserhaus.php","lat":51.340044,"lng":6.611792},"geometry":{"type":"Point","coordinates":[6.611792,51.340044]}},{"type":"Feature","properties":{"title":"Haus St. Johanna (Alexianer Krefeld GmbH)","description":"Wohnheim für psychisch Erkrankte oder Behinderte und Abhängigkeitserkrankte","street":"Oberdießemer Straße 73","zip":47805,"city":"Krefeld","district":"Krefeld","tel":"02151/3341405","fax":"02151/334551405","mail":"j.agricola@alexianer.de","web":"http://www.alexianer-krefeld.de/unsere_angebote/angebote_fuer_menschen_mit_behinderung/wohnen/haus_st_johanna/","lat":51.326105,"lng":6.582449},"geometry":{"type":"Point","coordinates":[6.582449,51.326105]}},{"type":"Feature","properties":{"title":"Haus Felix (Alexianer Krefeld GmbH)","description":"Wohnheim für Menschen mit psychischen Behinderungen und schwersten psychischen Störungen","street":"Dießemer Bruch 81","zip":47805,"city":"Krefeld","district":"Krefeld","tel":"02151/3341550","fax":"","mail":"tina.mueller-boenigk@alexianer.de","web":"http://www.alexianer-krefeld.de/unsere_angebote/angebote_fuer_menschen_mit_behinderung/wohnen/haus_felix/","lat":51.324198,"lng":6.587629},"geometry":{"type":"Point","coordinates":[6.587629,51.324198]}},{"type":"Feature","properties":{"title":"Haus St. Martin (Alexianer Krefeld GmbH)","description":"Wohnheim für Menschen mit geistiger Behinderung, psychischen Störungen oder Mehrfachbehinderungen","street":"Im Witschen 1","zip":47807,"city":"Krefeld","district":"Krefeld","tel":"02151/9340311","fax":"02151/9340328","mail":"haus-st.martin@alexianer-krefeld.de","web":"http://www.alexianer-krefeld.de/unsere_angebote/angebote_fuer_menschen_mit_behinderung/wohnen/haus_st_martin/","lat":51.319802,"lng":6.591616},"geometry":{"type":"Point","coordinates":[6.591616,51.319802]}}]}