{"type":"FeatureCollection","features":[{"type":"Feature","properties":{"title":"Hundekotstation Neulandstraße/Im Siedlergarten","description":"Stadt Krefeld, Fachbereich Umwelt","street":"Neulandstraße","zip":47807,"city":"Krefeld","district":"Krefeld","tel":"02151/36602478","fax":"","mail":"umwelt@krefeld.de","web":"https://www.krefeld.de/hundekotstationen","lat":51.31125,"lng":6.566716},"geometry":{"type":"Point","coordinates":[6.566716,51.31125]}},{"type":"Feature","properties":{"title":"Hundekotstation Dießemer Straße/Seidenstraße/Schwertstraße","description":"Stadt Krefeld, Fachbereich Umwelt","street":"Dießemer Straße","zip":47799,"city":"Krefeld","district":"Krefeld","tel":"02151/36602478","fax":"","mail":"umwelt@krefeld.de","web":"https://www.krefeld.de/hundekotstationen","lat":51.33131,"lng":6.577969},"geometry":{"type":"Point","coordinates":[6.577969,51.33131]}},{"type":"Feature","properties":{"title":"Hundekotstation Feldstraße","description":"Stadt Krefeld, Fachbereich Umwelt","street":"Feldstraße","zip":47805,"city":"Krefeld","district":"Krefeld","tel":"02151/36602478","fax":"","mail":"umwelt@krefeld.de","web":"https://www.krefeld.de/hundekotstationen","lat":51.319581,"lng":6.574847},"geometry":{"type":"Point","coordinates":[6.574847,51.319581]}},{"type":"Feature","properties":{"title":"Hundekotstation Stadtpark Uerdingen/Nikolaus-Groß-Straße","description":"Stadt Krefeld, Fachbereich Umwelt","street":"Nikolaus-Groß-Straße","zip":47829,"city":"Krefeld","district":"Krefeld","tel":"02151/36602478","fax":"","mail":"umwelt@krefeld.de","web":"https://www.krefeld.de/hundekotstationen","lat":51.359616,"lng":6.637166},"geometry":{"type":"Point","coordinates":[6.637166,51.359616]}},{"type":"Feature","properties":{"title":"Hundekotstation Friedrichsplatz/Fabrikstraße","description":"Stadt Krefeld, Fachbereich Umwelt","street":"Friedrichsplatz","zip":47798,"city":"Krefeld","district":"Krefeld","tel":"02151/36602478","fax":"","mail":"umwelt@krefeld.de","web":"https://www.krefeld.de/hundekotstationen","lat":51.336162,"lng":6.560183},"geometry":{"type":"Point","coordinates":[6.560183,51.336162]}},{"type":"Feature","properties":{"title":"Hundekotstation Hauptstraße/Parkplatz Höhe Buddestraße","description":"Stadt Krefeld, Fachbereich Umwelt","street":"Hauptstraße","zip":47809,"city":"Krefeld","district":"Krefeld","tel":"02151/36602478","fax":"","mail":"umwelt@krefeld.de","web":"https://www.krefeld.de/hundekotstationen","lat":51.328557,"lng":6.613649},"geometry":{"type":"Point","coordinates":[6.613649,51.328557]}},{"type":"Feature","properties":{"title":"Hundekotstation Erkelenzer Straße/Kimplerstraße/Mühlenfeld","description":"Stadt Krefeld, Fachbereich Umwelt","street":"Erkelenzer Straße","zip":47807,"city":"Krefeld","district":"Krefeld","tel":"02151/36602478","fax":"","mail":"umwelt@krefeld.de","web":"https://www.krefeld.de/hundekotstationen","lat":51.307866,"lng":6.576999},"geometry":{"type":"Point","coordinates":[6.576999,51.307866]}},{"type":"Feature","properties":{"title":"Hundekotstation Rundweg","description":"Stadt Krefeld, Fachbereich Umwelt","street":"Rundweg","zip":47829,"city":"Krefeld","district":"Krefeld","tel":"02151/36602478","fax":"","mail":"umwelt@krefeld.de","web":"https://www.krefeld.de/hundekotstationen","lat":51.347638,"lng":6.640025},"geometry":{"type":"Point","coordinates":[6.640025,51.347638]}},{"type":"Feature","properties":{"title":"Hundekotstation Zooparkplatz/Violstraße","description":"Stadt Krefeld, Fachbereich Umwelt","street":"Violstraße","zip":47800,"city":"Krefeld","district":"Krefeld","tel":"02151/36602478","fax":"","mail":"umwelt@krefeld.de","web":"https://www.krefeld.de/hundekotstationen","lat":51.340609,"lng":6.59929},"geometry":{"type":"Point","coordinates":[6.59929,51.340609]}},{"type":"Feature","properties":{"title":"Hundekotstation Hardenbergstraße/Florastraße","description":"Stadt Krefeld, Fachbereich Umwelt","street":"Hardenbergstraße","zip":47799,"city":"Krefeld","district":"Krefeld","tel":"02151/36602478","fax":"","mail":"umwelt@krefeld.de","web":"https://www.krefeld.de/hundekotstationen","lat":51.33395,"lng":6.581789},"geometry":{"type":"Point","coordinates":[6.581789,51.33395]}},{"type":"Feature","properties":{"title":"Hundekotstation Fütingsweg/Siemensstraße","description":"Stadt Krefeld, Fachbereich Umwelt","street":"Fütingsweg","zip":47805,"city":"Krefeld","district":"Krefeld","tel":"02151/36602478","fax":"","mail":"umwelt@krefeld.de","web":"https://www.krefeld.de/hundekotstationen","lat":51.321997,"lng":6.577333},"geometry":{"type":"Point","coordinates":[6.577333,51.321997]}},{"type":"Feature","properties":{"title":"Hundekotstation Freiligrathstraße","description":"Stadt Krefeld, Fachbereich Umwelt","street":"Freiligrathstraße","zip":47799,"city":"Krefeld","district":"Krefeld","tel":"02151/36602478","fax":"","mail":"umwelt@krefeld.de","web":"https://www.krefeld.de/hundekotstationen","lat":51.33399,"lng":6.578519},"geometry":{"type":"Point","coordinates":[6.578519,51.33399]}},{"type":"Feature","properties":{"title":"Hundekotstation Westwall/Gartenstraße","description":"Stadt Krefeld, Fachbereich Umwelt","street":"Westwall","zip":47798,"city":"Krefeld","district":"Krefeld","tel":"02151/36602478","fax":"","mail":"umwelt@krefeld.de","web":"https://www.krefeld.de/hundekotstationen","lat":51.334666,"lng":6.557727},"geometry":{"type":"Point","coordinates":[6.557727,51.334666]}},{"type":"Feature","properties":{"title":"Hundekotstation Johannes-Blum-Straße","description":"Stadt Krefeld, Fachbereich Umwelt","street":"Johannes-Blum-Straße","zip":47807,"city":"Krefeld","district":"Krefeld","tel":"02151/36602478","fax":"","mail":"umwelt@krefeld.de","web":"https://www.krefeld.de/hundekotstationen","lat":51.312068,"lng":6.587786},"geometry":{"type":"Point","coordinates":[6.587786,51.312068]}},{"type":"Feature","properties":{"title":"Hundekotstation Wilhelmshofallee/Hohenzollernstraße","description":"Stadt Krefeld, Fachbereich Umwelt","street":"Wilhelmshofallee","zip":47799,"city":"Krefeld","district":"Krefeld","tel":"02151/36602478","fax":"","mail":"umwelt@krefeld.de","web":"https://www.krefeld.de/hundekotstationen","lat":51.345914,"lng":6.576413},"geometry":{"type":"Point","coordinates":[6.576413,51.345914]}},{"type":"Feature","properties":{"title":"Hundekotstation Roonstraße/Hunzigerstraße","description":"Stadt Krefeld, Fachbereich Umwelt","street":"Roonstraße","zip":47799,"city":"Krefeld","district":"Krefeld","tel":"02151/36602478","fax":"","mail":"umwelt@krefeld.de","web":"https://www.krefeld.de/hundekotstationen","lat":51.33875,"lng":6.580749},"geometry":{"type":"Point","coordinates":[6.580749,51.33875]}},{"type":"Feature","properties":{"title":"Hundekotstation Hohenzollernstraße/Brahmsstraße","description":"Stadt Krefeld, Fachbereich Umwelt","street":"Hohenzollernstraße","zip":47799,"city":"Krefeld","district":"Krefeld","tel":"02151/36602478","fax":"","mail":"umwelt@krefeld.de","web":"https://www.krefeld.de/hundekotstationen","lat":51.3421,"lng":6.576299},"geometry":{"type":"Point","coordinates":[6.576299,51.3421]}},{"type":"Feature","properties":{"title":"Hundekotstation Hölschen Dyk/Burgpark Hüls","description":"Stadt Krefeld, Fachbereich Umwelt","street":"Hölschen Dyk","zip":47839,"city":"Krefeld","district":"Krefeld","tel":"02151/36602478","fax":"","mail":"umwelt@krefeld.de","web":"https://www.krefeld.de/hundekotstationen","lat":51.374318,"lng":6.514233},"geometry":{"type":"Point","coordinates":[6.514233,51.374318]}},{"type":"Feature","properties":{"title":"Hundekotstation Hees/Nerenbroicker Weg","description":"Stadt Krefeld, Fachbereich Umwelt","street":"Hees","zip":47807,"city":"Krefeld","district":"Krefeld","tel":"02151/36602478","fax":"","mail":"umwelt@krefeld.de","web":"https://www.krefeld.de/hundekotstationen","lat":51.304762,"lng":6.597713},"geometry":{"type":"Point","coordinates":[6.597713,51.304762]}},{"type":"Feature","properties":{"title":"Hundekotstation Im Heggelsfeld","description":"Stadt Krefeld, Fachbereich Umwelt","street":"Im Heggelsfeld","zip":47802,"city":"Krefeld","district":"Krefeld","tel":"02151/36602478","fax":"","mail":"umwelt@krefeld.de","web":"https://www.krefeld.de/hundekotstationen","lat":51.3744,"lng":6.588099},"geometry":{"type":"Point","coordinates":[6.588099,51.3744]}},{"type":"Feature","properties":{"title":"Hundekotstation Westwall/Dionysiusstraße","description":"Stadt Krefeld, Fachbereich Umwelt","street":"Westwall","zip":47798,"city":"Krefeld","district":"Krefeld","tel":"02151/36602478","fax":"","mail":"umwelt@krefeld.de","web":"https://www.krefeld.de/hundekotstationen","lat":51.33245,"lng":6.55881},"geometry":{"type":"Point","coordinates":[6.55881,51.33245]}},{"type":"Feature","properties":{"title":"Hundekotstation Traarer Straße","description":"Stadt Krefeld, Fachbereich Umwelt","street":"Stettiner Straße","zip":47829,"city":"Krefeld","district":"Krefeld","tel":"02151/36602478","fax":"","mail":"umwelt@krefeld.de","web":"https://www.krefeld.de/hundekotstationen","lat":51.363624,"lng":6.617126},"geometry":{"type":"Point","coordinates":[6.617126,51.363624]}},{"type":"Feature","properties":{"title":"Hundekotstation Nauenweg","description":"Stadt Krefeld, Fachbereich Umwelt","street":"Nauenweg","zip":47804,"city":"Krefeld","district":"Krefeld","tel":"02151/36602478","fax":"","mail":"umwelt@krefeld.de","web":"https://www.krefeld.de/hundekotstationen","lat":51.321974,"lng":6.549142},"geometry":{"type":"Point","coordinates":[6.549142,51.321974]}},{"type":"Feature","properties":{"title":"Hundekotstation An der Rennbahn","description":"Stadt Krefeld, Fachbereich Umwelt","street":"An der Rennbahn","zip":47800,"city":"Krefeld","district":"Krefeld","tel":"02151/36602478","fax":"","mail":"umwelt@krefeld.de","web":"https://www.krefeld.de/hundekotstationen","lat":51.359716,"lng":6.590165},"geometry":{"type":"Point","coordinates":[6.590165,51.359716]}},{"type":"Feature","properties":{"title":"Hundekotstation Sprödentalstraße/Sprödentalweg","description":"Stadt Krefeld, Fachbereich Umwelt","street":"Sprödentalstraße","zip":47799,"city":"Krefeld","district":"Krefeld","tel":"02151/36602478","fax":"","mail":"umwelt@krefeld.de","web":"https://www.krefeld.de/hundekotstationen","lat":51.335479,"lng":6.583837},"geometry":{"type":"Point","coordinates":[6.583837,51.335479]}},{"type":"Feature","properties":{"title":"Hundekotstation Vom-Bruck-Platz/Rhodiusstraße","description":"Stadt Krefeld, Fachbereich Umwelt","street":"Vom-Bruck-Platz","zip":47805,"city":"Krefeld","district":"Krefeld","tel":"02151/36602478","fax":"","mail":"umwelt@krefeld.de","web":"https://www.krefeld.de/hundekotstationen","lat":51.317292,"lng":6.566279},"geometry":{"type":"Point","coordinates":[6.566279,51.317292]}},{"type":"Feature","properties":{"title":"Hundekotstation Von-Beckerath-Platz/Wiedstraße","description":"Stadt Krefeld, Fachbereich Umwelt","street":"Von-Beckerath-Platz","zip":47799,"city":"Krefeld","district":"Krefeld","tel":"02151/36602478","fax":"","mail":"umwelt@krefeld.de","web":"https://www.krefeld.de/hundekotstationen","lat":51.336404,"lng":6.572957},"geometry":{"type":"Point","coordinates":[6.572957,51.336404]}},{"type":"Feature","properties":{"title":"Hundekotstation Kaiser-Friedrich-Hain 1","description":"Stadt Krefeld, Fachbereich Umwelt","street":"Leyentalstraße","zip":47799,"city":"Krefeld","district":"Krefeld","tel":"02151/36602478","fax":"","mail":"umwelt@krefeld.de","web":"https://www.krefeld.de/hundekotstationen","lat":51.33891,"lng":6.568819},"geometry":{"type":"Point","coordinates":[6.568819,51.33891]}},{"type":"Feature","properties":{"title":"Hundekotstation Am Brustert","description":"Stadt Krefeld, Fachbereich Umwelt","street":"Am Brustert","zip":47839,"city":"Krefeld","district":"Krefeld","tel":"02151/36602478","fax":"","mail":"umwelt@krefeld.de","web":"https://www.krefeld.de/hundekotstationen","lat":51.381,"lng":6.509299},"geometry":{"type":"Point","coordinates":[6.509299,51.381]}},{"type":"Feature","properties":{"title":"Hundekotstation Emil-Schäfer-Straße","description":"Stadt Krefeld, Fachbereich Umwelt","street":"Emil-Schäfer-Straße","zip":47800,"city":"Krefeld","district":"Krefeld","tel":"02151/36602478","fax":"","mail":"umwelt@krefeld.de","web":"https://www.krefeld.de/hundekotstationen","lat":51.353446,"lng":6.626086},"geometry":{"type":"Point","coordinates":[6.626086,51.353446]}},{"type":"Feature","properties":{"title":"Hundekotstation Ottostraße","description":"Stadt Krefeld, Fachbereich Umwelt","street":"Ottostraße","zip":47803,"city":"Krefeld","district":"Krefeld","tel":"02151/36602478","fax":"","mail":"umwelt@krefeld.de","web":"https://www.krefeld.de/hundekotstationen","lat":51.3351,"lng":6.537899},"geometry":{"type":"Point","coordinates":[6.537899,51.3351]}},{"type":"Feature","properties":{"title":"Hundekotstation Grenzstraße/Hunzigerstraße","description":"Stadt Krefeld, Fachbereich Umwelt","street":"Grenzstraße","zip":47799,"city":"Krefeld","district":"Krefeld","tel":"02151/36602478","fax":"","mail":"umwelt@krefeld.de","web":"https://www.krefeld.de/hundekotstationen","lat":51.339842,"lng":6.584942},"geometry":{"type":"Point","coordinates":[6.584942,51.339842]}},{"type":"Feature","properties":{"title":"Hundekotstation Kuhleshütte","description":"Stadt Krefeld, Fachbereich Umwelt","street":"Kuhleshütte","zip":47809,"city":"Krefeld","district":"Krefeld","tel":"02151/36602478","fax":"","mail":"umwelt@krefeld.de","web":"https://www.krefeld.de/hundekotstationen","lat":51.331622,"lng":6.601172},"geometry":{"type":"Point","coordinates":[6.601172,51.331622]}},{"type":"Feature","properties":{"title":"Hundekotstation Lehmheide","description":"Stadt Krefeld, Fachbereich Umwelt","street":"Lehmheide","zip":47805,"city":"Krefeld","district":"Krefeld","tel":"02151/36602478","fax":"","mail":"umwelt@krefeld.de","web":"https://www.krefeld.de/hundekotstationen","lat":51.315489,"lng":6.554854},"geometry":{"type":"Point","coordinates":[6.554854,51.315489]}},{"type":"Feature","properties":{"title":"Hundekotstation Alexanderplatz","description":"Stadt Krefeld, Fachbereich Umwelt","street":"Alexanderplatz","zip":47798,"city":"Krefeld","district":"Krefeld","tel":"02151/36602478","fax":"","mail":"umwelt@krefeld.de","web":"https://www.krefeld.de/hundekotstationen","lat":51.325616,"lng":6.56189},"geometry":{"type":"Point","coordinates":[6.56189,51.325616]}},{"type":"Feature","properties":{"title":"Hundekotstation Schillerplatz/Lessingstraße","description":"Stadt Krefeld, Fachbereich Umwelt","street":"Schillerplatz","zip":47799,"city":"Krefeld","district":"Krefeld","tel":"02151/36602478","fax":"","mail":"umwelt@krefeld.de","web":"https://www.krefeld.de/hundekotstationen","lat":51.33911,"lng":6.572272},"geometry":{"type":"Point","coordinates":[6.572272,51.33911]}},{"type":"Feature","properties":{"title":"Hundekotstation Engerstraße - Engerkull","description":"Stadt Krefeld, Fachbereich Umwelt","street":"Engerstraße","zip":47800,"city":"Krefeld","district":"Krefeld","tel":"02151/36602478","fax":"","mail":"umwelt@krefeld.de","web":"https://www.krefeld.de/hundekotstationen","lat":51.351158,"lng":6.59815},"geometry":{"type":"Point","coordinates":[6.59815,51.351158]}},{"type":"Feature","properties":{"title":"Hundekotstation Karlsplatz/Westwall/Evertzstraße","description":"Stadt Krefeld, Fachbereich Umwelt","street":"Karlsplatz","zip":47798,"city":"Krefeld","district":"Krefeld","tel":"02151/36602478","fax":"","mail":"umwelt@krefeld.de","web":"https://www.krefeld.de/hundekotstationen","lat":51.330848,"lng":6.559671},"geometry":{"type":"Point","coordinates":[6.559671,51.330848]}},{"type":"Feature","properties":{"title":"Hundekotstation Von-Ketteler-Straße/Nerenbroicker Weg","description":"Stadt Krefeld, Fachbereich Umwelt","street":"Von-Ketteler-Straße","zip":47807,"city":"Krefeld","district":"Krefeld","tel":"02151/36602478","fax":"","mail":"umwelt@krefeld.de","web":"https://www.krefeld.de/hundekotstationen","lat":51.315991,"lng":6.589028},"geometry":{"type":"Point","coordinates":[6.589028,51.315991]}},{"type":"Feature","properties":{"title":"Hundekotstation Vulkanstraße/Jörißenweg","description":"Stadt Krefeld, Fachbereich Umwelt","street":"Vulkanstraße","zip":47807,"city":"Krefeld","district":"Krefeld","tel":"02151/36602478","fax":"","mail":"umwelt@krefeld.de","web":"https://www.krefeld.de/hundekotstationen","lat":51.311397,"lng":6.575833},"geometry":{"type":"Point","coordinates":[6.575833,51.311397]}},{"type":"Feature","properties":{"title":"Hundekotstation Corneliusstraße","description":"Stadt Krefeld, Fachbereich Umwelt","street":"Corneliusstraße","zip":47798,"city":"Krefeld","district":"Krefeld","tel":"02151/36602478","fax":"","mail":"umwelt@krefeld.de","web":"https://www.krefeld.de/hundekotstationen","lat":51.3268,"lng":6.557333},"geometry":{"type":"Point","coordinates":[6.557333,51.3268]}},{"type":"Feature","properties":{"title":"Hundekotstation Dahlerdyk/Gahlingspfad","description":"Stadt Krefeld, Fachbereich Umwelt","street":"Dahlerdyk","zip":47803,"city":"Krefeld","district":"Krefeld","tel":"02151/36602478","fax":"","mail":"umwelt@krefeld.de","web":"https://www.krefeld.de/hundekotstationen","lat":51.34523,"lng":6.564119},"geometry":{"type":"Point","coordinates":[6.564119,51.34523]}},{"type":"Feature","properties":{"title":"Hundekotstation Königsberger Straße/Hammerstraße","description":"Stadt Krefeld, Fachbereich Umwelt","street":"Königsberger Straße","zip":47809,"city":"Krefeld","district":"Krefeld","tel":"02151/36602478","fax":"","mail":"umwelt@krefeld.de","web":"https://www.krefeld.de/hundekotstationen","lat":51.338615,"lng":6.639631},"geometry":{"type":"Point","coordinates":[6.639631,51.338615]}},{"type":"Feature","properties":{"title":"Hundekotstation Parkstraße Parkplatz Elfrather See","description":"Stadt Krefeld, Fachbereich Umwelt","street":"Parkstraße","zip":47829,"city":"Krefeld","district":"Krefeld","tel":"02151/36602478","fax":"","mail":"umwelt@krefeld.de","web":"https://www.krefeld.de/hundekotstationen","lat":51.383271,"lng":6.632239},"geometry":{"type":"Point","coordinates":[6.632239,51.383271]}},{"type":"Feature","properties":{"title":"Hundekotstation Rheinbabenstraße","description":"Stadt Krefeld, Fachbereich Umwelt","street":"Rheinbabenstraße","zip":47809,"city":"Krefeld","district":"Krefeld","tel":"02151/36602478","fax":"","mail":"umwelt@krefeld.de","web":"https://www.krefeld.de/hundekotstationen","lat":51.334758,"lng":6.635074},"geometry":{"type":"Point","coordinates":[6.635074,51.334758]}},{"type":"Feature","properties":{"title":"Hundekotstation Plückertzstraße","description":"Stadt Krefeld, Fachbereich Umwelt","street":"Plückertzstraße","zip":47804,"city":"Krefeld","district":"Krefeld","tel":"02151/36602478","fax":"","mail":"umwelt@krefeld.de","web":"https://www.krefeld.de/hundekotstationen","lat":51.301109,"lng":6.514698},"geometry":{"type":"Point","coordinates":[6.514698,51.301109]}},{"type":"Feature","properties":{"title":"Hundekotstation Bergstraße","description":"Stadt Krefeld, Fachbereich Umwelt","street":"Bergstraße","zip":47829,"city":"Krefeld","district":"Krefeld","tel":"02151/36602478","fax":"","mail":"umwelt@krefeld.de","web":"https://www.krefeld.de/hundekotstationen","lat":51.357126,"lng":6.625864},"geometry":{"type":"Point","coordinates":[6.625864,51.357126]}},{"type":"Feature","properties":{"title":"Hundekotstation Am Rheintor","description":"Stadt Krefeld, Fachbereich Umwelt","street":"Am Rheintor","zip":47829,"city":"Krefeld","district":"Krefeld","tel":"02151/36602478","fax":"","mail":"umwelt@krefeld.de","web":"https://www.krefeld.de/hundekotstationen","lat":51.353911,"lng":6.652039},"geometry":{"type":"Point","coordinates":[6.652039,51.353911]}},{"type":"Feature","properties":{"title":"Hundekotstation Westwall/Südwall","description":"Stadt Krefeld, Fachbereich Umwelt","street":"Westwall","zip":47789,"city":"Krefeld","district":"Krefeld","tel":"02151/36602478","fax":"","mail":"umwelt@krefeld.de","web":"https://www.krefeld.de/hundekotstationen","lat":51.327082,"lng":6.56132},"geometry":{"type":"Point","coordinates":[6.56132,51.327082]}},{"type":"Feature","properties":{"title":"Hundekotstation Am Rheinhorst","description":"Stadt Krefeld, Fachbereich Umwelt","street":"Am Rheinhorst","zip":47829,"city":"Krefeld","district":"Krefeld","tel":"02151/36602478","fax":"","mail":"umwelt@krefeld.de","web":"https://www.krefeld.de/hundekotstationen","lat":51.351366,"lng":6.652726},"geometry":{"type":"Point","coordinates":[6.652726,51.351366]}},{"type":"Feature","properties":{"title":"Hundekotstation Albrechtplatz","description":"Stadt Krefeld, Fachbereich Umwelt","street":"Albrechtplatz","zip":47799,"city":"Krefeld","district":"Krefeld","tel":"02151/36602478","fax":"","mail":"umwelt@krefeld.de","web":"https://www.krefeld.de/hundekotstationen","lat":51.328835,"lng":6.570381},"geometry":{"type":"Point","coordinates":[6.570381,51.328835]}},{"type":"Feature","properties":{"title":"Hundekotstation Kölner Straße/Johannes-Blum-Straße","description":"Stadt Krefeld, Fachbereich Umwelt","street":"Kölner Straße","zip":47807,"city":"Krefeld","district":"Krefeld","tel":"02151/36602478","fax":"","mail":"umwelt@krefeld.de","web":"https://www.krefeld.de/hundekotstationen","lat":51.309888,"lng":6.582669},"geometry":{"type":"Point","coordinates":[6.582669,51.309888]}},{"type":"Feature","properties":{"title":"Hundekotstation Bruchweg Parkplatz Elfrather See","description":"Stadt Krefeld, Fachbereich Umwelt","street":"Bruchweg","zip":47829,"city":"Krefeld","district":"Krefeld","tel":"02151/36602478","fax":"","mail":"umwelt@krefeld.de","web":"https://www.krefeld.de/hundekotstationen","lat":51.3778,"lng":6.629099},"geometry":{"type":"Point","coordinates":[6.629099,51.3778]}},{"type":"Feature","properties":{"title":"Hundekotstation Lutherplatz","description":"Stadt Krefeld, Fachbereich Umwelt","street":"Lutherplatz","zip":47805,"city":"Krefeld","district":"Krefeld","tel":"02151/36602478","fax":"","mail":"umwelt@krefeld.de","web":"https://www.krefeld.de/hundekotstationen","lat":51.320516,"lng":6.563366},"geometry":{"type":"Point","coordinates":[6.563366,51.320516]}},{"type":"Feature","properties":{"title":"Hundekotstation Stadtwald","description":"Stadt Krefeld, Fachbereich Umwelt","street":"Hüttenallee","zip":47800,"city":"Krefeld","district":"Krefeld","tel":"02151/36602478","fax":"","mail":"umwelt@krefeld.de","web":"https://www.krefeld.de/hundekotstationen","lat":51.354125,"lng":6.588413},"geometry":{"type":"Point","coordinates":[6.588413,51.354125]}},{"type":"Feature","properties":{"title":"Hundekotstation Canisiusplatz","description":"Stadt Krefeld, Fachbereich Umwelt","street":"Canisiusstraße","zip":47803,"city":"Krefeld","district":"Krefeld","tel":"02151/36602478","fax":"","mail":"umwelt@krefeld.de","web":"https://www.krefeld.de/hundekotstationen","lat":51.338347,"lng":6.540169},"geometry":{"type":"Point","coordinates":[6.540169,51.338347]}},{"type":"Feature","properties":{"title":"Hundekotstation Uerdinger Straße 702","description":"Stadt Krefeld, Fachbereich Umwelt","street":"Uerdinger Straße","zip":47800,"city":"Krefeld","district":"Krefeld","tel":"02151/36602478","fax":"","mail":"umwelt@krefeld.de","web":"https://www.krefeld.de/hundekotstationen","lat":51.348991,"lng":6.625114},"geometry":{"type":"Point","coordinates":[6.625114,51.348991]}},{"type":"Feature","properties":{"title":"Hundekotstation Am Wallgarten","description":"Stadt Krefeld, Fachbereich Umwelt","street":"Am Wallgarten","zip":47829,"city":"Krefeld","district":"Krefeld","tel":"02151/36602478","fax":"","mail":"umwelt@krefeld.de","web":"https://www.krefeld.de/hundekotstationen","lat":51.351505,"lng":6.649864},"geometry":{"type":"Point","coordinates":[6.649864,51.351505]}},{"type":"Feature","properties":{"title":"Hundekotstation Alter Deutscher Ring - Ost","description":"Stadt Krefeld, Fachbereich Umwelt","street":"Alter Deutscher Ring","zip":47798,"city":"Krefeld","district":"Krefeld","tel":"02151/36602478","fax":"","mail":"umwelt@krefeld.de","web":"https://www.krefeld.de/hundekotstationen","lat":51.32457,"lng":6.564819},"geometry":{"type":"Point","coordinates":[6.564819,51.32457]}},{"type":"Feature","properties":{"title":"Hundekotstation Uerdinger Straße Kirche","description":"Stadt Krefeld, Fachbereich Umwelt","street":"Uerdinger Straße","zip":47800,"city":"Krefeld","district":"Krefeld","tel":"02151/36602478","fax":"","mail":"umwelt@krefeld.de","web":"https://www.krefeld.de/hundekotstationen","lat":51.347971,"lng":6.620451},"geometry":{"type":"Point","coordinates":[6.620451,51.347971]}},{"type":"Feature","properties":{"title":"Hundekotstation St. Huberter Landstraße","description":"Stadt Krefeld, Fachbereich Umwelt","street":"St. Huberter Landstraße","zip":47839,"city":"Krefeld","district":"Krefeld","tel":"02151/36602478","fax":"","mail":"umwelt@krefeld.de","web":"https://www.krefeld.de/hundekotstationen","lat":51.3768,"lng":6.498499},"geometry":{"type":"Point","coordinates":[6.498499,51.3768]}},{"type":"Feature","properties":{"title":"Hundekotstation Alter Deutscher Ring - West","description":"Stadt Krefeld, Fachbereich Umwelt","street":"Alter Deutscher Ring","zip":47798,"city":"Krefeld","district":"Krefeld","tel":"02151/36602478","fax":"","mail":"umwelt@krefeld.de","web":"https://www.krefeld.de/hundekotstationen","lat":51.32399,"lng":6.562009},"geometry":{"type":"Point","coordinates":[6.562009,51.32399]}},{"type":"Feature","properties":{"title":"Hundekotstation Görlitzer Straße","description":"Stadt Krefeld, Fachbereich Umwelt","street":"Görlitzer Straße","zip":47829,"city":"Krefeld","district":"Krefeld","tel":"02151/36602478","fax":"","mail":"umwelt@krefeld.de","web":"https://www.krefeld.de/hundekotstationen","lat":51.363169,"lng":6.626009},"geometry":{"type":"Point","coordinates":[6.626009,51.363169]}},{"type":"Feature","properties":{"title":"Hundekotstation Ostwall/Südwall","description":"Stadt Krefeld, Fachbereich Umwelt","street":"Ostwall","zip":47798,"city":"Krefeld","district":"Krefeld","tel":"02151/36602478","fax":"","mail":"umwelt@krefeld.de","web":"https://www.krefeld.de/hundekotstationen","lat":51.3286,"lng":6.568109},"geometry":{"type":"Point","coordinates":[6.568109,51.3286]}},{"type":"Feature","properties":{"title":"Hundekotstation Ostwall/Dreikönigenstraße","description":"Stadt Krefeld, Fachbereich Umwelt","street":"Ostwall","zip":47798,"city":"Krefeld","district":"Krefeld","tel":"02151/36602478","fax":"","mail":"umwelt@krefeld.de","web":"https://www.krefeld.de/hundekotstationen","lat":51.330521,"lng":6.567124},"geometry":{"type":"Point","coordinates":[6.567124,51.330521]}},{"type":"Feature","properties":{"title":"Hundekotstation Carl-Wilhelm-Straße/Friedrichstraße","description":"Stadt Krefeld, Fachbereich Umwelt","street":"Carl-Wilhelm-Straße","zip":47798,"city":"Krefeld","district":"Krefeld","tel":"02151/36602478","fax":"","mail":"umwelt@krefeld.de","web":"https://www.krefeld.de/hundekotstationen","lat":51.334585,"lng":6.561613},"geometry":{"type":"Point","coordinates":[6.561613,51.334585]}},{"type":"Feature","properties":{"title":"Hundekotstation Stadtgarten/St.-Anton-Straße","description":"Stadt Krefeld, Fachbereich Umwelt","street":"St.-Anton-Straße","zip":47798,"city":"Krefeld","district":"Krefeld","tel":"02151/36602478","fax":"","mail":"umwelt@krefeld.de","web":"https://www.krefeld.de/hundekotstationen","lat":51.332155,"lng":6.552974},"geometry":{"type":"Point","coordinates":[6.552974,51.332155]}},{"type":"Feature","properties":{"title":"Hundekotstation Südwall/Neusser Straße","description":"Stadt Krefeld, Fachbereich Umwelt","street":"Südwall","zip":47798,"city":"Krefeld","district":"Krefeld","tel":"02151/36602478","fax":"","mail":"umwelt@krefeld.de","web":"https://www.krefeld.de/hundekotstationen","lat":51.32774,"lng":6.564879},"geometry":{"type":"Point","coordinates":[6.564879,51.32774]}},{"type":"Feature","properties":{"title":"Hundekotstation Hüttenallee/Kaiserstraße","description":"Stadt Krefeld, Fachbereich Umwelt","street":"Hüttenallee","zip":47800,"city":"Krefeld","district":"Krefeld","tel":"02151/36602478","fax":"","mail":"umwelt@krefeld.de","web":"https://www.krefeld.de/hundekotstationen","lat":51.350621,"lng":6.585044},"geometry":{"type":"Point","coordinates":[6.585044,51.350621]}},{"type":"Feature","properties":{"title":"Hundekotstation Ostwall/Alte Linner Straße","description":"Stadt Krefeld, Fachbereich Umwelt","street":"Ostwall","zip":47798,"city":"Krefeld","district":"Krefeld","tel":"02151/36602478","fax":"","mail":"umwelt@krefeld.de","web":"https://www.krefeld.de/hundekotstationen","lat":51.331911,"lng":6.566512},"geometry":{"type":"Point","coordinates":[6.566512,51.331911]}},{"type":"Feature","properties":{"title":"Hundekotstation Kaiserstraße","description":"Stadt Krefeld, Fachbereich Umwelt","street":"Kaiserstraße","zip":47800,"city":"Krefeld","district":"Krefeld","tel":"02151/36602478","fax":"","mail":"umwelt@krefeld.de","web":"https://www.krefeld.de/hundekotstationen","lat":51.34509,"lng":6.588879},"geometry":{"type":"Point","coordinates":[6.588879,51.34509]}},{"type":"Feature","properties":{"title":"Hundekotstation Stadtgarten/Gartenstraße","description":"Stadt Krefeld, Fachbereich Umwelt","street":"Steinstraße","zip":47798,"city":"Krefeld","district":"Krefeld","tel":"02151/36602478","fax":"","mail":"umwelt@krefeld.de","web":"https://www.krefeld.de/hundekotstationen","lat":51.333804,"lng":6.553784},"geometry":{"type":"Point","coordinates":[6.553784,51.333804]}},{"type":"Feature","properties":{"title":"Hundekotstation Blumenplatz","description":"Stadt Krefeld, Fachbereich Umwelt","street":"Blumenplatz","zip":47798,"city":"Krefeld","district":"Krefeld","tel":"02151/36602478","fax":"","mail":"umwelt@krefeld.de","web":"https://www.krefeld.de/hundekotstationen","lat":51.329444,"lng":6.550573},"geometry":{"type":"Point","coordinates":[6.550573,51.329444]}},{"type":"Feature","properties":{"title":"Hundekotstation Inrather Straße/Maatjatz","description":"Stadt Krefeld, Fachbereich Umwelt","street":"Inrather Straße","zip":47798,"city":"Krefeld","district":"Krefeld","tel":"02151/36602478","fax":"","mail":"umwelt@krefeld.de","web":"https://www.krefeld.de/hundekotstationen","lat":51.341135,"lng":6.558785},"geometry":{"type":"Point","coordinates":[6.558785,51.341135]}},{"type":"Feature","properties":{"title":"Hundekotstation Uerdinger Straße/Am Sonnenhof","description":"Stadt Krefeld, Fachbereich Umwelt","street":"Uerdinger Straße","zip":47800,"city":"Krefeld","district":"Krefeld","tel":"02151/36602478","fax":"","mail":"umwelt@krefeld.de","web":"https://www.krefeld.de/hundekotstationen","lat":51.34302,"lng":6.607329},"geometry":{"type":"Point","coordinates":[6.607329,51.34302]}},{"type":"Feature","properties":{"title":"Hundekotstation Girmesgath/Moritzplatz","description":"Stadt Krefeld, Fachbereich Umwelt","street":"Girmesgath","zip":47803,"city":"Krefeld","district":"Krefeld","tel":"02151/36602478","fax":"","mail":"umwelt@krefeld.de","web":"https://www.krefeld.de/hundekotstationen","lat":51.343581,"lng":6.546963},"geometry":{"type":"Point","coordinates":[6.546963,51.343581]}},{"type":"Feature","properties":{"title":"Hundekotstation Westparkstraße (Zugang Kaiser-Wilhelm-Park)","description":"Stadt Krefeld, Fachbereich Umwelt","street":"Westparkstraße","zip":47803,"city":"Krefeld","district":"Krefeld","tel":"02151/36602478","fax":"","mail":"umwelt@krefeld.de","web":"https://www.krefeld.de/hundekotstationen","lat":51.335592,"lng":6.549991},"geometry":{"type":"Point","coordinates":[6.549991,51.335592]}},{"type":"Feature","properties":{"title":"Hundekotstation Neuer Weg (Zugang Kaiser-Wilhelm-Park)","description":"Stadt Krefeld, Fachbereich Umwelt","street":"Neuer Weg","zip":47803,"city":"Krefeld","district":"Krefeld","tel":"02151/36602478","fax":"","mail":"umwelt@krefeld.de","web":"https://www.krefeld.de/hundekotstationen","lat":51.340767,"lng":6.550758},"geometry":{"type":"Point","coordinates":[6.550758,51.340767]}},{"type":"Feature","properties":{"title":"Hundekotstation Am Schicksbaum (An Zehntheister)","description":"Stadt Krefeld, Fachbereich Umwelt","street":"An Zehntheister","zip":47804,"city":"Krefeld","district":"Krefeld","tel":"02151/36602478","fax":"","mail":"umwelt@krefeld.de","web":"https://www.krefeld.de/hundekotstationen","lat":51.329015,"lng":6.527567},"geometry":{"type":"Point","coordinates":[6.527567,51.329015]}},{"type":"Feature","properties":{"title":"Hundekotstation Am Schicksbaum (in der Grünanlage)","description":"Stadt Krefeld, Fachbereich Umwelt","street":"Am Kempschen Weg","zip":47804,"city":"Krefeld","district":"Krefeld","tel":"02151/36602478","fax":"","mail":"umwelt@krefeld.de","web":"https://www.krefeld.de/hundekotstationen","lat":51.329166,"lng":6.524526},"geometry":{"type":"Point","coordinates":[6.524526,51.329166]}},{"type":"Feature","properties":{"title":"Hundekotstation Frankenring/Roßstraße","description":"Stadt Krefeld, Fachbereich Umwelt","street":"Frankenring","zip":47798,"city":"Krefeld","district":"Krefeld","tel":"02151/36602478","fax":"","mail":"umwelt@krefeld.de","web":"https://www.krefeld.de/hundekotstationen","lat":51.32474,"lng":6.555899},"geometry":{"type":"Point","coordinates":[6.555899,51.32474]}},{"type":"Feature","properties":{"title":"Hundekotstation Bismarckplatz","description":"Stadt Krefeld, Fachbereich Umwelt","street":"Bismarckplatz","zip":47799,"city":"Krefeld","district":"Krefeld","tel":"02151/36602478","fax":"","mail":"umwelt@krefeld.de","web":"https://www.krefeld.de/hundekotstationen","lat":51.339587,"lng":6.576163},"geometry":{"type":"Point","coordinates":[6.576163,51.339587]}},{"type":"Feature","properties":{"title":"Hundekotstation Kaiser-Friedrich-Hain 2","description":"Stadt Krefeld, Fachbereich Umwelt","street":"Philadelphiastraße","zip":47799,"city":"Krefeld","district":"Krefeld","tel":"02151/36602478","fax":"","mail":"umwelt@krefeld.de","web":"https://www.krefeld.de/hundekotstationen","lat":51.33784,"lng":6.569559},"geometry":{"type":"Point","coordinates":[6.569559,51.33784]}},{"type":"Feature","properties":{"title":"Hundekotstation Kaiser-Friedrich-Hain 3","description":"Stadt Krefeld, Fachbereich Umwelt","street":"Steckendorfer Straße","zip":47799,"city":"Krefeld","district":"Krefeld","tel":"02151/36602478","fax":"","mail":"umwelt@krefeld.de","web":"https://www.krefeld.de/hundekotstationen","lat":51.33736,"lng":6.568729},"geometry":{"type":"Point","coordinates":[6.568729,51.33736]}},{"type":"Feature","properties":{"title":"Hundekotstation Oranierring/Hofstraße","description":"Stadt Krefeld, Fachbereich Umwelt","street":"Oranierring","zip":47798,"city":"Krefeld","district":"Krefeld","tel":"02151/36602478","fax":"","mail":"umwelt@krefeld.de","web":"https://www.krefeld.de/hundekotstationen","lat":51.339176,"lng":6.55307},"geometry":{"type":"Point","coordinates":[6.55307,51.339176]}},{"type":"Feature","properties":{"title":"Hundekotstation Frankenring/Am Westbahnhof","description":"Stadt Krefeld, Fachbereich Umwelt","street":"Frankenring","zip":47798,"city":"Krefeld","district":"Krefeld","tel":"02151/36602478","fax":"","mail":"umwelt@krefeld.de","web":"https://www.krefeld.de/hundekotstationen","lat":51.329519,"lng":6.548705},"geometry":{"type":"Point","coordinates":[6.548705,51.329519]}},{"type":"Feature","properties":{"title":"Hundekotstation Frankenring/Hammerschmidtstraße","description":"Stadt Krefeld, Fachbereich Umwelt","street":"Frankenring","zip":47798,"city":"Krefeld","district":"Krefeld","tel":"02151/36602478","fax":"","mail":"umwelt@krefeld.de","web":"https://www.krefeld.de/hundekotstationen","lat":51.327293,"lng":6.551321},"geometry":{"type":"Point","coordinates":[6.551321,51.327293]}},{"type":"Feature","properties":{"title":"Hundekotstation Konrad-Adenauer-Platz/Girmesgath","description":"Stadt Krefeld, Fachbereich Umwelt","street":"Konrad-Adenauer-Platz","zip":47803,"city":"Krefeld","district":"Krefeld","tel":"02151/36602478","fax":"","mail":"umwelt@krefeld.de","web":"https://www.krefeld.de/hundekotstationen","lat":51.339612,"lng":6.543498},"geometry":{"type":"Point","coordinates":[6.543498,51.339612]}},{"type":"Feature","properties":{"title":"Hundekotstation Rosine-Frank-Weg","description":"Stadt Krefeld, Fachbereich Umwelt","street":"Rosine-Frank-Weg","zip":47798,"city":"Krefeld","district":"Krefeld","tel":"02151/36602478","fax":"","mail":"umwelt@krefeld.de","web":"https://www.krefeld.de/hundekotstationen","lat":51.333612,"lng":6.556186},"geometry":{"type":"Point","coordinates":[6.556186,51.333612]}},{"type":"Feature","properties":{"title":"Hundekotstation Südwall/Breite Straße","description":"Stadt Krefeld, Fachbereich Umwelt","street":"Südwall","zip":47798,"city":"Krefeld","district":"Krefeld","tel":"02151/36602478","fax":"","mail":"umwelt@krefeld.de","web":"https://www.krefeld.de/hundekotstationen","lat":51.327436,"lng":6.56271},"geometry":{"type":"Point","coordinates":[6.56271,51.327436]}},{"type":"Feature","properties":{"title":"Hundekotstation Mündelheimer Straße","description":"Stadt Krefeld, Fachbereich Umwelt","street":"Mündelheimer Straße","zip":47829,"city":"Krefeld","district":"Krefeld","tel":"02151/36602478","fax":"","mail":"umwelt@krefeld.de","web":"https://www.krefeld.de/hundekotstationen","lat":51.351624,"lng":6.643353},"geometry":{"type":"Point","coordinates":[6.643353,51.351624]}},{"type":"Feature","properties":{"title":"Hundekotstation Stadtpark Uerdingen/Kastanienstraße","description":"Stadt Krefeld, Fachbereich Umwelt","street":"Parkstraße","zip":47829,"city":"Krefeld","district":"Krefeld","tel":"02151/36602478","fax":"","mail":"umwelt@krefeld.de","web":"https://www.krefeld.de/hundekotstationen","lat":51.361664,"lng":6.639741},"geometry":{"type":"Point","coordinates":[6.639741,51.361664]}},{"type":"Feature","properties":{"title":"Hundekotstation Schulstraße","description":"Stadt Krefeld, Fachbereich Umwelt","street":"Schulstraße","zip":47839,"city":"Krefeld","district":"Krefeld","tel":"02151/36602478","fax":"","mail":"umwelt@krefeld.de","web":"https://www.krefeld.de/hundekotstationen","lat":51.366271,"lng":6.513494},"geometry":{"type":"Point","coordinates":[6.513494,51.366271]}},{"type":"Feature","properties":{"title":"Hundekotstation Vluyner Platz/Wilhelmshofallee","description":"Stadt Krefeld, Fachbereich Umwelt","street":"Vluyner Platz","zip":47799,"city":"Krefeld","district":"Krefeld","tel":"02151/36602478","fax":"","mail":"umwelt@krefeld.de","web":"https://www.krefeld.de/hundekotstationen","lat":51.34529,"lng":6.573919},"geometry":{"type":"Point","coordinates":[6.573919,51.34529]}},{"type":"Feature","properties":{"title":"Hundekotstation Holzapfelweg/Trautstraße","description":"Stadt Krefeld, Fachbereich Umwelt","street":"Holzapfelweg","zip":47802,"city":"Krefeld","district":"Krefeld","tel":"02151/36602478","fax":"","mail":"umwelt@krefeld.de","web":"https://www.krefeld.de/hundekotstationen","lat":51.3784,"lng":6.597499},"geometry":{"type":"Point","coordinates":[6.597499,51.3784]}},{"type":"Feature","properties":{"title":"Hundekotstation Zur Eibe","description":"Stadt Krefeld, Fachbereich Umwelt","street":"Zur Eibe","zip":47802,"city":"Krefeld","district":"Krefeld","tel":"02151/36602478","fax":"","mail":"umwelt@krefeld.de","web":"https://www.krefeld.de/hundekotstationen","lat":51.369461,"lng":6.610739},"geometry":{"type":"Point","coordinates":[6.610739,51.369461]}},{"type":"Feature","properties":{"title":"Hundekotstation Uerdinger Straße 500","description":"Stadt Krefeld, Fachbereich Umwelt","street":"Uerdinger Straße","zip":47800,"city":"Krefeld","district":"Krefeld","tel":"02151/36602478","fax":"","mail":"umwelt@krefeld.de","web":"https://www.krefeld.de/hundekotstationen","lat":51.344124,"lng":6.610931},"geometry":{"type":"Point","coordinates":[6.610931,51.344124]}}]}