{"type":"FeatureCollection","features":[{"type":"Feature","properties":{"title":"Freiwillige Feuerwehr Löschgruppe Gellep-Stratum","description":"Freiwillige Feuerwehr Krefeld","street":"Legionstraße 4","zip":47809,"city":"Krefeld","district":"Krefeld","tel":"02151/573342","fax":"02151/573342","mail":"info@ff-gellep-stratum.de","web":"http://www.ff-gellep-stratum.de/","lat":51.329081,"lng":6.671495},"geometry":{"type":"Point","coordinates":[6.671495,51.329081]}},{"type":"Feature","properties":{"title":"Freiwillige Feuerwehr Löschzug Uerdingen","description":"Freiwillige Feuerwehr Krefeld","street":"Hafenstraße 50","zip":47809,"city":"Krefeld","district":"Krefeld","tel":"02151/573972","fax":"02151/61282259","mail":"info@feuerwehr-uerdingen.de","web":"http://feuerwehr-uerdingen.de/","lat":51.338542,"lng":6.652525},"geometry":{"type":"Point","coordinates":[6.652525,51.338542]}},{"type":"Feature","properties":{"title":"Freiwillige Feuerwehr Löschgruppe Oppum","description":"Freiwillige Feuerwehr Krefeld","street":"Heinrich-Malina-Straße 4","zip":47809,"city":"Krefeld","district":"Krefeld","tel":"02151/547941","fax":"","mail":"info@ffoppum.de","web":"http://www.ffoppum.de/","lat":51.32817,"lng":6.615583},"geometry":{"type":"Point","coordinates":[6.615583,51.32817]}},{"type":"Feature","properties":{"title":"Freiwillige Feuerwehr Löschzug Fischeln","description":"Freiwillige Feuerwehr Krefeld","street":"Kölner Straße 618","zip":47807,"city":"Krefeld","district":"Krefeld","tel":"02151/305951","fax":"02151/305951","mail":"zugfuehrung@fffischeln.de","web":"http://www.fffischeln.de/","lat":51.301996,"lng":6.591691},"geometry":{"type":"Point","coordinates":[6.591691,51.301996]}},{"type":"Feature","properties":{"title":"Feuerwache 1","description":"Fachbereich Feuerwehr und Zivilschutz: Brandbekämpfung, medizinische Notfälle, Krankentransport, sonstige Schadenereignisse, technische Hilfeleistungen","street":"Zur Feuerwache 4","zip":47805,"city":"Krefeld","district":"Krefeld","tel":"02151/82130","fax":"02151/8213209","mail":"feuerwehr@krefeld.de","web":"http://www.krefeld.de/feuerwehr","lat":51.328726,"lng":6.582798},"geometry":{"type":"Point","coordinates":[6.582798,51.328726]}},{"type":"Feature","properties":{"title":"Freiwillige Feuerwehr Löschgruppe Traar","description":"Freiwillige Feuerwehr Krefeld","street":"Moerser Landstraße 399","zip":47802,"city":"Krefeld","district":"Krefeld","tel":"02151/563994","fax":"","mail":"info@ff-traar.de","web":"http://www.freiwillige-feuerwehr-traar.de/","lat":51.380561,"lng":6.597748},"geometry":{"type":"Point","coordinates":[6.597748,51.380561]}},{"type":"Feature","properties":{"title":"Feuerwache 2","description":"Fachbereich Feuerwehr und Zivilschutz","street":"Hafenstraße 50","zip":47809,"city":"Krefeld","district":"Krefeld","tel":"02151/82130","fax":"02151/8213209","mail":"feuerwehr@krefeld.de","web":"https://www.krefeld.de/feuerwehr","lat":51.338768,"lng":6.652844},"geometry":{"type":"Point","coordinates":[6.652844,51.338768]}},{"type":"Feature","properties":{"title":"Freiwillige Feuerwehr Löschzug Hüls","description":"Freiwillige Feuerwehr Krefeld","street":"Den Ham 20","zip":47839,"city":"Krefeld","district":"Krefeld","tel":"02151/736180","fax":"","mail":"info@ff-huels.info","web":"http://www.ff-huels.info/","lat":51.36886,"lng":6.498434},"geometry":{"type":"Point","coordinates":[6.498434,51.36886]}}]}