{"type":"FeatureCollection","features":[{"type":"Feature","properties":{"title":"Bayer-Sporthalle (Dreifachsporthalle 2)","description":"Dreifachsporthalle (Nord), SC Bayer 05 Uerdingen e.V.","street":"Löschenhofweg 70","zip":47829,"city":"Krefeld","district":"Krefeld","tel":"02151/4446333","fax":"02151/44463311","mail":"servicepoint@scbayer05.de","web":"http://www.scbayer05.de/unser-sportpark/","lat":51.36424,"lng":6.630631},"geometry":{"type":"Point","coordinates":[6.630631,51.36424]}},{"type":"Feature","properties":{"title":"Turnhalle Herrenweg","description":"Turnhalle an der Grundschule an der Burg, Fachbereich Sport und Bäder","street":"Herrenweg","zip":47839,"city":"Krefeld","district":"Krefeld","tel":"02151/730525","fax":"","mail":"sportundbaeder@krefeld.de","web":"https://www.krefeld.de/de/sport/uebersicht-sporthallen/","lat":51.37478,"lng":6.510707},"geometry":{"type":"Point","coordinates":[6.510707,51.37478]}},{"type":"Feature","properties":{"title":"Glockenspitzhalle","description":"Dreifachsporthalle am Berufskolleg Glockenspitz, Fachbereich Sport und Bäder","street":"Glockenspitz 350","zip":47809,"city":"Krefeld","district":"Krefeld","tel":"02151/540037","fax":"","mail":"sportundbaeder@krefeld.de","web":"https://www.krefeld.de/de/sport/sporthallen/","lat":51.339272,"lng":6.61325},"geometry":{"type":"Point","coordinates":[6.61325,51.339272]}},{"type":"Feature","properties":{"title":"Sporthalle Horkesgath (Dreifachsporthalle)","description":"Dreifachsporthalle im Schulzentrum Horkesgath, Fachbereich Sport und Bäder","street":"Horkesgath 33","zip":47803,"city":"Krefeld","district":"Krefeld","tel":"02151/878885150","fax":"","mail":"sportundbaeder@krefeld.de","web":"https://www.krefeld.de/de/sport/uebersicht-sporthallen/","lat":51.335947,"lng":6.530008},"geometry":{"type":"Point","coordinates":[6.530008,51.335947]}},{"type":"Feature","properties":{"title":"Sporthalle Kurt Tucholsky","description":"Dreifachsporthalle an der Kurt-Tucholsky-Gesamtschule, Fachbereich Sport und Bäder","street":"Alte Gladbacher Straße 10","zip":47805,"city":"Krefeld","district":"Krefeld","tel":"02151/83750","fax":"","mail":"sportundbaeder@krefeld.de","web":"https://www.krefeld.de/de/sport/uebersicht-sporthallen/","lat":51.320909,"lng":6.555087},"geometry":{"type":"Point","coordinates":[6.555087,51.320909]}},{"type":"Feature","properties":{"title":"Turnhalle Breslauer Straße","description":"Turnhalle an der Gartenstadtschule","street":"Breslauer Straße 275","zip":47829,"city":"Krefeld","district":"Krefeld","tel":"02151/43823","fax":"","mail":"sportundbaeder@krefeld.de","web":"http://www.krefeld.de/sport-und-baeder","lat":51.366543,"lng":6.616752},"geometry":{"type":"Point","coordinates":[6.616752,51.366543]}},{"type":"Feature","properties":{"title":"Sporthalle Wimmersweg","description":"Zweifachsporthalle an der Grundschule Wimmersweg","street":"Wimmersweg 21","zip":47807,"city":"Krefeld","district":"Krefeld","tel":"02151/300623","fax":"","mail":"sportundbaeder@krefeld.de","web":"http://www.krefeld.de/sport-und-baeder","lat":51.30371,"lng":6.581707},"geometry":{"type":"Point","coordinates":[6.581707,51.30371]}},{"type":"Feature","properties":{"title":"Sporthalle Neukirchener Straße","description":"Zweifachsporthalle an der Schule an Haus Rath","street":"Neukirchener Straße 3","zip":47829,"city":"Krefeld","district":"Krefeld","tel":"02151/472501","fax":"","mail":"sportundbaeder@krefeld.de","web":"http://www.krefeld.de/sport-und-baeder","lat":51.369904,"lng":6.616542},"geometry":{"type":"Point","coordinates":[6.616542,51.369904]}},{"type":"Feature","properties":{"title":"Sporthalle Reepenweg","description":"Dreifachsporthalle an der Robert-Jungk-Gesamtschule, Fachbereich Sport und Bäder","street":"Reepenweg 40","zip":47839,"city":"Krefeld","district":"Krefeld","tel":"02151/736021","fax":"","mail":"sportundbaeder@krefeld.de","web":"https://www.krefeld.de/de/sport/uebersicht-sporthallen/","lat":51.37022,"lng":6.495113},"geometry":{"type":"Point","coordinates":[6.495113,51.37022]}},{"type":"Feature","properties":{"title":"Turnhalle Neuer Weg","description":"Turnhalle am Berufskolleg Kaufmannsschule, Fachbereich Sport und Bäder","street":"Neuer Weg 121","zip":47803,"city":"Krefeld","district":"Krefeld","tel":"02151/76580","fax":"","mail":"sportundbaeder@krefeld.de","web":"https://www.krefeld.de/de/sport/uebersicht-sporthallen/","lat":51.337899,"lng":6.544574},"geometry":{"type":"Point","coordinates":[6.544574,51.337899]}},{"type":"Feature","properties":{"title":"Gymnastikhalle Alte Flur","description":"","street":"Alte Flur 19","zip":47809,"city":"Krefeld","district":"Krefeld","tel":"02151/541545","fax":"","mail":"","web":"http://www.krefeld.de/sport-und-baeder","lat":51.325036,"lng":6.599739},"geometry":{"type":"Point","coordinates":[6.599739,51.325036]}},{"type":"Feature","properties":{"title":"Turnhalle Steinstraße","description":"Fachbereich Sport und Bäder","street":"Hubertusstraße 82","zip":47798,"city":"Krefeld","district":"Krefeld","tel":"02151/786729","fax":"","mail":"sportundbaeder@krefeld.de","web":"https://www.krefeld.de/de/sport/uebersicht-sporthallen/","lat":51.331381,"lng":6.555805},"geometry":{"type":"Point","coordinates":[6.555805,51.331381]}},{"type":"Feature","properties":{"title":"Sportstätte Heinrichsstift","description":"","street":"Klever Straße 6","zip":47839,"city":"Krefeld","district":"Krefeld","tel":"","fax":"","mail":"","web":"","lat":51.375079,"lng":6.510227},"geometry":{"type":"Point","coordinates":[6.510227,51.375079]}},{"type":"Feature","properties":{"title":"Sporthalle Scharfstraße","description":"Zweifachsporthalle an der Kurt-Tucholsky-Gesamtschule, Fachbereich Sport und Bäder","street":"Scharfstraße 14","zip":47805,"city":"Krefeld","district":"Krefeld","tel":"02151/399070","fax":"","mail":"sportundbaeder@krefeld.de","web":"https://www.krefeld.de/de/sport/uebersicht-sporthallen/","lat":51.322181,"lng":6.557042},"geometry":{"type":"Point","coordinates":[6.557042,51.322181]}},{"type":"Feature","properties":{"title":"Turnhalle Wilhelmstraße","description":"","street":"Wilhelmstraße 9","zip":47807,"city":"Krefeld","district":"Krefeld","tel":"02151/300109","fax":"","mail":"","web":"http://www.sport-und-baeder.de","lat":51.308676,"lng":6.584714},"geometry":{"type":"Point","coordinates":[6.584714,51.308676]}},{"type":"Feature","properties":{"title":"Sporthalle Gerberstraße","description":"","street":"Gerberstraße 41","zip":47798,"city":"Krefeld","district":"Krefeld","tel":"02151/396101","fax":"","mail":"","web":"","lat":51.326204,"lng":6.564268},"geometry":{"type":"Point","coordinates":[6.564268,51.326204]}},{"type":"Feature","properties":{"title":"Turnhalle Fabritiusstraße","description":"Turnhalle am Gymnasium Fabritianum","street":"Fabritiusstraße 15a","zip":47829,"city":"Krefeld","district":"Krefeld","tel":"02151/579949-0","fax":"","mail":"sportundbaeder@krefeld.de","web":"http://www.krefeld.de/sport-und-baeder","lat":51.349733,"lng":6.641991},"geometry":{"type":"Point","coordinates":[6.641991,51.349733]}},{"type":"Feature","properties":{"title":"Arndt-Halle (Sporthalle Dionysiusstraße)","description":"Zweifachsporthalle am Arndt-Gymnasium, Fachbereich Sport und Bäder","street":"Dionysiusstraße 51","zip":47798,"city":"Krefeld","district":"Krefeld","tel":"02151/772803","fax":"","mail":"sportundbaeder@krefeld.de","web":"https://www.krefeld.de/de/sport/uebersicht-sporthallen/","lat":51.332279,"lng":6.555474},"geometry":{"type":"Point","coordinates":[6.555474,51.332279]}},{"type":"Feature","properties":{"title":"Sporthalle Bonhoefferstraße","description":"Zweifachsporthalle an der Astrid-Lindgren-Schule, Fachbereich Sport und Bäder","street":"Bonhoefferstraße 16","zip":47839,"city":"Krefeld","district":"Krefeld","tel":"02151/730984","fax":"","mail":"sportundbaeder@krefeld.de","web":"https://www.krefeld.de/de/sport/uebersicht-sporthallen/","lat":51.371126,"lng":6.508373},"geometry":{"type":"Point","coordinates":[6.508373,51.371126]}},{"type":"Feature","properties":{"title":"Sporthalle Eichendorffstraße","description":"Zweifachsporthalle an der Grotenburgschule, Fachbereich Sport und Bäder","street":"Eichendorffstraße 21","zip":47800,"city":"Krefeld","district":"Krefeld","tel":"02151/591365","fax":"","mail":"sportundbaeder@krefeld.de","web":"https://www.krefeld.de/de/sport/uebersicht-sporthallen/","lat":51.339392,"lng":6.599843},"geometry":{"type":"Point","coordinates":[6.599843,51.339392]}},{"type":"Feature","properties":{"title":"Josef-Koerver-Halle","description":"Dreifachsporthalle, Fachbereich Sport und Bäder","street":"Blumentalstraße 10","zip":47798,"city":"Krefeld","district":"Krefeld","tel":"02151/800028","fax":"","mail":"sportundbaeder@krefeld.de","web":"https://www.krefeld.de/de/sport/uebersicht-sporthallen/","lat":51.340323,"lng":6.565756},"geometry":{"type":"Point","coordinates":[6.565756,51.340323]}},{"type":"Feature","properties":{"title":"Turnhalle Felbelstraße","description":"Turnhalle an der Mosaikschule, Fachbereich Sport und Bäder","street":"Felbelstraße 24","zip":47799,"city":"Krefeld","district":"Krefeld","tel":"02151/69309","fax":"","mail":"sportundbaeder@krefeld.de","web":"https://www.krefeld.de/de/sport/uebersicht-sporthallen/","lat":51.335642,"lng":6.567845},"geometry":{"type":"Point","coordinates":[6.567845,51.335642]}},{"type":"Feature","properties":{"title":"Sporthalle Bellenweg","description":"Zweifachsporthalle an der Forstwaldschule, Fachbereich Sport und Bäder","street":"Bellenweg 50","zip":47804,"city":"Krefeld","district":"Krefeld","tel":"02151/312603","fax":"","mail":"sportundbaeder@krefeld.de","web":"https://www.krefeld.de/de/sport/uebersicht-sporthallen/","lat":51.301767,"lng":6.505991},"geometry":{"type":"Point","coordinates":[6.505991,51.301767]}},{"type":"Feature","properties":{"title":"Turnhalle Hofstraße","description":"Turnhalle an der Mosaikschule, Fachbereich Sport und Bäder","street":"Hofstraße 55","zip":47798,"city":"Krefeld","district":"Krefeld","tel":"02151/26167","fax":"","mail":"sportundbaeder@krefeld.de","web":"https://www.krefeld.de/de/sport/uebersicht-sporthallen/","lat":51.339167,"lng":6.553414},"geometry":{"type":"Point","coordinates":[6.553414,51.339167]}},{"type":"Feature","properties":{"title":"Sporthalle Königshof","description":"Dreifachsporthalle am Maria-Sibylla-Merian-Gymnasium, Fachbereich Sport und Bäder","street":"Johannes-Blum-Straße 101","zip":47807,"city":"Krefeld","district":"Krefeld","tel":"02151/37660","fax":"","mail":"sportundbaeder@krefeld.de","web":"https://www.krefeld.de/de/sport/uebersicht-sporthallen/","lat":51.3128,"lng":6.586549},"geometry":{"type":"Point","coordinates":[6.586549,51.3128]}},{"type":"Feature","properties":{"title":"Sporthalle Kohlplatzweg","description":"Zweifachsporthalle an der Johansenschule, Fachbereich Sport und Bäder","street":"Kohlplatzweg 25","zip":47809,"city":"Krefeld","district":"Krefeld","tel":"02151/571288","fax":"","mail":"sportundbaeder@krefeld.de","web":"https://www.krefeld.de/de/sport/uebersicht-sporthallen/","lat":51.338368,"lng":6.647787},"geometry":{"type":"Point","coordinates":[6.647787,51.338368]}},{"type":"Feature","properties":{"title":"Sporthalle Schmiedestraße","description":"Zweifachsporthalle an der Realschule Oppum","street":"Schmiedestraße 90","zip":47809,"city":"Krefeld","district":"Krefeld","tel":"02151/55370","fax":"","mail":"sportundbaeder@krefeld.de","web":"http://www.krefeld.de/sport-und-baeder","lat":51.330659,"lng":6.603565},"geometry":{"type":"Point","coordinates":[6.603565,51.330659]}},{"type":"Feature","properties":{"title":"Turnhalle Buscher Holzweg","description":"Turnhalle in der Bezirkssportanlage Traar","street":"Buscher Holzweg 50","zip":47802,"city":"Krefeld","district":"Krefeld","tel":"02151/562830","fax":"","mail":"sportundbaeder@krefeld.de","web":"http://www.krefeld.de/sport-und-baeder","lat":51.375126,"lng":6.59213},"geometry":{"type":"Point","coordinates":[6.59213,51.375126]}},{"type":"Feature","properties":{"title":"Uerdinger Halle","description":"Dreifachsporthalle am Berufskolleg Uerdingen, Fachbereich Sport und Bäder","street":"Alte Krefelder Straße 93","zip":47829,"city":"Krefeld","district":"Krefeld","tel":"02151/498480","fax":"","mail":"sportundbaeder@krefeld.de","web":"https://www.krefeld.de/de/sport/sporthallen/","lat":51.350071,"lng":6.63435},"geometry":{"type":"Point","coordinates":[6.63435,51.350071]}},{"type":"Feature","properties":{"title":"Turnhalle Am Konnertzfeld","description":"Turnhalle am Berufskolleg Kaufmannsschule","street":"Am Konnertzfeld 19","zip":47804,"city":"Krefeld","district":"Krefeld","tel":"02151/729930","fax":"","mail":"sportundbaeder@krefeld.de","web":"http://www.krefeld.de/sport-und-baeder","lat":51.31947,"lng":6.53202},"geometry":{"type":"Point","coordinates":[6.53202,51.31947]}},{"type":"Feature","properties":{"title":"Turnhalle Campus Fichtenhain","description":"","street":"Campus Fichtenhain 15","zip":47807,"city":"Krefeld","district":"Krefeld","tel":"02151/532398","fax":"","mail":"sportundbaeder@krefeld.de","web":"http://www.krefeld.de/sport-und-baeder","lat":51.290639,"lng":6.562188},"geometry":{"type":"Point","coordinates":[6.562188,51.290639]}},{"type":"Feature","properties":{"title":"Turnhalle Danziger Platz","description":"","street":"Danziger Platz 1","zip":47809,"city":"Krefeld","district":"Krefeld","tel":"","fax":"","mail":"sportundbaeder@krefeld.de","web":"http://www.krefeld.de/sport-und-baeder","lat":51.335258,"lng":6.643612},"geometry":{"type":"Point","coordinates":[6.643612,51.335258]}},{"type":"Feature","properties":{"title":"Sporthalle Kaiserplatz","description":"Zweifachturnhalle an der Gesamtschule Kaiserplatz, Fachbereich Sport und Bäder","street":"Kaiserplatz 31","zip":47800,"city":"Krefeld","district":"Krefeld","tel":"02151/53990","fax":"","mail":"sportundbaeder@krefeld.de","web":"https://www.krefeld.de/de/sport/uebersicht-sporthallen/","lat":51.344566,"lng":6.590369},"geometry":{"type":"Point","coordinates":[6.590369,51.344566]}},{"type":"Feature","properties":{"title":"Sporthalle Girmesgath","description":"Zweifachturnhalle am Berufskolleg Vera Beckers, Fachbereich Sport und Bäder","street":"Girmesgath 131","zip":47803,"city":"Krefeld","district":"Krefeld","tel":"02151/875907","fax":"","mail":"sportundbaeder@krefeld.de","web":"https://www.krefeld.de/de/sport/uebersicht-sporthallen/","lat":51.341165,"lng":6.542542},"geometry":{"type":"Point","coordinates":[6.542542,51.341165]}},{"type":"Feature","properties":{"title":"Sporthalle Lübecker Weg","description":"Zweifachsporthalle an der Gesamtschule Uerdingen, Fachbereich Sport und Bäder","street":"Lübecker Weg 56","zip":47829,"city":"Krefeld","district":"Krefeld","tel":"02151/474236","fax":"","mail":"sportundbaeder@krefeld.de","web":"https://www.krefeld.de/de/sport/uebersicht-sporthallen/","lat":51.356076,"lng":6.634372},"geometry":{"type":"Point","coordinates":[6.634372,51.356076]}},{"type":"Feature","properties":{"title":"Sporthalle Horkesgath (Zweifachsporthalle)","description":"Zweifachsporthalle im Schulzentrum Horkesgath, Fachbereich Sport und Bäder","street":"Horkesgath 33","zip":47803,"city":"Krefeld","district":"Krefeld","tel":"02151/875996","fax":"","mail":"sportundbaeder@krefeld.de","web":"https://www.krefeld.de/de/sport/uebersicht-sporthallen/","lat":51.336373,"lng":6.530417},"geometry":{"type":"Point","coordinates":[6.530417,51.336373]}},{"type":"Feature","properties":{"title":"Sporthalle Luiter Weg","description":"Zweifachsporthalle an der LVR-Gerd-Jansen-Schule, Fachbereich Sport und Bäder","street":"Luiter Weg 8","zip":47802,"city":"Krefeld","district":"Krefeld","tel":"02151/96510","fax":"","mail":"sportundbaeder@krefeld.de","web":"https://www.krefeld.de/de/sport/uebersicht-sporthallen/","lat":51.371656,"lng":6.57286},"geometry":{"type":"Point","coordinates":[6.57286,51.371656]}},{"type":"Feature","properties":{"title":"Sporthalle Vulkanstraße","description":"Zweifachsporthalle an der Stahldorfschule","street":"Vulkanstraße 264","zip":47807,"city":"Krefeld","district":"Krefeld","tel":"02151/311661","fax":"","mail":"sportundbaeder@krefeld.de","web":"http://www.krefeld.de/sport-und-baeder","lat":51.307454,"lng":6.557488},"geometry":{"type":"Point","coordinates":[6.557488,51.307454]}},{"type":"Feature","properties":{"title":"Fußballhalle TorFabrik Krefeld","description":"","street":"Im Witschen 30","zip":47807,"city":"Krefeld","district":"Krefeld","tel":"02151/1504410","fax":"02151/1504411","mail":"info@torfabrik-krefeld.de","web":"http://www.torfabrik-krefeld.de","lat":51.320052,"lng":6.592585},"geometry":{"type":"Point","coordinates":[6.592585,51.320052]}},{"type":"Feature","properties":{"title":"Bayer-Sporthalle (Dreifachsporthalle 1)","description":"Dreifachsporthalle (Süd), SC Bayer 05 Uerdingen e.V.","street":"Löschenhofweg 70","zip":47829,"city":"Krefeld","district":"Krefeld","tel":"02151/4446333","fax":"02151/44463311","mail":"servicepoint@scbayer05.de","web":"http://www.scbayer05.de/unser-sportpark/","lat":51.363638,"lng":6.630813},"geometry":{"type":"Point","coordinates":[6.630813,51.363638]}},{"type":"Feature","properties":{"title":"Leichtathletikhalle Bayer 05 Uerdingen","description":"Leichtathletikhalle, SC Bayer 05 Uerdingen e.V.","street":"Löschenhofweg 30","zip":47829,"city":"Krefeld","district":"Krefeld","tel":"02151/4446333","fax":"02151/44463311","mail":"servicepoint@scbayer05.de","web":"http://www.scbayer05.de/unser-sportpark/","lat":51.361441,"lng":6.632135},"geometry":{"type":"Point","coordinates":[6.632135,51.361441]}}]}