{"type":"FeatureCollection","features":[{"type":"Feature","properties":{"title":"Tagesklinik und Ambulanz der LVR-Klinik Viersen","description":"Kinder- und Jugendpsychiatrie","street":"Vom-Bruck-Platz 8","zip":47805,"city":"Krefeld","district":"Krefeld","tel":"02151/365390","fax":"02151/3653919","mail":"monika.tegethoff@lvr.de","web":"http://www.klinik-viersen.lvr.de/de/nav_main/fachgebiete___behandlungsangebote/kinder__und_jugendpsychiatrie/kinder__und_jugendpsychiatrie_1.html","lat":51.317968,"lng":6.569306},"geometry":{"type":"Point","coordinates":[6.569306,51.317968]}},{"type":"Feature","properties":{"title":"HELIOS Klinik Hüls","description":"Grund- und Regelversorgung, Akutgeriartrie und Frührehabilitation","street":"Fette Henn 50","zip":47839,"city":"Krefeld","district":"Krefeld","tel":"02151/7391","fax":"02151/739250","mail":"info.huels@helios-kliniken.de","web":"http://www.helios-kliniken.de/klinik/huels.html","lat":51.376318,"lng":6.514987},"geometry":{"type":"Point","coordinates":[6.514987,51.376318]}},{"type":"Feature","properties":{"title":"Klinik Königshof (St. Augustinus-Kliniken)","description":"Psychiatrie, Neurologie und Psychotherapie","street":"Am Dreifaltigkeitskloster 16","zip":47807,"city":"Krefeld","district":"Krefeld","tel":"02151/8233-00","fax":"02151/8233-9991","mail":"info@klinik-koenigshof-krefeld.de","web":"http://www.klinik-koenigshof-krefeld.de/","lat":51.313514,"lng":6.574941},"geometry":{"type":"Point","coordinates":[6.574941,51.313514]}},{"type":"Feature","properties":{"title":"HELIOS Klinikum Krefeld","description":"Maximalversorgung","street":"Lutherplatz 40","zip":47805,"city":"Krefeld","district":"Krefeld","tel":"02151/320","fax":"02151/322040","mail":"info.krefeld@helios-kliniken.de","web":"http://www.helios-kliniken.de/klinik/krefeld/","lat":51.319873,"lng":6.566625},"geometry":{"type":"Point","coordinates":[6.566625,51.319873]}},{"type":"Feature","properties":{"title":"Alexianer Krefeld GmbH","description":"Somatische und Psychiatrisch-Psychotherapeutische Kliniken, Notaufnahme, Rehabilitation","street":"Dießemer Bruch 81","zip":47805,"city":"Krefeld","district":"Krefeld","tel":"02151/3340","fax":"02151/3343680","mail":"info@alexianer-krefeld.de","web":"http://www.alexianer-krefeld.de/","lat":51.325604,"lng":6.584332},"geometry":{"type":"Point","coordinates":[6.584332,51.325604]}},{"type":"Feature","properties":{"title":"Malteser Krankenhaus St. Josefshospital","description":"Breitenversorgung, Kardiologie, Gesichtschirurgie, Urologie, Sportmedizin, Diabetologie und Gastroenterologie","street":"Kurfürstenstraße 69","zip":47829,"city":"Krefeld","district":"Krefeld","tel":"02151/4520","fax":"02151/452352","mail":"krankenhaus.uerdingen@malteser.org","web":"http://www.malteser-stjosef.de/","lat":51.352412,"lng":6.648084},"geometry":{"type":"Point","coordinates":[6.648084,51.352412]}},{"type":"Feature","properties":{"title":"Manus Klinik GbR","description":"Chirurgie","street":"Ostwall 217","zip":47798,"city":"Krefeld","district":"Krefeld","tel":"02151/569880","fax":"02151/5698828","mail":"info@manus-klinik.de","web":"http://www.manus-klinik.de/","lat":51.336334,"lng":6.56489},"geometry":{"type":"Point","coordinates":[6.56489,51.336334]}}]}