{"type":"FeatureCollection","features":[{"type":"Feature","properties":{"title":"Rheinlandhalle","description":"","street":"Westparkstraße 126  ,128","zip":47803,"city":"Krefeld","district":"Krefeld","tel":"02151/878880","fax":"02151/87888113","mail":"","web":"http://www.krefeld.de/sport-und-baeder","lat":51.339797,"lng":6.540378},"geometry":{"type":"Point","coordinates":[6.540378,51.339797]}},{"type":"Feature","properties":{"title":"KönigPALAST","description":"Seidenweberhaus GmbH, Veranstaltungs- und Eissporthalle","street":"Westparkstraße 111","zip":47803,"city":"Krefeld","district":"Krefeld","tel":"02151/78100","fax":"02151/7810222","mail":"info@koenigpalast.de","web":"http://www.koenigpalast.de/","lat":51.34085,"lng":6.540525},"geometry":{"type":"Point","coordinates":[6.540525,51.34085]}},{"type":"Feature","properties":{"title":"Werner-Rittberger-Halle","description":"","street":"Westparkstraße 120","zip":47803,"city":"Krefeld","district":"Krefeld","tel":"02151/878880","fax":"02151/87888113","mail":"","web":"http://www.krefeld.de/sport-und-baeder","lat":51.33956,"lng":6.541469},"geometry":{"type":"Point","coordinates":[6.541469,51.33956]}}]}