{"type":"FeatureCollection","features":[{"type":"Feature","properties":{"title":"Mediothek - Zweigstelle Uerdingen","description":"","street":"Am Marktplatz 5","zip":47829,"city":"Krefeld","district":"Krefeld","tel":"02151/86-2798","fax":"02151/862720","mail":"mediothek@krefeld.de","web":"http://www.mediothek-krefeld.de","lat":51.354171,"lng":6.649356},"geometry":{"type":"Point","coordinates":[6.649356,51.354171]}},{"type":"Feature","properties":{"title":"Katholische öffentliche Bücherei St. Clemens","description":"","street":"Clemensplatz 1","zip":47807,"city":"Krefeld","district":"Krefeld","tel":"02151/302344","fax":"02151/302344","mail":"buecherei@clemenspfarre.de","web":"http://www.fischelner-clemenspfarre.de","lat":51.302856,"lng":6.586346},"geometry":{"type":"Point","coordinates":[6.586346,51.302856]}},{"type":"Feature","properties":{"title":"Katholische öffentliche Bücherei St. Cyriakus","description":"","street":"Rektoratsstraße 7","zip":47839,"city":"Krefeld","district":"Krefeld","tel":"02151/3600096","fax":"","mail":"familiegommans@gmx.de","web":"http://www.st-cyriakus-huels.de","lat":51.373349,"lng":6.511125},"geometry":{"type":"Point","coordinates":[6.511125,51.373349]}},{"type":"Feature","properties":{"title":"Mediothek","description":"","street":"Theaterplatz 2","zip":47798,"city":"Krefeld","district":"Krefeld","tel":"02151/86-2753","fax":"02151/86-2770","mail":"mediothek@krefeld.de","web":"http://www.krefeld.de/mediothek","lat":51.334958,"lng":6.562989},"geometry":{"type":"Point","coordinates":[6.562989,51.334958]}}]}