{"type":"FeatureCollection","features":[{"type":"Feature","properties":{"title":"Deutsches Textilmuseum","description":"Museum der Stadt Krefeld; Wechselausstellungen historischer Textilien und Bekleidung; während der Ausstellungen dienstags bis sonntags April bis Oktober 10:00 - 18:00, November bis März 11:00 - 17:00","street":"Andreasmarkt 8","zip":47809,"city":"Krefeld","district":"Krefeld","tel":"02151/9469450","fax":"02151/9469455","mail":"textilmuseum@krefeld.de","web":"http://www.krefeld.de/textilmuseum","lat":51.333757,"lng":6.637175},"geometry":{"type":"Point","coordinates":[6.637175,51.333757]}},{"type":"Feature","properties":{"title":"Kaiser Wilhelm Museum","description":"Kunstmuseen der Stadt Krefeld; dienstags bis sonntags 11:00 - 17:00 Uhr","street":"Joseph-Beuys-Platz 1","zip":47798,"city":"Krefeld","district":"Krefeld","tel":"02151/975580","fax":"02151/97558222","mail":"kunstmuseen@krefeld.de","web":"http://www.kunstmuseenkrefeld.de/","lat":51.330269,"lng":6.559379},"geometry":{"type":"Point","coordinates":[6.559379,51.330269]}},{"type":"Feature","properties":{"title":"Museum Burg Linn","description":"Museum der Stadt Krefeld; Ausstellungen zur Geschichte und Archäologie Krefelds und des Niederrheins; dienstags bis sonntags April bis Oktober 10:00 - 18:00, November bis März 11:00 - 17:00","street":"Rheinbabenstraße 85","zip":47809,"city":"Krefeld","district":"Krefeld","tel":"02151/155390","fax":"02151/15539150","mail":"burglinn@krefeld.de","web":"https://www.krefeld.de/burglinn","lat":51.334607,"lng":6.63596},"geometry":{"type":"Point","coordinates":[6.63596,51.334607]}},{"type":"Feature","properties":{"title":"Weinbrennerei Dujardin","description":"Grundstücksgesellschaft Hohenbudberger Straße bR; Führungen zur Weinbrandherstellung nach Voranmeldung","street":"Hohenbudberger Straße 10","zip":47829,"city":"Krefeld","district":"Krefeld","tel":"02151/483239","fax":"","mail":"info@weinbrennerei-dujardin.de","web":"http://www.weinbrennerei-dujardin.de/g_rundgang.html","lat":51.358543,"lng":6.650149},"geometry":{"type":"Point","coordinates":[6.650149,51.358543]}},{"type":"Feature","properties":{"title":"Museum Haus Esters","description":"Kunstmuseen der Stadt Krefeld, geöffnet während der Wechselaustellungen dienstags bis sonntags 11:00 - 17:00 Uhr","street":"Wilhelmshofallee 97","zip":47800,"city":"Krefeld","district":"Krefeld","tel":"02151/975580","fax":"02151/97558222","mail":"kunstmuseen@krefeld.de","web":"http://www.kunstmuseenkrefeld.de/d/index.html","lat":51.347044,"lng":6.58266},"geometry":{"type":"Point","coordinates":[6.58266,51.347044]}},{"type":"Feature","properties":{"title":"Geismühle","description":"Museum Burg Linn; Windmühle, Mai bis Oktober jeweils am ersten und dritten Sonntag 14:00 - 17:00 Uhr","street":"An der Geismühle","zip":47809,"city":"Krefeld","district":"Krefeld","tel":"02151/544044","fax":"","mail":"burglinn@krefeld.de","web":"https://www.krefeld.de/de/museum-burg-linn/geismuehle/","lat":51.310841,"lng":6.632804},"geometry":{"type":"Point","coordinates":[6.632804,51.310841]}},{"type":"Feature","properties":{"title":"Museum Haus Lange","description":"Kunstmuseen der Stadt Krefeld, geöffnet während der Wechselaustellungen dienstags bis sonntags 11:00 - 17:00 Uhr","street":"Wilhelmshofallee 91","zip":47800,"city":"Krefeld","district":"Krefeld","tel":"02151/975580","fax":"02151/97558222","mail":"kunstmuseen@krefeld.de","web":"http://www.kunstmuseenkrefeld.de/d/index.html","lat":51.346865,"lng":6.58183},"geometry":{"type":"Point","coordinates":[6.58183,51.346865]}},{"type":"Feature","properties":{"title":"Uerdinger Heimatmuseum","description":"Uerdinger Heimatbund e.V., Ausstellung zur Uerdinger Ortsgeschichte, montags 17:00 - 19:00, dienstags und donnerstags 10:00 - 12:00","street":"Am Zollhof 2","zip":47829,"city":"Krefeld","district":"Krefeld","tel":"02151/481214","fax":"","mail":"uerdinger-heimatbund@t-online.de","web":"http://www.uerdinger-heimatbund.de/","lat":51.35665,"lng":6.649835},"geometry":{"type":"Point","coordinates":[6.649835,51.35665]}},{"type":"Feature","properties":{"title":"Villa Merländer (NS-Dokumentationsstelle)","description":"Ausstellung Krefeld und der Nationalsozialismus, geöffnet jeden 4. Sonntag im Monat 14:00 - 17:00 Uhr, mittwochs 10:00 - 12:00 Uhr (nicht in den Schulferien) und nach Vereinbarung","street":"Friedrich-Ebert-Straße 42","zip":47799,"city":"Krefeld","district":"Krefeld","tel":"02151/503553","fax":"02151/862710","mail":"ingrid.schupetta@krefeld.de","web":"https://www.krefeld.de/de/ns-dokumentation/ns-dokumentationsstelle/","lat":51.341323,"lng":6.580111},"geometry":{"type":"Point","coordinates":[6.580111,51.341323]}},{"type":"Feature","properties":{"title":"meditativ art galerie cassel museum","description":"Ausstellung des Künstlers Will Cassel; freitags und samstags 16:00 - 19:00 und nach Vereinbarung","street":"Kuhdyk 20","zip":47802,"city":"Krefeld","district":"Krefeld","tel":"02151/561719","fax":"02151/561719","mail":"will@will-cassel.de","web":"http://www.will-cassel.de/home_d.htm","lat":51.376036,"lng":6.567531},"geometry":{"type":"Point","coordinates":[6.567531,51.376036]}},{"type":"Feature","properties":{"title":"Haus der Seidenkultur (HdS)","description":"Förderverein Haus der Seidenkultur Paramentenweberei Hubert Gotzes e.V.; mittwochs, donnerstags und freitags 15:00 - 18:00, sonntags 13:00 - 17:00","street":"Luisenstraße 15","zip":47799,"city":"Krefeld","district":"Krefeld","tel":"02151/510812","fax":"","mail":"besucherdienst@seidenkultur.de","web":"http://www.seide-krefeld.de/","lat":51.327729,"lng":6.570697},"geometry":{"type":"Point","coordinates":[6.570697,51.327729]}},{"type":"Feature","properties":{"title":"Hülser Heimatstuben","description":"Heimatverein Hüls; Ausstellung zur Hülser Ortsgeschichte und Konventkirche; sonntags 15:00 - 17:00","street":"Konventstraße 13","zip":47839,"city":"Krefeld","district":"Krefeld","tel":"02151/735284","fax":"","mail":"gottfried_andree@yahoo","web":"http://www.heimatverein-huels.de/Der-Verein/Heimatstuben","lat":51.373931,"lng":6.50965},"geometry":{"type":"Point","coordinates":[6.50965,51.373931]}}]}