{"type":"FeatureCollection","features":[{"type":"Feature","properties":{"title":"Parkhaus Königstraße/C&A (P3)","description":"Apcoa Parking, montags bis samstags 7:00 - 21:00","street":"Königstraße 146","zip":47798,"city":"Krefeld","district":"Krefeld","tel":"0711/30570305","fax":"","mail":"service@apcoa.de","web":"http://www.apcoa.de/parken-in/krefeld/koenigstrasse.html","lat":51.333606,"lng":6.56311},"geometry":{"type":"Point","coordinates":[6.56311,51.333606]}},{"type":"Feature","properties":{"title":"Parkhaus Sparkasse (P6)","description":"Sparkasse Krefeld, montags bis freitags 7:00 - 20:30, samstags 8:00 - 19:00","street":"Neue Linner Straße 81","zip":47799,"city":"Krefeld","district":"Krefeld","tel":"02151/684000","fax":"02151/684009","mail":"","web":"https://www.sparkasse-krefeld.de/de/home/service/filiale-finden.html?n=true#details/35577","lat":51.332648,"lng":6.567431},"geometry":{"type":"Point","coordinates":[6.567431,51.332648]}},{"type":"Feature","properties":{"title":"Parkhaus Hansa Centrum (P9)","description":"Hansa Centrum Krefeld, täglich von 6:00 bis 22:00","street":"Gladbacher Straße 40","zip":47798,"city":"Krefeld","district":"Krefeld","tel":"0177/8809694","fax":"","mail":"","web":"http://www.hansacentrum.de/anfahrt--parken/index.html","lat":51.325322,"lng":6.565697},"geometry":{"type":"Point","coordinates":[6.565697,51.325322]}},{"type":"Feature","properties":{"title":"Parkhaus im Schwanenmarkt (P4), Breite Straße","description":"Parkbetriebe Peter Gathen, täglich 24 Stunden","street":"Breite Straße","zip":47798,"city":"Krefeld","district":"Krefeld","tel":"02151/81695","fax":"02151/816999","mail":"gathen@krefeld-parken.de","web":"http://www.krefeld-parken.de/Parkhaus%20im%20Schwanenmarkt%20-%20Zufahrt%20Breite%20Strasse.htm","lat":51.33148,"lng":6.560786},"geometry":{"type":"Point","coordinates":[6.560786,51.33148]}},{"type":"Feature","properties":{"title":"Wiedenhof-Garage (P8) (Parkhaus)","description":"Parkbetriebe Peter Gathen, montags bis samstags 7:00 - 21:00","street":"Wiedenhofstraße","zip":47798,"city":"Krefeld","district":"Krefeld","tel":"02151/81695","fax":"02151/816999","mail":"gathen@krefeld-parken.de","web":"http://www.krefeld-parken.de/Parkhaus%20Wiedenhof-Garage.htm","lat":51.329296,"lng":6.562816},"geometry":{"type":"Point","coordinates":[6.562816,51.329296]}},{"type":"Feature","properties":{"title":"Park + Ride Grundend","description":"Stadt Krefeld, Verkehrslinien 041, 060, 061, U70, U76 und NE8","street":"Eichhornstraße","zip":47807,"city":"Krefeld","district":"Krefeld","tel":"","fax":"","mail":"","web":"http://www.rheinbahn.de/freizeit/Seiten/Park%20Ride.aspx","lat":51.299788,"lng":6.601333},"geometry":{"type":"Point","coordinates":[6.601333,51.299788]}},{"type":"Feature","properties":{"title":"Parkhaus HELIOS Klinikum 1","description":"Krankenhausparkhaus, täglich 24 Stunden","street":"Lutherplatz 40","zip":47805,"city":"Krefeld","district":"Krefeld","tel":"02151/320","fax":"02151/322040","mail":"info.krefeld@helios-kliniken.de","web":"http://www.helios-kliniken.de/klinik/krefeld/patienteninformationen/informationen-von-a-z.html#c39024","lat":51.320726,"lng":6.567263},"geometry":{"type":"Point","coordinates":[6.567263,51.320726]}},{"type":"Feature","properties":{"title":"Parkhaus Mediothek (P13)","description":"Parkbetriebe Peter Gathen, montags bis samstags 9:00 - 21:00","street":"Theaterplatz 2","zip":47798,"city":"Krefeld","district":"Krefeld","tel":"02151/81695","fax":"02151/816999","mail":"gathen@krefeld-parken.de","web":"http://www.krefeld-parken.de/Parkhaus%20Mediothek.htm","lat":51.335238,"lng":6.562786},"geometry":{"type":"Point","coordinates":[6.562786,51.335238]}},{"type":"Feature","properties":{"title":"Park + Ride Bahnhof Forsthaus","description":"Stadt Krefeld, Verkehrslinien RE11, RB33, 051, 062, 068 und NE5","street":"Bellenweg","zip":47804,"city":"Krefeld","district":"Krefeld","tel":"","fax":"","mail":"","web":"","lat":51.30299,"lng":6.503241},"geometry":{"type":"Point","coordinates":[6.503241,51.30299]}},{"type":"Feature","properties":{"title":"Parkplatz Eisstadion/Stadthaus","description":"Stadt Krefeld","street":"Girmesgath","zip":47803,"city":"Krefeld","district":"Krefeld","tel":"","fax":"","mail":"","web":"","lat":51.341232,"lng":6.545924},"geometry":{"type":"Point","coordinates":[6.545924,51.341232]}},{"type":"Feature","properties":{"title":"Park + Ride Königshof","description":"Stadt Krefeld, Stadtbahnlinie U76","street":"Von-Ketteler-Straße","zip":47807,"city":"Krefeld","district":"Krefeld","tel":"","fax":"","mail":"","web":"http://www.rheinbahn.de/freizeit/Seiten/Park%20Ride.aspx","lat":51.315949,"lng":6.589476},"geometry":{"type":"Point","coordinates":[6.589476,51.315949]}},{"type":"Feature","properties":{"title":"Parkhaus am Rathaus (P1), Einfahrt Westwall","description":"Parkbetriebe Peter Gathen, täglich 24 Stunden","street":"Westwall 143","zip":47798,"city":"Krefeld","district":"Krefeld","tel":"02151/81695","fax":"02151/816999","mail":"gathen@krefeld-parken.de","web":"http://www.krefeld-parken.de/Parkhaus%20am%20rathaus.htm","lat":51.334321,"lng":6.558242},"geometry":{"type":"Point","coordinates":[6.558242,51.334321]}},{"type":"Feature","properties":{"title":"Park + Ride Bahnhof Krefeld-Oppum","description":"Stadt Krefeld, Verkehrslinien RE7, RE10, RE11, RB33, 047, 057 und NE6","street":"Werkstättenstraße","zip":47809,"city":"Krefeld","district":"Krefeld","tel":"","fax":"","mail":"","web":"http://www.rheinbahn.de/freizeit/Seiten/Park%20Ride.aspx","lat":51.329974,"lng":6.610427},"geometry":{"type":"Point","coordinates":[6.610427,51.329974]}},{"type":"Feature","properties":{"title":"Zooparkplatz (Park + Ride)","description":"Stadt Krefeld","street":"Uerdinger Straße","zip":47800,"city":"Krefeld","district":"Krefeld","tel":"02151/95520","fax":"02151/955233","mail":"","web":"http://www.zookrefeld.de/besucherinfos/anfahrt.html","lat":51.340423,"lng":6.59864},"geometry":{"type":"Point","coordinates":[6.59864,51.340423]}},{"type":"Feature","properties":{"title":"Parkhaus Europa-Eck/Saturn (P12)","description":"Montags bis samstags 6:00 - 22:00","street":"Hansastraße 115","zip":47798,"city":"Krefeld","district":"Krefeld","tel":"","fax":"","mail":"","web":"https://www.krefeld.de/de/stadtmarketing/parken-in-der-innenstadt/","lat":51.326506,"lng":6.567568},"geometry":{"type":"Point","coordinates":[6.567568,51.326506]}},{"type":"Feature","properties":{"title":"Parkhaus im Schwanenmarkt (P5), Evertsstraße","description":"Parkbetriebe Peter Gathen, montags bis freitags 7:00 - 21:00, samstags 7:00 - 19:00, Ausfahrt 24 Stunden","street":"Evertsstraße 19","zip":47798,"city":"Krefeld","district":"Krefeld","tel":"02151/81695","fax":"02151/816999","mail":"gathen@krefeld-parken.de","web":"http://www.krefeld-parken.de/Parkhaus%20im%20Schwanenmarkt%20-%20Evertsstrasse.htm","lat":51.331323,"lng":6.561332},"geometry":{"type":"Point","coordinates":[6.561332,51.331323]}},{"type":"Feature","properties":{"title":"Parkhaus Hauptbahnhof/Cinemaxx (P10)","description":"Täglich 24 Stunden","street":"Hansastraße 28","zip":47799,"city":"Krefeld","district":"Krefeld","tel":"02151/62540","fax":"02151/625430","mail":"","web":"https://www.krefeld.de/de/stadtmarketing/parken-in-der-innenstadt/","lat":51.327165,"lng":6.572747},"geometry":{"type":"Point","coordinates":[6.572747,51.327165]}},{"type":"Feature","properties":{"title":"Parkhaus Galeria Kaufhof (P7)","description":"Montags bis samstags 8:00 - 20:00","street":"Königstraße 45","zip":47798,"city":"Krefeld","district":"Krefeld","tel":"02151/6370","fax":"02151/637125","mail":"","web":"https://www.galeria-kaufhof.de/filialen/krefeld/","lat":51.330188,"lng":6.565364},"geometry":{"type":"Point","coordinates":[6.565364,51.330188]}},{"type":"Feature","properties":{"title":"Behnisch-Parkhaus (P11)","description":"Dr. Schmitter GmbH & Co Treuhand KG, täglich 24 Stunden","street":"Marktstraße","zip":47798,"city":"Krefeld","district":"Krefeld","tel":"02151/586926","fax":"02151/586920","mail":"g.bodden@dr-schmitter-kg.de","web":"http://www.behnischhaus.de/","lat":51.331107,"lng":6.565351},"geometry":{"type":"Point","coordinates":[6.565351,51.331107]}},{"type":"Feature","properties":{"title":"Parkhaus HELIOS Klinikum 2","description":"Krankenhausparkhaus, täglich 24 Stunden","street":"Lutherplatz 40","zip":47805,"city":"Krefeld","district":"Krefeld","tel":"02151/320","fax":"02151/322040","mail":"info.krefeld@helios-kliniken.de","web":"http://www.helios-kliniken.de/klinik/krefeld/patienteninformationen/informationen-von-a-z.html#c39024","lat":51.31979,"lng":6.563735},"geometry":{"type":"Point","coordinates":[6.563735,51.31979]}},{"type":"Feature","properties":{"title":"Parkplatz Grotenburg-Stadion","description":"Stadt Krefeld","street":"Brliner Straße","zip":47800,"city":"Krefeld","district":"Krefeld","tel":"","fax":"","mail":"","web":"http://www.zookrefeld.de/besucherinfos/anfahrt.html","lat":51.337234,"lng":6.603411},"geometry":{"type":"Point","coordinates":[6.603411,51.337234]}},{"type":"Feature","properties":{"title":"Parkhaus am Rathaus (P1), Einfahrt Schneiderstraße","description":"Parkbetriebe Peter Gathen, täglich 24 Stunden","street":"Schneiderstraße","zip":47798,"city":"Krefeld","district":"Krefeld","tel":"02151/81695","fax":"02151/816999","mail":"gathen@krefeld-parken.de","web":"http://www.krefeld-parken.de/Parkhaus%20am%20rathaus.htm","lat":51.335094,"lng":6.558788},"geometry":{"type":"Point","coordinates":[6.558788,51.335094]}},{"type":"Feature","properties":{"title":"Parkhaus am Theater (P2)","description":"Parkbetriebe Peter Gathen, täglich 24 Stunden","street":"Theaterplatz 1","zip":47798,"city":"Krefeld","district":"Krefeld","tel":"02151/81695","fax":"02151/816999","mail":"gathen@krefeld-parken.de","web":"http://www.krefeld-parken.de/Parkhaus%20am%20theater.htm","lat":51.334429,"lng":6.563145},"geometry":{"type":"Point","coordinates":[6.563145,51.334429]}},{"type":"Feature","properties":{"title":"Park + Ride Bahnhof Krefeld-Uerdingen","description":"Stadt Krefeld, Verkehrslinien RE11, RB33, SB80, 043, 054, 058, 831, 927, 941, NE8 und NE27","street":"Bahnhofstraße","zip":47829,"city":"Krefeld","district":"Krefeld","tel":"","fax":"","mail":"","web":"http://www.rheinbahn.de/freizeit/Seiten/Park%20Ride.aspx","lat":51.356656,"lng":6.645838},"geometry":{"type":"Point","coordinates":[6.645838,51.356656]}},{"type":"Feature","properties":{"title":"Park + Ride Fischeln","description":"Stadt Krefeld, Stadtbahnlinien U70 und U76","street":"Hees","zip":47807,"city":"Krefeld","district":"Krefeld","tel":"","fax":"","mail":"","web":"http://www.rheinbahn.de/freizeit/Seiten/Park%20Ride.aspx","lat":51.305024,"lng":6.597204},"geometry":{"type":"Point","coordinates":[6.597204,51.305024]}},{"type":"Feature","properties":{"title":"Parkplatz Burg Linn","description":"Stadt Krefeld","street":"Paul-Hübner-Straße","zip":47809,"city":"Krefeld","district":"Krefeld","tel":"","fax":"","mail":"","web":"http://www.krefeld-linn.de/infos","lat":51.335449,"lng":6.630201},"geometry":{"type":"Point","coordinates":[6.630201,51.335449]}}]}