{"type":"FeatureCollection","features":[{"type":"Feature","properties":{"title":"Rheinpromenade, Rheindeich- und Wallanlagen Uerdingen","description":"","street":"Kronenstraße","zip":47829,"city":"Krefeld","district":"Krefeld","tel":"","fax":"","mail":"","web":"http://www.krefeld.de/gruenflaechen","lat":51.353888,"lng":6.652405},"geometry":{"type":"Point","coordinates":[6.652405,51.353888]}},{"type":"Feature","properties":{"title":"Stadtpark Fischeln","description":"","street":"Mühlenfeld","zip":47807,"city":"Krefeld","district":"Krefeld","tel":"","fax":"","mail":"","web":"http://www.krefeld.de/gruenflaechen","lat":51.309324,"lng":6.578416},"geometry":{"type":"Point","coordinates":[6.578416,51.309324]}},{"type":"Feature","properties":{"title":"Stadtwald","description":"","street":"Hüttenallee","zip":47800,"city":"Krefeld","district":"Krefeld","tel":"","fax":"","mail":"","web":"http://www.krefeld.de/gruenflaechen","lat":51.354173,"lng":6.583185},"geometry":{"type":"Point","coordinates":[6.583185,51.354173]}},{"type":"Feature","properties":{"title":"Greiffenhorstpark","description":"","street":"Greiffenhorst","zip":47809,"city":"Krefeld","district":"Krefeld","tel":"","fax":"","mail":"","web":"http://www.krefeld.de/gruenflaechen","lat":51.335548,"lng":6.649604},"geometry":{"type":"Point","coordinates":[6.649604,51.335548]}},{"type":"Feature","properties":{"title":"Kaiser-Friedrich-Hain","description":"","street":"Steckendorfer Straße","zip":47799,"city":"Krefeld","district":"Krefeld","tel":"","fax":"","mail":"","web":"http://www.krefeld.de/gruenflaechen","lat":51.337992,"lng":6.568744},"geometry":{"type":"Point","coordinates":[6.568744,51.337992]}},{"type":"Feature","properties":{"title":"Erholungspark Elfrather See","description":"","street":"Parkstraße","zip":47829,"city":"Krefeld","district":"Krefeld","tel":"02151/471009","fax":"","mail":"","web":"http://www.krefeld.de/sportundbaeder","lat":51.386219,"lng":6.627305},"geometry":{"type":"Point","coordinates":[6.627305,51.386219]}},{"type":"Feature","properties":{"title":"Südpark","description":"","street":"Stahlwerkstraße","zip":47804,"city":"Krefeld","district":"Krefeld","tel":"","fax":"","mail":"","web":"http://www.krefeld.de/gruenflaechen","lat":51.299208,"lng":6.537287},"geometry":{"type":"Point","coordinates":[6.537287,51.299208]}},{"type":"Feature","properties":{"title":"Heesbusch","description":"","street":"Duisburger Straße","zip":47829,"city":"Krefeld","district":"Krefeld","tel":"","fax":"","mail":"","web":"http://www.krefeld.de/gruenflaechen","lat":51.376352,"lng":6.646834},"geometry":{"type":"Point","coordinates":[6.646834,51.376352]}},{"type":"Feature","properties":{"title":"Henoumontwald","description":"","street":"Henoumontweg","zip":47802,"city":"Krefeld","district":"Krefeld","tel":"","fax":"","mail":"","web":"http://www.krefeld.de/gruenflaechen","lat":51.385151,"lng":6.561726},"geometry":{"type":"Point","coordinates":[6.561726,51.385151]}},{"type":"Feature","properties":{"title":"Stadtgarten","description":"","street":"Steinstraße","zip":47798,"city":"Krefeld","district":"Krefeld","tel":"","fax":"","mail":"","web":"http://www.krefeld.de/gruenflaechen","lat":51.333971,"lng":6.55254},"geometry":{"type":"Point","coordinates":[6.55254,51.333971]}},{"type":"Feature","properties":{"title":"Sollbrüggenpark","description":"","street":"Uerdinger Straße","zip":47800,"city":"Krefeld","district":"Krefeld","tel":"","fax":"","mail":"","web":"http://www.krefeld.de/gruenflaechen","lat":51.344325,"lng":6.608537},"geometry":{"type":"Point","coordinates":[6.608537,51.344325]}},{"type":"Feature","properties":{"title":"Stadtpark Uerdingen","description":"","street":"Parkstraße","zip":47829,"city":"Krefeld","district":"Krefeld","tel":"","fax":"","mail":"","web":"http://www.krefeld.de/gruenflaechen","lat":51.361299,"lng":6.636888},"geometry":{"type":"Point","coordinates":[6.636888,51.361299]}},{"type":"Feature","properties":{"title":"Kaiser-Wilhelm-Park","description":"","street":"Westparkstraße","zip":47803,"city":"Krefeld","district":"Krefeld","tel":"","fax":"","mail":"","web":"http://www.krefeld.de/gruenflaechen","lat":51.338921,"lng":6.551106},"geometry":{"type":"Point","coordinates":[6.551106,51.338921]}},{"type":"Feature","properties":{"title":"Botanischer Garten","description":"15. März bis 31. Oktober täglich 8:00 - 18:00, 1. November bis 14. März montags bis donnerstags 9:00 - 15:00, freitags 9:00 - 12:00","street":"Sandberg 2a","zip":47809,"city":"Krefeld","district":"Krefeld","tel":"02151/540519","fax":"02151/548335","mail":"botanischer.garten@krefeld.de","web":"http://www.krefeld.de/botanischergarten","lat":51.332467,"lng":6.603335},"geometry":{"type":"Point","coordinates":[6.603335,51.332467]}},{"type":"Feature","properties":{"title":"Holthausens Kull","description":"","street":"Ottostraße","zip":47803,"city":"Krefeld","district":"Krefeld","tel":"","fax":"","mail":"","web":"http://www.krefeld.de/gruenflaechen","lat":51.335313,"lng":6.536441},"geometry":{"type":"Point","coordinates":[6.536441,51.335313]}},{"type":"Feature","properties":{"title":"Kaiserpark","description":"","street":"Kaiserstraße","zip":47800,"city":"Krefeld","district":"Krefeld","tel":"","fax":"","mail":"","web":"http://www.krefeld.de/gruenflaechen","lat":51.346236,"lng":6.588641},"geometry":{"type":"Point","coordinates":[6.588641,51.346236]}},{"type":"Feature","properties":{"title":"Wallgarten Uerdingen","description":"","street":"Am Wallgarten","zip":47829,"city":"Krefeld","district":"Krefeld","tel":"","fax":"","mail":"","web":"http://www.krefeld.de/gruenflaechen","lat":51.351553,"lng":6.649083},"geometry":{"type":"Point","coordinates":[6.649083,51.351553]}},{"type":"Feature","properties":{"title":"Stadtpark Süd","description":"","street":"Nauenweg","zip":47805,"city":"Krefeld","district":"Krefeld","tel":"","fax":"","mail":"","web":"http://www.krefeld.de/gruenflaechen","lat":51.321562,"lng":6.551301},"geometry":{"type":"Point","coordinates":[6.551301,51.321562]}},{"type":"Feature","properties":{"title":"Neuenhofenpark","description":"","street":"Uerdinger Straße","zip":47807,"city":"Krefeld","district":"Krefeld","tel":"","fax":"","mail":"","web":"http://www.krefeld.de/gruenflaechen","lat":51.346239,"lng":6.620777},"geometry":{"type":"Point","coordinates":[6.620777,51.346239]}},{"type":"Feature","properties":{"title":"Schönhausenpark","description":"","street":"Uerdinger Straße","zip":47800,"city":"Krefeld","district":"Krefeld","tel":"","fax":"","mail":"","web":"http://www.krefeld.de/gruenflaechen","lat":51.343323,"lng":6.602353},"geometry":{"type":"Point","coordinates":[6.602353,51.343323]}},{"type":"Feature","properties":{"title":"Schönwasserpark","description":"","street":"Johansenaue","zip":47809,"city":"Krefeld","district":"Krefeld","tel":"","fax":"","mail":"","web":"http://www.krefeld.de/gruenflaechen","lat":51.334842,"lng":6.605413},"geometry":{"type":"Point","coordinates":[6.605413,51.334842]}}]}