{"type":"FeatureCollection","features":[{"type":"Feature","properties":{"title":"Greiffenhorst / George-C.-Marshall-Straße (Spielplatz)","description":"","street":"Greiffenhorst","zip":47809,"city":"Krefeld","district":"Krefeld","tel":"","fax":"","mail":"","web":"http://www.krefeld.de/gruenflaechen","lat":51.337096,"lng":6.652683},"geometry":{"type":"Point","coordinates":[6.652683,51.337096]}},{"type":"Feature","properties":{"title":"Höppnerstraße im Westen (Spielplatz)","description":"","street":"Höppnerstraße","zip":47809,"city":"Krefeld","district":"Krefeld","tel":"","fax":"","mail":"","web":"http://www.krefeld.de/gruenflaechen","lat":51.338379,"lng":6.618319},"geometry":{"type":"Point","coordinates":[6.618319,51.338379]}},{"type":"Feature","properties":{"title":"Kaldenkirchener Straße (Spielplatz)","description":"","street":"Kaldenkirchener Straße","zip":47804,"city":"Krefeld","district":"Krefeld","tel":"","fax":"","mail":"","web":"http://www.krefeld.de/gruenflaechen","lat":51.320175,"lng":6.527542},"geometry":{"type":"Point","coordinates":[6.527542,51.320175]}},{"type":"Feature","properties":{"title":"Lutherplatz (Spielplatz)","description":"","street":"Lutherplatz","zip":47805,"city":"Krefeld","district":"Krefeld","tel":"","fax":"","mail":"","web":"http://www.krefeld.de/gruenflaechen","lat":51.320978,"lng":6.564891},"geometry":{"type":"Point","coordinates":[6.564891,51.320978]}},{"type":"Feature","properties":{"title":"Fritz-Huhnen-Straße (Spielplatz)","description":"","street":"Fritz-Huhnen-Straße","zip":47799,"city":"Krefeld","district":"Krefeld","tel":"","fax":"","mail":"","web":"http://www.krefeld.de/gruenflaechen","lat":51.338428,"lng":6.576931},"geometry":{"type":"Point","coordinates":[6.576931,51.338428]}},{"type":"Feature","properties":{"title":"Rennstieg (Spielplatz)","description":"","street":"Rennstieg","zip":47802,"city":"Krefeld","district":"Krefeld","tel":"","fax":"","mail":"","web":"http://www.krefeld.de/gruenflaechen","lat":51.387896,"lng":6.537069},"geometry":{"type":"Point","coordinates":[6.537069,51.387896]}},{"type":"Feature","properties":{"title":"Mündelheimer Straße (Spielplatz)","description":"","street":"Mündelheimer Straße","zip":47829,"city":"Krefeld","district":"Krefeld","tel":"","fax":"","mail":"","web":"http://www.krefeld.de/gruenflaechen","lat":51.34875,"lng":6.645455},"geometry":{"type":"Point","coordinates":[6.645455,51.34875]}},{"type":"Feature","properties":{"title":"Nördliche Lohstraße (Spielplatz)","description":"Wasser vor Ort","street":"Nördliche Lohstraße","zip":47798,"city":"Krefeld","district":"Krefeld","tel":"","fax":"","mail":"","web":"http://www.krefeld.de/gruenflaechen","lat":51.338767,"lng":6.560876},"geometry":{"type":"Point","coordinates":[6.560876,51.338767]}},{"type":"Feature","properties":{"title":"Parkstraße Stadtpark I (Spielplatz)","description":"","street":"Parkstraße","zip":47829,"city":"Krefeld","district":"Krefeld","tel":"","fax":"","mail":"","web":"http://www.krefeld.de/gruenflaechen","lat":51.362657,"lng":6.636841},"geometry":{"type":"Point","coordinates":[6.636841,51.362657]}},{"type":"Feature","properties":{"title":"Robert-Reichling-Straße im Stadtpark Fischeln (Spielplatz)","description":"","street":"Robert-Reichling-Straße","zip":47807,"city":"Krefeld","district":"Krefeld","tel":"","fax":"","mail":"","web":"http://www.krefeld.de/gruenflaechen","lat":51.308614,"lng":6.582059},"geometry":{"type":"Point","coordinates":[6.582059,51.308614]}},{"type":"Feature","properties":{"title":"Marienplatz (Spielplatz)","description":"mit Bolzplatz","street":"Marienplatz","zip":47807,"city":"Krefeld","district":"Krefeld","tel":"","fax":"","mail":"","web":"http://www.krefeld.de/gruenflaechen","lat":51.304559,"lng":6.58325},"geometry":{"type":"Point","coordinates":[6.58325,51.304559]}},{"type":"Feature","properties":{"title":"Memeler Platz (Spielplatz)","description":"mit Bolzplatz","street":"Memeler Platz","zip":47809,"city":"Krefeld","district":"Krefeld","tel":"","fax":"","mail":"","web":"http://www.krefeld.de/gruenflaechen","lat":51.341419,"lng":6.64119},"geometry":{"type":"Point","coordinates":[6.64119,51.341419]}},{"type":"Feature","properties":{"title":"Preußischer Hut (Spielplatz)","description":"","street":"Preußischer Hut","zip":47802,"city":"Krefeld","district":"Krefeld","tel":"","fax":"","mail":"","web":"http://www.krefeld.de/gruenflaechen","lat":51.376635,"lng":6.592605},"geometry":{"type":"Point","coordinates":[6.592605,51.376635]}},{"type":"Feature","properties":{"title":"Rathenaustraße (Spielplatz)","description":"mit Basketballanlage","street":"Rathenaustraße","zip":47809,"city":"Krefeld","district":"Krefeld","tel":"","fax":"","mail":"","web":"http://www.krefeld.de/gruenflaechen","lat":51.340258,"lng":6.643856},"geometry":{"type":"Point","coordinates":[6.643856,51.340258]}},{"type":"Feature","properties":{"title":"Alte Flur / Griesbacher Straße (Spielplatz)","description":"mit Bolzplatz und Basketballanlage","street":"Alte Flur","zip":47809,"city":"Krefeld","district":"Krefeld","tel":"","fax":"","mail":"","web":"http://www.krefeld.de/gruenflaechen","lat":51.327414,"lng":6.604283},"geometry":{"type":"Point","coordinates":[6.604283,51.327414]}},{"type":"Feature","properties":{"title":"Am Dorfgraben (Spielplatz)","description":"mit Bolzplatz","street":"Am Dorfgraben","zip":47809,"city":"Krefeld","district":"Krefeld","tel":"","fax":"","mail":"","web":"http://www.krefeld.de/gruenflaechen","lat":51.32177,"lng":6.617936},"geometry":{"type":"Point","coordinates":[6.617936,51.32177]}},{"type":"Feature","properties":{"title":"Bückerfeldstraße (Spielplatz)","description":"","street":"Bückerfeldstraße","zip":47803,"city":"Krefeld","district":"Krefeld","tel":"","fax":"","mail":"","web":"http://www.krefeld.de/gruenflaechen","lat":51.342187,"lng":6.52692},"geometry":{"type":"Point","coordinates":[6.52692,51.342187]}},{"type":"Feature","properties":{"title":"Am Plänksken (Spielplatz)","description":"","street":"Am Plänksken","zip":47809,"city":"Krefeld","district":"Krefeld","tel":"","fax":"","mail":"","web":"http://www.krefeld.de/gruenflaechen","lat":51.344737,"lng":6.646116},"geometry":{"type":"Point","coordinates":[6.646116,51.344737]}},{"type":"Feature","properties":{"title":"Anne-Frank-Platz (Spielplatz)","description":"","street":"Anne-Frank-Platz","zip":47798,"city":"Krefeld","district":"Krefeld","tel":"","fax":"","mail":"","web":"http://www.krefeld.de/gruenflaechen","lat":51.329114,"lng":6.563408},"geometry":{"type":"Point","coordinates":[6.563408,51.329114]}},{"type":"Feature","properties":{"title":"Auf der Scholle (Spielplatz)","description":"","street":"Auf der Scholle","zip":47804,"city":"Krefeld","district":"Krefeld","tel":"","fax":"","mail":"","web":"http://www.krefeld.de/gruenflaechen","lat":51.310631,"lng":6.539982},"geometry":{"type":"Point","coordinates":[6.539982,51.310631]}},{"type":"Feature","properties":{"title":"Verberger Straße (Spielplatz)","description":"","street":"Verberger Straße","zip":47800,"city":"Krefeld","district":"Krefeld","tel":"","fax":"","mail":"","web":"http://www.krefeld.de/gruenflaechen","lat":51.349166,"lng":6.618613},"geometry":{"type":"Point","coordinates":[6.618613,51.349166]}},{"type":"Feature","properties":{"title":"Wichernstraße (Spielplatz)","description":"","street":"Wichernstraße","zip":47807,"city":"Krefeld","district":"Krefeld","tel":"","fax":"","mail":"","web":"http://www.krefeld.de/gruenflaechen","lat":51.31365,"lng":6.586001},"geometry":{"type":"Point","coordinates":[6.586001,51.31365]}},{"type":"Feature","properties":{"title":"Gartenstraße (Spielplatz)","description":"","street":"Gartenstraße","zip":47798,"city":"Krefeld","district":"Krefeld","tel":"","fax":"","mail":"","web":"http://www.krefeld.de/gruenflaechen","lat":51.335138,"lng":6.559025},"geometry":{"type":"Point","coordinates":[6.559025,51.335138]}},{"type":"Feature","properties":{"title":"Am Holderspfad im Sportpark Oppum (Spielplatz)","description":"Bolzplatz und Basketballanlage","street":"Am Holderspfad 200","zip":47809,"city":"Krefeld","district":"Krefeld","tel":"02151/540966","fax":"","mail":"","web":"http://www.krefeld.de/sportundbaeder","lat":51.325686,"lng":6.624835},"geometry":{"type":"Point","coordinates":[6.624835,51.325686]}},{"type":"Feature","properties":{"title":"Hafelsstraße an der Auferstehungskirche (Spielplatz)","description":"mit Bolzplatz und Basketballanlage","street":"Hafelsstraße","zip":47809,"city":"Krefeld","district":"Krefeld","tel":"","fax":"","mail":"","web":"http://www.krefeld.de/gruenflaechen","lat":51.320584,"lng":6.603777},"geometry":{"type":"Point","coordinates":[6.603777,51.320584]}},{"type":"Feature","properties":{"title":"Höchterdyk (Spielplatz)","description":"","street":"Höchterdyk","zip":47803,"city":"Krefeld","district":"Krefeld","tel":"","fax":"","mail":"","web":"http://www.krefeld.de/gruenflaechen","lat":51.355887,"lng":6.538164},"geometry":{"type":"Point","coordinates":[6.538164,51.355887]}},{"type":"Feature","properties":{"title":"Grevenbroicher Straße (Spielplatz)","description":"","street":"Grevenbroicher Straße","zip":47807,"city":"Krefeld","district":"Krefeld","tel":"02151/86-3262","fax":"","mail":"angela.schaefer@krefeld.de","web":"https://www.krefeld.de/de/fb-67/oeffentliche-kinderspiel-und-bolzplaetze-in-krefeld/","lat":51.303298,"lng":6.578409},"geometry":{"type":"Point","coordinates":[6.578409,51.303298]}},{"type":"Feature","properties":{"title":"Kesselplatz (Spielplatz)","description":"","street":"Kesselplatz","zip":47809,"city":"Krefeld","district":"Krefeld","tel":"","fax":"","mail":"","web":"http://www.krefeld.de/gruenflaechen","lat":51.3353,"lng":6.621968},"geometry":{"type":"Point","coordinates":[6.621968,51.3353]}},{"type":"Feature","properties":{"title":"Dreikönigenstraße / Luisenstraße (Spielplatz)","description":"","street":"Dreikönigenstraße","zip":47799,"city":"Krefeld","district":"Krefeld","tel":"","fax":"","mail":"","web":"http://www.krefeld.de/gruenflaechen","lat":51.331139,"lng":6.568262},"geometry":{"type":"Point","coordinates":[6.568262,51.331139]}},{"type":"Feature","properties":{"title":"Erftweg (Spielplatz)","description":"","street":"Erftweg","zip":47807,"city":"Krefeld","district":"Krefeld","tel":"","fax":"","mail":"","web":"http://www.krefeld.de/gruenflaechen","lat":51.295176,"lng":6.587407},"geometry":{"type":"Point","coordinates":[6.587407,51.295176]}},{"type":"Feature","properties":{"title":"Franz-Heckmanns-Straße (Spielplatz)","description":"","street":"Franz-Heckmanns-Straße","zip":47807,"city":"Krefeld","district":"Krefeld","tel":"","fax":"","mail":"","web":"http://www.krefeld.de/gruenflaechen","lat":51.299617,"lng":6.579613},"geometry":{"type":"Point","coordinates":[6.579613,51.299617]}},{"type":"Feature","properties":{"title":"Gesamtschule Kaiserplatz (Spielplatz)","description":"bespielbarer Schulhof mit eingeschränkten Öffnungszeiten","street":"Kaiserplatz 50","zip":47800,"city":"Krefeld","district":"Krefeld","tel":"02151/5399-0","fax":"","mail":"189273@schule.nrw.de","web":"http://www.gekai.krefeld.schulen.net","lat":51.344292,"lng":6.59055},"geometry":{"type":"Point","coordinates":[6.59055,51.344292]}},{"type":"Feature","properties":{"title":"Vom-Bruck-Platz (Spielplatz)","description":"mit Basketballanlage","street":"Vom-Bruck-Platz","zip":47805,"city":"Krefeld","district":"Krefeld","tel":"","fax":"","mail":"","web":"http://www.krefeld.de/gruenflaechen","lat":51.318021,"lng":6.568328},"geometry":{"type":"Point","coordinates":[6.568328,51.318021]}},{"type":"Feature","properties":{"title":"Walter-Flex-Straße (Spielplatz)","description":"","street":"Walter-Flex-Straße","zip":47809,"city":"Krefeld","district":"Krefeld","tel":"","fax":"","mail":"","web":"http://www.krefeld.de/gruenflaechen","lat":51.335451,"lng":6.600084},"geometry":{"type":"Point","coordinates":[6.600084,51.335451]}},{"type":"Feature","properties":{"title":"Kleingartenanlage Uerdingen-Nord (Spielplatz)","description":"Spielplatz in Kleingartenanlage mit eingeschränkten Öffnungszeiten","street":"Parkstraße","zip":47829,"city":"Krefeld","district":"Krefeld","tel":"","fax":"","mail":"","web":"http://www.krefeld.de/gruenflaechen","lat":51.365709,"lng":6.637154},"geometry":{"type":"Point","coordinates":[6.637154,51.365709]}},{"type":"Feature","properties":{"title":"Berufskolleg Glockenspitz (Spielplatz)","description":"bespielbarer Schulhof mit eingeschränkten Öffnungszeiten","street":"Glockenspitz 348","zip":47809,"city":"Krefeld","district":"Krefeld","tel":"02151/5590","fax":"","mail":"info@glockenspitz.de","web":"http://www.glockenspitz.de","lat":51.338298,"lng":6.613541},"geometry":{"type":"Point","coordinates":[6.613541,51.338298]}},{"type":"Feature","properties":{"title":"Vluyner Platz (Spielplatz)","description":"","street":"Vluyner Platz","zip":47799,"city":"Krefeld","district":"Krefeld","tel":"","fax":"","mail":"","web":"http://www.krefeld.de/gruenflaechen","lat":51.344905,"lng":6.572683},"geometry":{"type":"Point","coordinates":[6.572683,51.344905]}},{"type":"Feature","properties":{"title":"Am Flohbusch (Spielplatz)","description":"","street":"Am Flohbusch","zip":47802,"city":"Krefeld","district":"Krefeld","tel":"","fax":"","mail":"","web":"http://www.krefeld.de/gruenflaechen","lat":51.359215,"lng":6.573989},"geometry":{"type":"Point","coordinates":[6.573989,51.359215]}},{"type":"Feature","properties":{"title":"Am Holderspfad (Spielplatz)","description":"Skateranlage","street":"Am Holderspfad","zip":47809,"city":"Krefeld","district":"Krefeld","tel":"","fax":"","mail":"","web":"http://www.krefeld.de/gruenflaechen","lat":51.321455,"lng":6.629765},"geometry":{"type":"Point","coordinates":[6.629765,51.321455]}},{"type":"Feature","properties":{"title":"Am Lindenplatz (Spielplatz)","description":"","street":"Am Lindenplatz","zip":47829,"city":"Krefeld","district":"Krefeld","tel":"","fax":"","mail":"","web":"http://www.krefeld.de/gruenflaechen","lat":51.355352,"lng":6.637187},"geometry":{"type":"Point","coordinates":[6.637187,51.355352]}},{"type":"Feature","properties":{"title":"Am Schwarzkamp (Spielplatz)","description":"","street":"Am Schwarzkamp","zip":47802,"city":"Krefeld","district":"Krefeld","tel":"","fax":"","mail":"","web":"http://www.krefeld.de/gruenflaechen","lat":51.373702,"lng":6.593013},"geometry":{"type":"Point","coordinates":[6.593013,51.373702]}},{"type":"Feature","properties":{"title":"Kurfürstenstraße (Spielplatz)","description":"","street":"Kurfürstenstraße","zip":47829,"city":"Krefeld","district":"Krefeld","tel":"","fax":"","mail":"","web":"http://www.krefeld.de/gruenflaechen","lat":51.356062,"lng":6.6472},"geometry":{"type":"Point","coordinates":[6.6472,51.356062]}},{"type":"Feature","properties":{"title":"Bönnersdyk (Spielplatz)","description":"Wasser vor Ort","street":"Bönnersdyk","zip":47803,"city":"Krefeld","district":"Krefeld","tel":"","fax":"","mail":"","web":"http://www.krefeld.de/gruenflaechen","lat":51.3494,"lng":6.554136},"geometry":{"type":"Point","coordinates":[6.554136,51.3494]}},{"type":"Feature","properties":{"title":"Am Wetscheshof (Spielplatz)","description":"","street":"Am Wetscheshof","zip":47807,"city":"Krefeld","district":"Krefeld","tel":"","fax":"","mail":"","web":"http://www.krefeld.de/gruenflaechen","lat":51.292231,"lng":6.596076},"geometry":{"type":"Point","coordinates":[6.596076,51.292231]}},{"type":"Feature","properties":{"title":"Hardenbergplatz (Spielplatz)","description":"","street":"Hardenbergstraße","zip":47799,"city":"Krefeld","district":"Krefeld","tel":"","fax":"","mail":"","web":"http://www.krefeld.de/gruenflaechen","lat":51.334593,"lng":6.582765},"geometry":{"type":"Point","coordinates":[6.582765,51.334593]}},{"type":"Feature","properties":{"title":"Hees (Spielplatz)","description":"","street":"Hees","zip":47807,"city":"Krefeld","district":"Krefeld","tel":"","fax":"","mail":"","web":"http://www.krefeld.de/gruenflaechen","lat":51.30448,"lng":6.594773},"geometry":{"type":"Point","coordinates":[6.594773,51.30448]}},{"type":"Feature","properties":{"title":"Herbertzstraße I, Stichstraße (Spielplatz)","description":"","street":"Herbertzstraße","zip":47809,"city":"Krefeld","district":"Krefeld","tel":"","fax":"","mail":"","web":"http://www.krefeld.de/gruenflaechen","lat":51.325398,"lng":6.596087},"geometry":{"type":"Point","coordinates":[6.596087,51.325398]}},{"type":"Feature","properties":{"title":"Hermannstraße (Spielplatz)","description":"mit Basketballanlage","street":"Hermannstraße","zip":47798,"city":"Krefeld","district":"Krefeld","tel":"","fax":"","mail":"","web":"http://www.krefeld.de/gruenflaechen","lat":51.324877,"lng":6.551659},"geometry":{"type":"Point","coordinates":[6.551659,51.324877]}},{"type":"Feature","properties":{"title":"Hinsbecker Straße / Aldekerker Straße (Spielplatz)","description":"Bolzplatz","street":"Hinsbecker Straße","zip":47804,"city":"Krefeld","district":"Krefeld","tel":"","fax":"","mail":"","web":"http://www.krefeld.de/gruenflaechen","lat":51.322447,"lng":6.530121},"geometry":{"type":"Point","coordinates":[6.530121,51.322447]}},{"type":"Feature","properties":{"title":"Hölschen Dyk (Spielplatz)","description":"","street":"Hölschen Dyk","zip":47839,"city":"Krefeld","district":"Krefeld","tel":"","fax":"","mail":"","web":"http://www.krefeld.de/gruenflaechen","lat":51.375141,"lng":6.513813},"geometry":{"type":"Point","coordinates":[6.513813,51.375141]}},{"type":"Feature","properties":{"title":"Melanchthonstraße (Spielplatz)","description":"mit Basketballanlage","street":"Melanchthonstraße","zip":47805,"city":"Krefeld","district":"Krefeld","tel":"","fax":"","mail":"","web":"http://www.krefeld.de/gruenflaechen","lat":51.322306,"lng":6.565237},"geometry":{"type":"Point","coordinates":[6.565237,51.322306]}},{"type":"Feature","properties":{"title":"Molanusstraße (Spielplatz)","description":"","street":"Molanusstraße","zip":47807,"city":"Krefeld","district":"Krefeld","tel":"02151/86-3262","fax":"","mail":"angela.schaefer@krefeld.de","web":"https://www.krefeld.de/de/fb-67/oeffentliche-kinderspiel-und-bolzplaetze-in-krefeld/","lat":51.302586,"lng":6.599104},"geometry":{"type":"Point","coordinates":[6.599104,51.302586]}},{"type":"Feature","properties":{"title":"Mommenpesch II (Spielplatz)","description":"","street":"Mommenpesch","zip":47839,"city":"Krefeld","district":"Krefeld","tel":"","fax":"","mail":"","web":"http://www.krefeld.de/gruenflaechen","lat":51.369306,"lng":6.518018},"geometry":{"type":"Point","coordinates":[6.518018,51.369306]}},{"type":"Feature","properties":{"title":"Moritzplatz (Spielplatz)","description":"","street":"Moritzplatz","zip":47803,"city":"Krefeld","district":"Krefeld","tel":"","fax":"","mail":"","web":"http://www.krefeld.de/gruenflaechen","lat":51.344336,"lng":6.549158},"geometry":{"type":"Point","coordinates":[6.549158,51.344336]}},{"type":"Feature","properties":{"title":"St. Huberter Landstraße (Spielplatz)","description":"mit Rollhockey- und Beachvolleyballfläche und Dirt-Bike-Anlage","street":"St. Huberter Landstraße","zip":47839,"city":"Krefeld","district":"Krefeld","tel":"","fax":"","mail":"","web":"http://www.krefeld.de/gruenflaechen","lat":51.376549,"lng":6.498698},"geometry":{"type":"Point","coordinates":[6.498698,51.376549]}},{"type":"Feature","properties":{"title":"Höppnerstraße im Osten (Spielplatz)","description":"","street":"Höppnerstraße","zip":47809,"city":"Krefeld","district":"Krefeld","tel":"","fax":"","mail":"","web":"http://www.krefeld.de/gruenflaechen","lat":51.338447,"lng":6.622249},"geometry":{"type":"Point","coordinates":[6.622249,51.338447]}},{"type":"Feature","properties":{"title":"Hückelsmaystraße (Spielplatz)","description":"","street":"Hückelsmaystraße","zip":47804,"city":"Krefeld","district":"Krefeld","tel":"","fax":"","mail":"","web":"http://www.krefeld.de/gruenflaechen","lat":51.306599,"lng":6.519456},"geometry":{"type":"Point","coordinates":[6.519456,51.306599]}},{"type":"Feature","properties":{"title":"Im Talacker (Spielplatz)","description":"","street":"Im Talacker","zip":47829,"city":"Krefeld","district":"Krefeld","tel":"","fax":"","mail":"","web":"http://www.krefeld.de/gruenflaechen","lat":51.358497,"lng":6.628273},"geometry":{"type":"Point","coordinates":[6.628273,51.358497]}},{"type":"Feature","properties":{"title":"Inrather Straße (Spielplatz)","description":"","street":"Inrather Straße","zip":47803,"city":"Krefeld","district":"Krefeld","tel":"","fax":"","mail":"","web":"http://www.krefeld.de/gruenflaechen","lat":51.350654,"lng":6.540869},"geometry":{"type":"Point","coordinates":[6.540869,51.350654]}},{"type":"Feature","properties":{"title":"Jakob-Hüskes-Straße / Kreuzlückenstraße (Spielplatz)","description":"","street":"Jakob-Hüskes-Straße","zip":47839,"city":"Krefeld","district":"Krefeld","tel":"","fax":"","mail":"","web":"http://www.krefeld.de/gruenflaechen","lat":51.368602,"lng":6.520934},"geometry":{"type":"Point","coordinates":[6.520934,51.368602]}},{"type":"Feature","properties":{"title":"Josef-Lenders-Dyk (Spielplatz)","description":"","street":"Josef-Lenders-Dyk","zip":47803,"city":"Krefeld","district":"Krefeld","tel":"","fax":"","mail":"","web":"http://www.krefeld.de/gruenflaechen","lat":51.351301,"lng":6.559981},"geometry":{"type":"Point","coordinates":[6.559981,51.351301]}},{"type":"Feature","properties":{"title":"Joseph-Görres-Straße (Spielplatz)","description":"","street":"Joseph-Görres-Straße","zip":47829,"city":"Krefeld","district":"Krefeld","tel":"","fax":"","mail":"","web":"http://www.krefeld.de/gruenflaechen","lat":51.351792,"lng":6.644587},"geometry":{"type":"Point","coordinates":[6.644587,51.351792]}},{"type":"Feature","properties":{"title":"Kaiserstraße / Kaiserpark (Spielplatz)","description":"","street":"Kaiserstraße","zip":47800,"city":"Krefeld","district":"Krefeld","tel":"","fax":"","mail":"","web":"http://www.krefeld.de/gruenflaechen","lat":51.344815,"lng":6.589989},"geometry":{"type":"Point","coordinates":[6.589989,51.344815]}},{"type":"Feature","properties":{"title":"Carl-Sonnenschein-Straße (Spielplatz)","description":"","street":"Carl-Sonnenschein-Straße","zip":47809,"city":"Krefeld","district":"Krefeld","tel":"","fax":"","mail":"","web":"http://www.krefeld.de/gruenflaechen","lat":51.343931,"lng":6.640968},"geometry":{"type":"Point","coordinates":[6.640968,51.343931]}},{"type":"Feature","properties":{"title":"Corneliusstraße (Spielplatz)","description":"","street":"Corneliusstraße","zip":47798,"city":"Krefeld","district":"Krefeld","tel":"","fax":"","mail":"","web":"http://www.krefeld.de/gruenflaechen","lat":51.327621,"lng":6.557326},"geometry":{"type":"Point","coordinates":[6.557326,51.327621]}},{"type":"Feature","properties":{"title":"Alter Deutscher Ring (Spielplatz)","description":"mit Basketballanlage","street":"Alter Deutscher Ring","zip":47798,"city":"Krefeld","district":"Krefeld","tel":"","fax":"","mail":"","web":"http://www.krefeld.de/gruenflaechen","lat":51.324202,"lng":6.563654},"geometry":{"type":"Point","coordinates":[6.563654,51.324202]}},{"type":"Feature","properties":{"title":"Dießemer Straße (Spielplatz)","description":"","street":"Dießemer Straße","zip":47799,"city":"Krefeld","district":"Krefeld","tel":"","fax":"","mail":"","web":"http://www.krefeld.de/gruenflaechen","lat":51.333124,"lng":6.577193},"geometry":{"type":"Point","coordinates":[6.577193,51.333124]}},{"type":"Feature","properties":{"title":"Engerstraße (Spielplatz)","description":"mit Bolzplatz","street":"Engerstraße","zip":47800,"city":"Krefeld","district":"Krefeld","tel":"","fax":"","mail":"","web":"http://www.krefeld.de/gruenflaechen","lat":51.351542,"lng":6.599071},"geometry":{"type":"Point","coordinates":[6.599071,51.351542]}},{"type":"Feature","properties":{"title":"Kaiser-Wilhelm-Park / Von-Steuben-Straße (Spielplatz)","description":"","street":"Von-Steuben-Straße","zip":47803,"city":"Krefeld","district":"Krefeld","tel":"","fax":"","mail":"","web":"http://www.krefeld.de/gruenflaechen","lat":51.336705,"lng":6.549197},"geometry":{"type":"Point","coordinates":[6.549197,51.336705]}},{"type":"Feature","properties":{"title":"Kanesdyk (Spielplatz)","description":"mit Bolzplatz und Basketballanlage","street":"Kanesdyk","zip":47803,"city":"Krefeld","district":"Krefeld","tel":"","fax":"","mail":"","web":"http://www.krefeld.de/gruenflaechen","lat":51.350975,"lng":6.546881},"geometry":{"type":"Point","coordinates":[6.546881,51.350975]}},{"type":"Feature","properties":{"title":"Kempener Allee (Spielplatz)","description":"mit Basketballanlage","street":"Kempener Allee","zip":47803,"city":"Krefeld","district":"Krefeld","tel":"","fax":"","mail":"","web":"http://www.krefeld.de/gruenflaechen","lat":51.345467,"lng":6.523598},"geometry":{"type":"Point","coordinates":[6.523598,51.345467]}},{"type":"Feature","properties":{"title":"Kleestraße / Rapsstraße (Spielplatz)","description":"","street":"Kleestraße","zip":47839,"city":"Krefeld","district":"Krefeld","tel":"","fax":"","mail":"","web":"http://www.krefeld.de/gruenflaechen","lat":51.373906,"lng":6.501771},"geometry":{"type":"Point","coordinates":[6.501771,51.373906]}},{"type":"Feature","properties":{"title":"Fungendonk (Spielplatz)","description":"","street":"Fungendonk","zip":47809,"city":"Krefeld","district":"Krefeld","tel":"","fax":"","mail":"","web":"http://www.krefeld.de/gruenflaechen","lat":51.319056,"lng":6.609006},"geometry":{"type":"Point","coordinates":[6.609006,51.319056]}},{"type":"Feature","properties":{"title":"Fütingsweg (Spielplatz)","description":"mit Bolz-, Rollhockeyfläche und Basketballanlage","street":"Fütingsweg","zip":47805,"city":"Krefeld","district":"Krefeld","tel":"","fax":"","mail":"","web":"http://www.krefeld.de/gruenflaechen","lat":51.32314,"lng":6.579719},"geometry":{"type":"Point","coordinates":[6.579719,51.32314]}},{"type":"Feature","properties":{"title":"Engländerstraße (Spielplatz)","description":"","street":"Engländerstraße","zip":47804,"city":"Krefeld","district":"Krefeld","tel":"","fax":"","mail":"","web":"http://www.krefeld.de/gruenflaechen","lat":51.323335,"lng":6.547247},"geometry":{"type":"Point","coordinates":[6.547247,51.323335]}},{"type":"Feature","properties":{"title":"Erikapfad (Spielplatz)","description":"","street":"Erikapfad","zip":47804,"city":"Krefeld","district":"Krefeld","tel":"","fax":"","mail":"","web":"http://www.krefeld.de/gruenflaechen","lat":51.307505,"lng":6.508869},"geometry":{"type":"Point","coordinates":[6.508869,51.307505]}},{"type":"Feature","properties":{"title":"Kölner Straße im Freizeitzentrum Süd (Spielplatz)","description":"mit Bolzplatz, Beachvolleyballfläche und Basketballanlage","street":"Kölner Straße 190","zip":47805,"city":"Krefeld","district":"Krefeld","tel":"","fax":"","mail":"","web":"http://www.krefeld.de/gruenflaechen","lat":51.318831,"lng":6.57561},"geometry":{"type":"Point","coordinates":[6.57561,51.318831]}},{"type":"Feature","properties":{"title":"Lange Straße / Alte Krefelder Straße (Spielplatz)","description":"Skateranlage","street":"Lange Straße","zip":47829,"city":"Krefeld","district":"Krefeld","tel":"","fax":"","mail":"","web":"http://www.krefeld.de/gruenflaechen","lat":51.351749,"lng":6.640009},"geometry":{"type":"Point","coordinates":[6.640009,51.351749]}},{"type":"Feature","properties":{"title":"Reinersweg (Spielplatz)","description":"mit Bolzplatz und Basketballanlage","street":"Reinersweg","zip":47805,"city":"Krefeld","district":"Krefeld","tel":"","fax":"","mail":"","web":"http://www.krefeld.de/gruenflaechen","lat":51.315699,"lng":6.564374},"geometry":{"type":"Point","coordinates":[6.564374,51.315699]}},{"type":"Feature","properties":{"title":"Eschenweg (Spielplatz)","description":"","street":"Eschenweg","zip":47804,"city":"Krefeld","district":"Krefeld","tel":"","fax":"","mail":"","web":"http://www.krefeld.de/gruenflaechen","lat":51.30678,"lng":6.512761},"geometry":{"type":"Point","coordinates":[6.512761,51.30678]}},{"type":"Feature","properties":{"title":"Fasanenstraße (Spielplatz)","description":"mit Bolzplatz","street":"Fasanenstraße","zip":47829,"city":"Krefeld","district":"Krefeld","tel":"","fax":"","mail":"","web":"http://www.krefeld.de/gruenflaechen","lat":51.347486,"lng":6.628569},"geometry":{"type":"Point","coordinates":[6.628569,51.347486]}},{"type":"Feature","properties":{"title":"Friedlandstraße (Spielplatz)","description":"mit Bolzplatz","street":"Friedlandstraße","zip":47829,"city":"Krefeld","district":"Krefeld","tel":"","fax":"","mail":"","web":"http://www.krefeld.de/gruenflaechen","lat":51.361076,"lng":6.627703},"geometry":{"type":"Point","coordinates":[6.627703,51.361076]}},{"type":"Feature","properties":{"title":"Friedrich-Fröbel-Straße (Spielplatz)","description":"","street":"Friedrich-Fröbel-Straße","zip":47804,"city":"Krefeld","district":"Krefeld","tel":"","fax":"","mail":"","web":"http://www.krefeld.de/gruenflaechen","lat":51.316816,"lng":6.538785},"geometry":{"type":"Point","coordinates":[6.538785,51.316816]}},{"type":"Feature","properties":{"title":"Gatherhofstraße (Spielplatz)","description":"","street":"Gatherhofstraße","zip":47804,"city":"Krefeld","district":"Krefeld","tel":"","fax":"","mail":"","web":"http://www.krefeld.de/gruenflaechen","lat":51.319205,"lng":6.526366},"geometry":{"type":"Point","coordinates":[6.526366,51.319205]}},{"type":"Feature","properties":{"title":"Geldernsche Straße (Spielplatz)","description":"","street":"Geldernsche Straße","zip":47798,"city":"Krefeld","district":"Krefeld","tel":"","fax":"","mail":"","web":"http://www.krefeld.de/gruenflaechen","lat":51.340507,"lng":6.555594},"geometry":{"type":"Point","coordinates":[6.555594,51.340507]}},{"type":"Feature","properties":{"title":"Giesenweg (Spielplatz)","description":"","street":"Giesenweg","zip":47809,"city":"Krefeld","district":"Krefeld","tel":"","fax":"","mail":"","web":"http://www.krefeld.de/gruenflaechen","lat":51.333677,"lng":6.610021},"geometry":{"type":"Point","coordinates":[6.610021,51.333677]}},{"type":"Feature","properties":{"title":"Lefarthstraße (Spielplatz)","description":"","street":"Lefarthstraße","zip":47807,"city":"Krefeld","district":"Krefeld","tel":"","fax":"","mail":"","web":"http://www.krefeld.de/gruenflaechen","lat":51.314598,"lng":6.578994},"geometry":{"type":"Point","coordinates":[6.578994,51.314598]}},{"type":"Feature","properties":{"title":"Lübecker Weg (Spielplatz)","description":"mit Spielwiese und Wasser vor Ort","street":"Lübecker Weg","zip":47829,"city":"Krefeld","district":"Krefeld","tel":"","fax":"","mail":"","web":"http://www.krefeld.de/gruenflaechen","lat":51.353648,"lng":6.629298},"geometry":{"type":"Point","coordinates":[6.629298,51.353648]}},{"type":"Feature","properties":{"title":"Maasweg (Spielplatz)","description":"","street":"Maasweg","zip":47807,"city":"Krefeld","district":"Krefeld","tel":"","fax":"","mail":"","web":"http://www.krefeld.de/gruenflaechen","lat":51.297922,"lng":6.586487},"geometry":{"type":"Point","coordinates":[6.586487,51.297922]}},{"type":"Feature","properties":{"title":"Margaretenstraße / Burgpark Linn (Spielplatz)","description":"","street":"Margaretenstraße","zip":47809,"city":"Krefeld","district":"Krefeld","tel":"","fax":"","mail":"","web":"http://www.krefeld.de/gruenflaechen","lat":51.332583,"lng":6.636462},"geometry":{"type":"Point","coordinates":[6.636462,51.332583]}},{"type":"Feature","properties":{"title":"Remscheider Straße (Spielplatz)","description":"","street":"Remscheider Straße","zip":47807,"city":"Krefeld","district":"Krefeld","tel":"","fax":"","mail":"","web":"http://www.krefeld.de/gruenflaechen","lat":51.308596,"lng":6.567807},"geometry":{"type":"Point","coordinates":[6.567807,51.308596]}},{"type":"Feature","properties":{"title":"Rickfeldsweg (Spielplatz)","description":"","street":"Rickfeldsweg","zip":47802,"city":"Krefeld","district":"Krefeld","tel":"","fax":"","mail":"","web":"http://www.krefeld.de/gruenflaechen","lat":51.365512,"lng":6.578114},"geometry":{"type":"Point","coordinates":[6.578114,51.365512]}},{"type":"Feature","properties":{"title":"Rislerdyk (Spielplatz)","description":"","street":"Rislerdyk","zip":47803,"city":"Krefeld","district":"Krefeld","tel":"","fax":"","mail":"","web":"http://www.krefeld.de/gruenflaechen","lat":51.347815,"lng":6.553128},"geometry":{"type":"Point","coordinates":[6.553128,51.347815]}},{"type":"Feature","properties":{"title":"Schönhausenpark, Hinter Schönhausen (Spielplatz)","description":"","street":"Hinter Schönhausen","zip":47800,"city":"Krefeld","district":"Krefeld","tel":"","fax":"","mail":"","web":"http://www.krefeld.de/gruenflaechen","lat":51.343373,"lng":6.603868},"geometry":{"type":"Point","coordinates":[6.603868,51.343373]}},{"type":"Feature","properties":{"title":"Schreinerstraße (Spielplatz)","description":"","street":"Schreinerstraße","zip":47809,"city":"Krefeld","district":"Krefeld","tel":"","fax":"","mail":"","web":"http://www.krefeld.de/gruenflaechen","lat":51.331952,"lng":6.60787},"geometry":{"type":"Point","coordinates":[6.60787,51.331952]}},{"type":"Feature","properties":{"title":"Jülicher Straße (Spielplatz)","description":"","street":"Jülicher Straße/Grevenbroicher Straße","zip":47807,"city":"Krefeld","district":"Krefeld","tel":"02151/86-3262","fax":"","mail":"angela.schaefer@krefeld.de","web":"https://www.krefeld.de/de/fb-67/oeffentliche-kinderspiel-und-bolzplaetze-in-krefeld/","lat":51.305818,"lng":6.580098},"geometry":{"type":"Point","coordinates":[6.580098,51.305818]}},{"type":"Feature","properties":{"title":"Gutenbergstraße (Spielplatz)","description":"Bolzplatz","street":"Gutenbergstraße","zip":47798,"city":"Krefeld","district":"Krefeld","tel":"","fax":"","mail":"","web":"http://www.krefeld.de/gruenflaechen","lat":51.32863,"lng":6.547152},"geometry":{"type":"Point","coordinates":[6.547152,51.32863]}},{"type":"Feature","properties":{"title":"Marktstraße, Blockinnenbereich (Spielplatz)","description":"für Kinder bis 6 Jahre","street":"Marktstraße 88","zip":47798,"city":"Krefeld","district":"Krefeld","tel":"","fax":"","mail":"","web":"http://www.krefeld.de/gruenflaechen","lat":51.328738,"lng":6.557336},"geometry":{"type":"Point","coordinates":[6.557336,51.328738]}},{"type":"Feature","properties":{"title":"Max-Petermann-Platz (Spielplatz)","description":"","street":"Max-Petermann-Platz","zip":47798,"city":"Krefeld","district":"Krefeld","tel":"","fax":"","mail":"","web":"http://www.krefeld.de/gruenflaechen","lat":51.328978,"lng":6.566126},"geometry":{"type":"Point","coordinates":[6.566126,51.328978]}},{"type":"Feature","properties":{"title":"Spinnereistraße (Spielplatz)","description":"","street":"Spinnereistraße","zip":47805,"city":"Krefeld","district":"Krefeld","tel":"","fax":"","mail":"","web":"http://www.krefeld.de/gruenflaechen","lat":51.314743,"lng":6.561125},"geometry":{"type":"Point","coordinates":[6.561125,51.314743]}},{"type":"Feature","properties":{"title":"Mülhausener Straße (Spielplatz)","description":"","street":"Mülhausener Straße","zip":47839,"city":"Krefeld","district":"Krefeld","tel":"","fax":"","mail":"","web":"http://www.krefeld.de/gruenflaechen","lat":51.377425,"lng":6.492618},"geometry":{"type":"Point","coordinates":[6.492618,51.377425]}},{"type":"Feature","properties":{"title":"Nauenweg / Alte Gladbacher Straße im Stadtpark Süd (Spielplatz)","description":"mit Bolzplatz und Beachvolleyballfläche","street":"Nauenweg","zip":47805,"city":"Krefeld","district":"Krefeld","tel":"","fax":"","mail":"","web":"http://www.krefeld.de/gruenflaechen","lat":51.321358,"lng":6.551385},"geometry":{"type":"Point","coordinates":[6.551385,51.321358]}},{"type":"Feature","properties":{"title":"Neuhofsweg (Spielplatz)","description":"mit Bolzplatz","street":"Neuhofsweg","zip":47829,"city":"Krefeld","district":"Krefeld","tel":"","fax":"","mail":"","web":"http://www.krefeld.de/gruenflaechen","lat":51.374405,"lng":6.619465},"geometry":{"type":"Point","coordinates":[6.619465,51.374405]}},{"type":"Feature","properties":{"title":"Neulandstraße / Vulkanstraße (Spielplatz)","description":"","street":"Neulandstraße","zip":47807,"city":"Krefeld","district":"Krefeld","tel":"","fax":"","mail":"","web":"http://www.krefeld.de/gruenflaechen","lat":51.310439,"lng":6.567172},"geometry":{"type":"Point","coordinates":[6.567172,51.310439]}},{"type":"Feature","properties":{"title":"Obergplatz (Spielplatz)","description":"","street":"Obergplatz","zip":47804,"city":"Krefeld","district":"Krefeld","tel":"","fax":"","mail":"","web":"http://www.krefeld.de/gruenflaechen","lat":51.329493,"lng":6.537678},"geometry":{"type":"Point","coordinates":[6.537678,51.329493]}},{"type":"Feature","properties":{"title":"Odenthalstraße (Spielplatz)","description":"","street":"Odenthalstraße","zip":47807,"city":"Krefeld","district":"Krefeld","tel":"","fax":"","mail":"","web":"http://www.krefeld.de/gruenflaechen","lat":51.300017,"lng":6.591979},"geometry":{"type":"Point","coordinates":[6.591979,51.300017]}},{"type":"Feature","properties":{"title":"Parkstraße Stadtpark II (Spielplatz)","description":"","street":"Parkstraße","zip":47829,"city":"Krefeld","district":"Krefeld","tel":"","fax":"","mail":"","web":"http://www.krefeld.de/gruenflaechen","lat":51.361934,"lng":6.637279},"geometry":{"type":"Point","coordinates":[6.637279,51.361934]}},{"type":"Feature","properties":{"title":"Paul-Hübner-Straße (Spielplatz)","description":"mit Bolzplatz","street":"Paul-Hübner-Straße","zip":47809,"city":"Krefeld","district":"Krefeld","tel":"","fax":"","mail":"","web":"http://www.krefeld.de/gruenflaechen","lat":51.335653,"lng":6.629237},"geometry":{"type":"Point","coordinates":[6.629237,51.335653]}},{"type":"Feature","properties":{"title":"Peter-Lauten-Straße (Spielplatz)","description":"","street":"Peter-Lauten-Straße","zip":47803,"city":"Krefeld","district":"Krefeld","tel":"","fax":"","mail":"","web":"http://www.krefeld.de/gruenflaechen","lat":51.331736,"lng":6.538107},"geometry":{"type":"Point","coordinates":[6.538107,51.331736]}},{"type":"Feature","properties":{"title":"Randstraße (Spielplatz)","description":"","street":"Randstraße","zip":47804,"city":"Krefeld","district":"Krefeld","tel":"","fax":"","mail":"","web":"http://www.krefeld.de/gruenflaechen","lat":51.315223,"lng":6.536758},"geometry":{"type":"Point","coordinates":[6.536758,51.315223]}},{"type":"Feature","properties":{"title":"Randstraße: Bolzplatz (Spielplatz)","description":"Bolzplatz","street":"Randstraße","zip":47804,"city":"Krefeld","district":"Krefeld","tel":"","fax":"","mail":"","web":"http://www.krefeld.de/gruenflaechen","lat":51.320061,"lng":6.54203},"geometry":{"type":"Point","coordinates":[6.54203,51.320061]}},{"type":"Feature","properties":{"title":"Reichsstraße / Freiheitsstraße (Spielplatz)","description":"","street":"Reichsstraße","zip":47804,"city":"Krefeld","district":"Krefeld","tel":"","fax":"","mail":"","web":"http://www.krefeld.de/gruenflaechen","lat":51.319153,"lng":6.538433},"geometry":{"type":"Point","coordinates":[6.538433,51.319153]}},{"type":"Feature","properties":{"title":"Traarer Straße / Autobahnunterführung (Spielplatz)","description":"Bolzplatz","street":"Traarer Straße","zip":47829,"city":"Krefeld","district":"Krefeld","tel":"","fax":"","mail":"","web":"http://www.krefeld.de/gruenflaechen","lat":51.360111,"lng":6.625632},"geometry":{"type":"Point","coordinates":[6.625632,51.360111]}},{"type":"Feature","properties":{"title":"Herbertzstraße II hinter der Kindertagesstätte (Spielplatz)","description":"mit Bolzplatz","street":"Herbertzstraße","zip":47809,"city":"Krefeld","district":"Krefeld","tel":"","fax":"","mail":"","web":"http://www.krefeld.de/gruenflaechen","lat":51.324267,"lng":6.597411},"geometry":{"type":"Point","coordinates":[6.597411,51.324267]}},{"type":"Feature","properties":{"title":"Canisiusstraße (Spielplatz)","description":"","street":"Canisiusstraße","zip":47803,"city":"Krefeld","district":"Krefeld","tel":"","fax":"","mail":"","web":"http://www.krefeld.de/gruenflaechen","lat":51.338591,"lng":6.540899},"geometry":{"type":"Point","coordinates":[6.540899,51.338591]}},{"type":"Feature","properties":{"title":"Grundschule Horkesgath (Spielplatz)","description":"bespielbarer Schulhof mit eingeschränkten Öffnungszeiten, mit Bolzplatz, Rollschuhfläche und Basketballanlage","street":"Horkesgath 50","zip":47803,"city":"Krefeld","district":"Krefeld","tel":"","fax":"","mail":"","web":"http://www.krefeld.de/gruenflaechen","lat":51.331561,"lng":6.528871},"geometry":{"type":"Point","coordinates":[6.528871,51.331561]}},{"type":"Feature","properties":{"title":"Kleingartenanlage Rosengarten (Spielplatz)","description":"Spielplatz in Kleingartenanlage mit eingeschränkten Öffnungszeiten","street":"Kanesdyk","zip":47803,"city":"Krefeld","district":"Krefeld","tel":"","fax":"","mail":"","web":"http://www.krefeld.de/gruenflaechen","lat":51.351463,"lng":6.549833},"geometry":{"type":"Point","coordinates":[6.549833,51.351463]}},{"type":"Feature","properties":{"title":"Kleingartenanlage Röck-Stöck (Spielplatz)","description":"Spielplatz in Kleingartenanlage mit eingeschränkten Öffnungszeiten","street":"Schöneberger Straße","zip":47807,"city":"Krefeld","district":"Krefeld","tel":"","fax":"","mail":"","web":"http://www.krefeld.de/gruenflaechen","lat":51.313885,"lng":6.598648},"geometry":{"type":"Point","coordinates":[6.598648,51.313885]}},{"type":"Feature","properties":{"title":"Elfrather See (Spielplatz)","description":"Familienspielplatz","street":"Parkstraße","zip":47829,"city":"Krefeld","district":"Krefeld","tel":"02151/471009","fax":"","mail":"","web":"http://www.krefeld.de/sportundbaeder","lat":51.386835,"lng":6.629355},"geometry":{"type":"Point","coordinates":[6.629355,51.386835]}},{"type":"Feature","properties":{"title":"Kleingartenanlage Westpark (Spielplatz)","description":"Spielplatz in Kleingartenanlage mit eingeschränkten Öffnungszeiten","street":"Kempener Allee / Birkschenweg","zip":47803,"city":"Krefeld","district":"Krefeld","tel":"","fax":"","mail":"","web":"http://www.krefeld.de/gruenflaechen","lat":51.341137,"lng":6.533802},"geometry":{"type":"Point","coordinates":[6.533802,51.341137]}},{"type":"Feature","properties":{"title":"Kleingartenanlage Birkschenweg (Spielplatz)","description":"Spielplatz in Kleingartenanlage mit eingeschränkten Öffnungszeiten","street":"Birkschenweg","zip":47803,"city":"Krefeld","district":"Krefeld","tel":"","fax":"","mail":"","web":"http://www.krefeld.de/gruenflaechen","lat":51.343166,"lng":6.536545},"geometry":{"type":"Point","coordinates":[6.536545,51.343166]}},{"type":"Feature","properties":{"title":"Hardenbergplatz (Spielplatz)","description":"Bolzplatz auf dem Sprödentalplatz","street":"Sprödentalstraße","zip":47799,"city":"Krefeld","district":"Krefeld","tel":"","fax":"","mail":"","web":"http://www.krefeld.de/gruenflaechen","lat":51.335365,"lng":6.585073},"geometry":{"type":"Point","coordinates":[6.585073,51.335365]}},{"type":"Feature","properties":{"title":"Maria-Sibylla-Merian-Gymnasium (Spielplatz)","description":"bespielbarer Schulhof mit eingeschränkten Öffnungszeiten","street":"Johannes-Blum-Straße 101","zip":47807,"city":"Krefeld","district":"Krefeld","tel":"92151/3766-0","fax":"","mail":"msm.kr@gmx.de","web":"http://www.msm-gymnasium-krefeld.de","lat":51.312547,"lng":6.584133},"geometry":{"type":"Point","coordinates":[6.584133,51.312547]}},{"type":"Feature","properties":{"title":"Verhuvenplatz (Spielplatz)","description":"","street":"Verhuvenplatz","zip":47839,"city":"Krefeld","district":"Krefeld","tel":"02151/863262","fax":"","mail":"fb67@krefeld.de","web":"https://www.krefeld.de/de/gruenflaechen/oeffentliche-kinderspiel-und-bolzplaetze-in-krefeld/","lat":51.372578,"lng":6.502157},"geometry":{"type":"Point","coordinates":[6.502157,51.372578]}},{"type":"Feature","properties":{"title":"Buchenschule (Spielplatz)","description":"bespielbarer Schulhof mit eingeschränkten Öffnungszeiten","street":"Buchenstraße 28","zip":47805,"city":"Krefeld","district":"Krefeld","tel":"02151/399164","fax":"","mail":"buchenschule@t-online.de","web":"http://www.buchenschule.de","lat":51.321657,"lng":6.561056},"geometry":{"type":"Point","coordinates":[6.561056,51.321657]}},{"type":"Feature","properties":{"title":"Steckendorfer Straße im Kaiser-Friedrich-Hain (Spielplatz)","description":"","street":"Steckendorfer Straße","zip":47799,"city":"Krefeld","district":"Krefeld","tel":"","fax":"","mail":"","web":"http://www.krefeld.de/gruenflaechen","lat":51.337544,"lng":6.568336},"geometry":{"type":"Point","coordinates":[6.568336,51.337544]}},{"type":"Feature","properties":{"title":"Sollbrüggenschule (Spielplatz)","description":"bespielbarer Schulhof mit eingeschränkten Öffnungszeiten","street":"Sollbrüggenstraße 81","zip":47800,"city":"Krefeld","district":"Krefeld","tel":"02151/592625","fax":"","mail":"kgs.sollbrueggen@t-online.de","web":"http://www.sollbrueggenschule.de","lat":51.34665,"lng":6.613245},"geometry":{"type":"Point","coordinates":[6.613245,51.34665]}},{"type":"Feature","properties":{"title":"Stadtwaldwiese, Hüttenallee (Spielplatz)","description":"mit Bolzplatz","street":"Hüttenallee","zip":47800,"city":"Krefeld","district":"Krefeld","tel":"","fax":"","mail":"","web":"http://www.krefeld.de/gruenflaechen","lat":51.352519,"lng":6.582997},"geometry":{"type":"Point","coordinates":[6.582997,51.352519]}},{"type":"Feature","properties":{"title":"Stadtgarten (Spielplatz)","description":"","street":"Stadtgarten","zip":47798,"city":"Krefeld","district":"Krefeld","tel":"","fax":"","mail":"","web":"http://www.krefeld.de/gruenflaechen","lat":51.333714,"lng":6.551098},"geometry":{"type":"Point","coordinates":[6.551098,51.333714]}},{"type":"Feature","properties":{"title":"Stratumer Feld (Spielplatz)","description":"","street":"Stratumer Feld","zip":47809,"city":"Krefeld","district":"Krefeld","tel":"","fax":"","mail":"","web":"http://www.krefeld.de/gruenflaechen","lat":51.32845,"lng":6.669676},"geometry":{"type":"Point","coordinates":[6.669676,51.32845]}},{"type":"Feature","properties":{"title":"Albrechtplatz (Spielplatz)","description":"Wasser vor Ort","street":"Albrechtplatz","zip":47799,"city":"Krefeld","district":"Krefeld","tel":"","fax":"","mail":"","web":"http://www.krefeld.de/gruenflaechen","lat":51.329028,"lng":6.570792},"geometry":{"type":"Point","coordinates":[6.570792,51.329028]}},{"type":"Feature","properties":{"title":"Am Hagelkreuz (Spielplatz)","description":"","street":"Am Hagelkreuz","zip":47839,"city":"Krefeld","district":"Krefeld","tel":"","fax":"","mail":"","web":"http://www.krefeld.de/gruenflaechen","lat":51.38322,"lng":6.505736},"geometry":{"type":"Point","coordinates":[6.505736,51.38322]}},{"type":"Feature","properties":{"title":"Kleingartenanlage Oppum-Erholung (Spielplatz)","description":"Spielplatz in Kleingartenanlage mit eingeschränkten Öffnungszeiten","street":"Griesbacher Straße / Untergath","zip":47809,"city":"Krefeld","district":"Krefeld","tel":"","fax":"","mail":"","web":"http://www.krefeld.de/gruenflaechen","lat":51.324838,"lng":6.603643},"geometry":{"type":"Point","coordinates":[6.603643,51.324838]}},{"type":"Feature","properties":{"title":"Burgersstraße / Thyssenstraße (Spielplatz)","description":"mit Bolzplatz","street":"Burgersstraße","zip":47807,"city":"Krefeld","district":"Krefeld","tel":"","fax":"","mail":"","web":"http://www.krefeld.de/gruenflaechen","lat":51.307382,"lng":6.559451},"geometry":{"type":"Point","coordinates":[6.559451,51.307382]}},{"type":"Feature","properties":{"title":"Am Neuerhof (Spielplatz)","description":"","street":"Am Neuerhof","zip":47804,"city":"Krefeld","district":"Krefeld","tel":"","fax":"","mail":"","web":"http://www.krefeld.de/gruenflaechen","lat":51.326527,"lng":6.541812},"geometry":{"type":"Point","coordinates":[6.541812,51.326527]}},{"type":"Feature","properties":{"title":"Westwall (Spielplatz)","description":"","street":"Westwall 200","zip":47798,"city":"Krefeld","district":"Krefeld","tel":"02151/863262","fax":"","mail":"angela.schaefer@krefeld.de","web":"http://www.krefeld.de/de/gruenflaechen/oeffentliche-kinderspiel-und-bolzplaetze-in-krefeld/","lat":51.336759,"lng":6.555817},"geometry":{"type":"Point","coordinates":[6.555817,51.336759]}},{"type":"Feature","properties":{"title":"An de Welt (Spielplatz)","description":"","street":"An de Welt","zip":47807,"city":"Krefeld","district":"Krefeld","tel":"","fax":"","mail":"","web":"http://www.krefeld.de/gruenflaechen","lat":51.301435,"lng":6.583292},"geometry":{"type":"Point","coordinates":[6.583292,51.301435]}},{"type":"Feature","properties":{"title":"Blumenplatz (Spielplatz)","description":"","street":"Blumenplatz","zip":47798,"city":"Krefeld","district":"Krefeld","tel":"","fax":"","mail":"","web":"http://www.krefeld.de/gruenflaechen","lat":51.329616,"lng":6.550194},"geometry":{"type":"Point","coordinates":[6.550194,51.329616]}},{"type":"Feature","properties":{"title":"Stresemannstraße (Spielplatz)","description":"","street":"Stresemannstraße","zip":47803,"city":"Krefeld","district":"Krefeld","tel":"","fax":"","mail":"","web":"http://www.krefeld.de/gruenflaechen","lat":51.33231,"lng":6.54724},"geometry":{"type":"Point","coordinates":[6.54724,51.33231]}},{"type":"Feature","properties":{"title":"Wilmendyk, Stichstraße (Spielplatz)","description":"","street":"Wilmendyk","zip":47803,"city":"Krefeld","district":"Krefeld","tel":"","fax":"","mail":"","web":"http://www.krefeld.de/gruenflaechen","lat":51.346929,"lng":6.548474},"geometry":{"type":"Point","coordinates":[6.548474,51.346929]}},{"type":"Feature","properties":{"title":"Kleingartenanlage Fischeln (Spielplatz)","description":"Spielplatz in Kleingartenanlage mit eingeschränkten Öffnungszeiten","street":"Oberbruchstraße","zip":47807,"city":"Krefeld","district":"Krefeld","tel":"","fax":"","mail":"","web":"http://www.krefeld.de/gruenflaechen","lat":51.307972,"lng":6.596923},"geometry":{"type":"Point","coordinates":[6.596923,51.307972]}},{"type":"Feature","properties":{"title":"Kleingartenanlage Kirschenbüschgen (Spielplatz)","description":"Spielplatz in Kleingartenanlage mit eingeschränkten Öffnungszeiten","street":"Lange Straße / Alte Krefelder Straße","zip":47829,"city":"Krefeld","district":"Krefeld","tel":"","fax":"","mail":"","web":"http://www.krefeld.de/gruenflaechen","lat":51.347459,"lng":6.636551},"geometry":{"type":"Point","coordinates":[6.636551,51.347459]}},{"type":"Feature","properties":{"title":"Am Eickerhof (Spielplatz)","description":"","street":"Am Eickerhof","zip":47800,"city":"Krefeld","district":"Krefeld","tel":"","fax":"","mail":"","web":"http://www.krefeld.de/gruenflaechen","lat":51.349446,"lng":6.610427},"geometry":{"type":"Point","coordinates":[6.610427,51.349446]}},{"type":"Feature","properties":{"title":"Am Schützenhof (Spielplatz)","description":"","street":"Am Schützenhof","zip":47839,"city":"Krefeld","district":"Krefeld","tel":"","fax":"","mail":"","web":"http://www.krefeld.de/gruenflaechen","lat":51.362389,"lng":6.519771},"geometry":{"type":"Point","coordinates":[6.519771,51.362389]}},{"type":"Feature","properties":{"title":"Am Zollhof (Spielplatz)","description":"","street":"Am Zollhof","zip":47829,"city":"Krefeld","district":"Krefeld","tel":"","fax":"","mail":"","web":"http://www.krefeld.de/gruenflaechen","lat":51.356477,"lng":6.650718},"geometry":{"type":"Point","coordinates":[6.650718,51.356477]}},{"type":"Feature","properties":{"title":"An de Dreew (Spielplatz)","description":"mit Bolzplatz","street":"An de Dreew","zip":47839,"city":"Krefeld","district":"Krefeld","tel":"","fax":"","mail":"","web":"http://www.krefeld.de/gruenflaechen","lat":51.381406,"lng":6.512301},"geometry":{"type":"Point","coordinates":[6.512301,51.381406]}},{"type":"Feature","properties":{"title":"Wintersweg (Spielplatz)","description":"","street":"Wintersweg","zip":47839,"city":"Krefeld","district":"Krefeld","tel":"","fax":"","mail":"","web":"http://www.krefeld.de/gruenflaechen","lat":51.363255,"lng":6.515299},"geometry":{"type":"Point","coordinates":[6.515299,51.363255]}},{"type":"Feature","properties":{"title":"Zur Alten Schmiede (Spielplatz)","description":"","street":"Zur Alten Schmiede","zip":47804,"city":"Krefeld","district":"Krefeld","tel":"","fax":"","mail":"","web":"http://www.krefeld.de/gruenflaechen","lat":51.311493,"lng":6.535273},"geometry":{"type":"Point","coordinates":[6.535273,51.311493]}},{"type":"Feature","properties":{"title":"Friedrich-von-Bodelschwingh-Schule (Spielplatz)","description":"bespielbarer Schulhof mit eingeschränkten Öffnungszeiten","street":"Stettiner Straße 1","zip":47829,"city":"Krefeld","district":"Krefeld","tel":"02151/65209-0","fax":"","mail":"postmaster@slfvb.krefeld.schulen.net","web":"http://www.slfvb.krefeld.schulen.net","lat":51.36281,"lng":6.618158},"geometry":{"type":"Point","coordinates":[6.618158,51.36281]}},{"type":"Feature","properties":{"title":"Südwall (Spielplatz)","description":"","street":"Südwall","zip":47798,"city":"Krefeld","district":"Krefeld","tel":"","fax":"","mail":"","web":"http://www.krefeld.de/gruenflaechen","lat":51.327255,"lng":6.56196},"geometry":{"type":"Point","coordinates":[6.56196,51.327255]}},{"type":"Feature","properties":{"title":"Ter-Meer-Platz (Spielplatz)","description":"","street":"Ter-Meer-Platz","zip":47829,"city":"Krefeld","district":"Krefeld","tel":"","fax":"","mail":"","web":"http://www.krefeld.de/gruenflaechen","lat":51.364013,"lng":6.641284},"geometry":{"type":"Point","coordinates":[6.641284,51.364013]}},{"type":"Feature","properties":{"title":"Am Riddershof (Spielplatz)","description":"","street":"Am Riddershof","zip":47805,"city":"Krefeld","district":"Krefeld","tel":"","fax":"","mail":"","web":"http://www.krefeld.de/gruenflaechen","lat":51.327436,"lng":6.584742},"geometry":{"type":"Point","coordinates":[6.584742,51.327436]}},{"type":"Feature","properties":{"title":"Am Rotdorn (Spielplatz)","description":"","street":"Am Rotdorn","zip":47804,"city":"Krefeld","district":"Krefeld","tel":"","fax":"","mail":"","web":"http://www.krefeld.de/gruenflaechen","lat":51.293903,"lng":6.518512},"geometry":{"type":"Point","coordinates":[6.518512,51.293903]}},{"type":"Feature","properties":{"title":"Am Schroershof / Am Schirkeshof (Spielplatz)","description":"","street":"Am Schroershof","zip":47804,"city":"Krefeld","district":"Krefeld","tel":"","fax":"","mail":"","web":"http://www.krefeld.de/gruenflaechen","lat":51.327537,"lng":6.524352},"geometry":{"type":"Point","coordinates":[6.524352,51.327537]}},{"type":"Feature","properties":{"title":"Berufskolleg Vera Beckers (Spielplatz)","description":"bespielbarer Schulhof mit eingeschränkten Öffnungszeiten","street":"Girmesgath 131","zip":47803,"city":"Krefeld","district":"Krefeld","tel":"02151/62338-0","fax":"","mail":"info@bkvb.de","web":"http://www.bkvb.de","lat":51.340986,"lng":6.543238},"geometry":{"type":"Point","coordinates":[6.543238,51.340986]}},{"type":"Feature","properties":{"title":"Gymnasium am Moltkeplatz (Spielplatz)","description":"bespielbarer Schulhof mit eingeschränkten Öffnungszeiten","street":"Moltkeplatz 12","zip":47799,"city":"Krefeld","district":"Krefeld","tel":"02151/937110","fax":"","mail":"info@moltke.de","web":"http://www.moltke.de","lat":51.339546,"lng":6.579361},"geometry":{"type":"Point","coordinates":[6.579361,51.339546]}},{"type":"Feature","properties":{"title":"Am Barmannshof (Spielplatz)","description":"","street":"Am Barmannshof","zip":47802,"city":"Krefeld","district":"Krefeld","tel":"","fax":"","mail":"","web":"http://www.krefeld.de/gruenflaechen","lat":51.379554,"lng":6.596473},"geometry":{"type":"Point","coordinates":[6.596473,51.379554]}},{"type":"Feature","properties":{"title":"Am Böttershof (Spielplatz)","description":"mit Basketballanlage","street":"Am Böttershof","zip":47809,"city":"Krefeld","district":"Krefeld","tel":"","fax":"","mail":"","web":"http://www.krefeld.de/gruenflaechen","lat":51.321217,"lng":6.628167},"geometry":{"type":"Point","coordinates":[6.628167,51.321217]}},{"type":"Feature","properties":{"title":"Deutscher Ring (Bolzplatz)","description":"mit Basketballanlage","street":"Deutscher Ring","zip":47798,"city":"Krefeld","district":"Krefeld","tel":"","fax":"","mail":"","web":"http://www.krefeld.de/gruenflaechen","lat":51.323723,"lng":6.561001},"geometry":{"type":"Point","coordinates":[6.561001,51.323723]}},{"type":"Feature","properties":{"title":"Kurt-Tucholsky-Gesamtschule (Spielplatz)","description":"bespielbarer Schulhof mit eingeschränkten Öffnungszeiten","street":"Alte Gladbacher Straße 10","zip":47805,"city":"Krefeld","district":"Krefeld","tel":"02151/8375-0","fax":"","mail":"ktg-schulleitung@t-online.de","web":"http://www.kurt-tucholsky-gesamtschule.de","lat":51.32213,"lng":6.556266},"geometry":{"type":"Point","coordinates":[6.556266,51.32213]}},{"type":"Feature","properties":{"title":"Mosaikschule (Spielplatz)","description":"bespielbarer Schulhof mit eingeschränkten Öffnungszeiten","street":"Hofstraße 45","zip":47798,"city":"Krefeld","district":"Krefeld","tel":"02151/26167","fax":"","mail":"post@mosaikschule-krefeld.de","web":"http://www.mosaikschule-krefeld.de","lat":51.339204,"lng":6.553912},"geometry":{"type":"Point","coordinates":[6.553912,51.339204]}},{"type":"Feature","properties":{"title":"Kleingartenanlage Hagschinkel (Spielplatz)","description":"Spielplatz in Kleingartenanlage mit eingeschränkten Öffnungszeiten","street":"Duisburger Straße","zip":47829,"city":"Krefeld","district":"Krefeld","tel":"","fax":"","mail":"","web":"http://www.krefeld.de/gruenflaechen","lat":51.375887,"lng":6.648763},"geometry":{"type":"Point","coordinates":[6.648763,51.375887]}},{"type":"Feature","properties":{"title":"Brüder-Grimm-Schule (Spielplatz)","description":"bespielbarer Schulhof mit eingeschränkten Öffnungszeiten","street":"Freiligrathstraße 47","zip":47799,"city":"Krefeld","district":"Krefeld","tel":"02151/69781","fax":"","mail":"103160@schulen.nrw.de","web":"","lat":51.333614,"lng":6.579348},"geometry":{"type":"Point","coordinates":[6.579348,51.333614]}},{"type":"Feature","properties":{"title":"Mosaikschule (Teilstandort Felbelstraße, Spielplatz)","description":"bespielbarer Schulhof mit eingeschränkten Öffnungszeiten","street":"Felbelstraße 24","zip":47799,"city":"Krefeld","district":"Krefeld","tel":"02151/69309","fax":"","mail":"post@mosaikschule-krefeld.de","web":"http://www.mosaikschule-krefeld.de","lat":51.335933,"lng":6.567925},"geometry":{"type":"Point","coordinates":[6.567925,51.335933]}},{"type":"Feature","properties":{"title":"Lehmheide (Spielplatz)","description":"","street":"Lehmheide","zip":47805,"city":"Krefeld","district":"Krefeld","tel":"","fax":"","mail":"","web":"http://www.krefeld.de/de/gruenflaechen/oeffentliche-kinderspiel-und-bolzplaetze-in-krefeld/","lat":51.31529,"lng":6.556294},"geometry":{"type":"Point","coordinates":[6.556294,51.31529]}},{"type":"Feature","properties":{"title":"Stettiner Straße (Spielplatz)","description":"","street":"Stettiner Straße","zip":47829,"city":"Krefeld","district":"Krefeld","tel":"","fax":"","mail":"","web":"http://www.krefeld.de/gruenflaechen","lat":51.364602,"lng":6.617402},"geometry":{"type":"Point","coordinates":[6.617402,51.364602]}},{"type":"Feature","properties":{"title":"Taxusweg (Spielplatz)","description":"","street":"Taxusweg","zip":47829,"city":"Krefeld","district":"Krefeld","tel":"","fax":"","mail":"","web":"http://www.krefeld.de/gruenflaechen","lat":51.36477,"lng":6.613401},"geometry":{"type":"Point","coordinates":[6.613401,51.36477]}},{"type":"Feature","properties":{"title":"Kleingartenanlage Fasanenstraße (Spielplatz)","description":"Spielplatz in Kleingartenanlage mit eingeschränkten Öffnungszeiten","street":"Fasanenstraße","zip":47829,"city":"Krefeld","district":"Krefeld","tel":"","fax":"","mail":"","web":"http://www.krefeld.de/gruenflaechen","lat":51.347041,"lng":6.629661},"geometry":{"type":"Point","coordinates":[6.629661,51.347041]}},{"type":"Feature","properties":{"title":"Kleingartenanlage Inrath (Spielplatz)","description":"Spielplatz in Kleingartenanlage mit eingeschränkten Öffnungszeiten","street":"Inrather Straße","zip":47803,"city":"Krefeld","district":"Krefeld","tel":"","fax":"","mail":"","web":"http://www.krefeld.de/gruenflaechen","lat":51.35818,"lng":6.534786},"geometry":{"type":"Point","coordinates":[6.534786,51.35818]}},{"type":"Feature","properties":{"title":"Plankerdyk / Bruckersche Straße (Spielplatz)","description":"","street":"Plankerdyk","zip":47839,"city":"Krefeld","district":"Krefeld","tel":"","fax":"","mail":"","web":"http://www.krefeld.de/gruenflaechen","lat":51.365424,"lng":6.518564},"geometry":{"type":"Point","coordinates":[6.518564,51.365424]}},{"type":"Feature","properties":{"title":"Kleingartenanlage Sonnenblick (Spielplatz)","description":"Spielplatz in Kleingartenanlage mit eingeschränkten Öffnungszeiten","street":"Mühlenfeld","zip":47807,"city":"Krefeld","district":"Krefeld","tel":"","fax":"","mail":"","web":"http://www.krefeld.de/gruenflaechen","lat":51.309304,"lng":6.571882},"geometry":{"type":"Point","coordinates":[6.571882,51.309304]}},{"type":"Feature","properties":{"title":"Kleingartenanlage Mühlefeld (Spielplatz)","description":"Spielplatz in Kleingartenanlage mit eingeschränkten Öffnungszeiten","street":"Mühlenfeld","zip":47807,"city":"Krefeld","district":"Krefeld","tel":"","fax":"","mail":"","web":"http://www.krefeld.de/gruenflaechen","lat":51.309674,"lng":6.575161},"geometry":{"type":"Point","coordinates":[6.575161,51.309674]}},{"type":"Feature","properties":{"title":"Astrid-Lindgren-Schule (Spielplatz)","description":"bespielbarer Schulhof mit eingeschränkten Öffnungszeiten","street":"Amerner Straße 1","zip":47839,"city":"Krefeld","district":"Krefeld","tel":"02151/743873","fax":"","mail":"schule@ggs-huels.de","web":"http://www.ggs-huels.de","lat":51.376161,"lng":6.493143},"geometry":{"type":"Point","coordinates":[6.493143,51.376161]}},{"type":"Feature","properties":{"title":"Am Schicksbaum / Am Kempschen Weg (Spielplatz)","description":"für Kinder bis 6 Jahre","street":"Am Schicksbaum","zip":47804,"city":"Krefeld","district":"Krefeld","tel":"","fax":"","mail":"","web":"http://www.krefeld.de/gruenflaechen","lat":51.329065,"lng":6.528424},"geometry":{"type":"Point","coordinates":[6.528424,51.329065]}},{"type":"Feature","properties":{"title":"Mommenpesch I (Spielplatz)","description":"","street":"Mommenpesch","zip":47839,"city":"Krefeld","district":"Krefeld","tel":"","fax":"","mail":"","web":"http://www.krefeld.de/gruenflaechen","lat":51.36857,"lng":6.517441},"geometry":{"type":"Point","coordinates":[6.517441,51.36857]}},{"type":"Feature","properties":{"title":"Kleingartenanlage Oberbruch (Spielplatz)","description":"Spielplatz in Kleingartenanlage mit eingeschränkten Öffnungszeiten","street":"Oberbruchstraße","zip":47807,"city":"Krefeld","district":"Krefeld","tel":"","fax":"","mail":"","web":"http://www.krefeld.de/gruenflaechen","lat":51.309932,"lng":6.594412},"geometry":{"type":"Point","coordinates":[6.594412,51.309932]}},{"type":"Feature","properties":{"title":"Kleingartenanlage Hüls (Spielplatz)","description":"Spielplatz in Kleingartenanlage mit eingeschränkten Öffnungszeiten","street":"Mühlenweg / Am Kleckers","zip":47839,"city":"Krefeld","district":"Krefeld","tel":"","fax":"","mail":"","web":"http://www.krefeld.de/gruenflaechen","lat":51.369884,"lng":6.506632},"geometry":{"type":"Point","coordinates":[6.506632,51.369884]}},{"type":"Feature","properties":{"title":"Glindholzstraße (Spielplatz)","description":"","street":"Glindholzstraße","zip":47809,"city":"Krefeld","district":"Krefeld","tel":"","fax":"","mail":"","web":"http://www.krefeld.de/gruenflaechen","lat":51.334695,"lng":6.617132},"geometry":{"type":"Point","coordinates":[6.617132,51.334695]}},{"type":"Feature","properties":{"title":"Virchowstraße (Spielplatz)","description":"","street":"Virchowstraße","zip":47805,"city":"Krefeld","district":"Krefeld","tel":"","fax":"","mail":"","web":"http://www.krefeld.de/gruenflaechen","lat":51.323967,"lng":6.574855},"geometry":{"type":"Point","coordinates":[6.574855,51.323967]}},{"type":"Feature","properties":{"title":"Voltastraße / Voltaplatz (Spielplatz)","description":"Skater- und BMX-Anlage","street":"Voltastraße","zip":47805,"city":"Krefeld","district":"Krefeld","tel":"","fax":"","mail":"","web":"http://www.krefeld.de/gruenflaechen","lat":51.327201,"lng":6.577417},"geometry":{"type":"Point","coordinates":[6.577417,51.327201]}},{"type":"Feature","properties":{"title":"Waldnieler Straße (Spielplatz)","description":"","street":"Waldnieler Straße","zip":47839,"city":"Krefeld","district":"Krefeld","tel":"","fax":"","mail":"","web":"http://www.krefeld.de/gruenflaechen","lat":51.37515,"lng":6.494944},"geometry":{"type":"Point","coordinates":[6.494944,51.37515]}},{"type":"Feature","properties":{"title":"Weetekamp (Spielplatz)","description":"","street":"Weetekamp","zip":47809,"city":"Krefeld","district":"Krefeld","tel":"","fax":"","mail":"","web":"http://www.krefeld.de/gruenflaechen","lat":51.326533,"lng":6.609607},"geometry":{"type":"Point","coordinates":[6.609607,51.326533]}},{"type":"Feature","properties":{"title":"Weggenhofstraße (Spielplatz)","description":"","street":"Weggenhofstraße","zip":47798,"city":"Krefeld","district":"Krefeld","tel":"","fax":"","mail":"","web":"http://www.krefeld.de/gruenflaechen","lat":51.341412,"lng":6.558802},"geometry":{"type":"Point","coordinates":[6.558802,51.341412]}},{"type":"Feature","properties":{"title":"Traarer Straße (Spielplatz)","description":"","street":"Traarer Straße","zip":47829,"city":"Krefeld","district":"Krefeld","tel":"","fax":"","mail":"","web":"http://www.krefeld.de/gruenflaechen","lat":51.362359,"lng":6.616832},"geometry":{"type":"Point","coordinates":[6.616832,51.362359]}},{"type":"Feature","properties":{"title":"Trift / Weiden (Spielplatz)","description":"","street":"Trift","zip":47809,"city":"Krefeld","district":"Krefeld","tel":"","fax":"","mail":"","web":"http://www.krefeld.de/gruenflaechen","lat":51.3282,"lng":6.599945},"geometry":{"type":"Point","coordinates":[6.599945,51.3282]}},{"type":"Feature","properties":{"title":"Vadersstraße / Am Sonnenhof (Spielplatz)","description":"","street":"Vadersstraße","zip":47800,"city":"Krefeld","district":"Krefeld","tel":"","fax":"","mail":"","web":"http://www.krefeld.de/gruenflaechen","lat":51.341061,"lng":6.607028},"geometry":{"type":"Point","coordinates":[6.607028,51.341061]}},{"type":"Feature","properties":{"title":"Büdericher Weg (Spielplatz)","description":"","street":"Büdericher Weg","zip":47807,"city":"Krefeld","district":"Krefeld","tel":"","fax":"","mail":"","web":"http://www.krefeld.de/gruenflaechen","lat":51.29471,"lng":6.592495},"geometry":{"type":"Point","coordinates":[6.592495,51.29471]}},{"type":"Feature","properties":{"title":"Braunschweiger Platz (Spielplatz)","description":"","street":"Braunschweiger Platz","zip":47829,"city":"Krefeld","district":"Krefeld","tel":"","fax":"","mail":"","web":"http://www.krefeld.de/gruenflaechen","lat":51.361218,"lng":6.645243},"geometry":{"type":"Point","coordinates":[6.645243,51.361218]}},{"type":"Feature","properties":{"title":"Bruchhöfe (Spielplatz)","description":"","street":"Bruchhöfe","zip":47829,"city":"Krefeld","district":"Krefeld","tel":"","fax":"","mail":"","web":"http://www.krefeld.de/gruenflaechen","lat":51.371432,"lng":6.619193},"geometry":{"type":"Point","coordinates":[6.619193,51.371432]}},{"type":"Feature","properties":{"title":"An der Roßmühle (Spielplatz)","description":"","street":"An der Roßmühle","zip":47839,"city":"Krefeld","district":"Krefeld","tel":"","fax":"","mail":"","web":"http://www.krefeld.de/gruenflaechen","lat":51.372686,"lng":6.499834},"geometry":{"type":"Point","coordinates":[6.499834,51.372686]}},{"type":"Feature","properties":{"title":"Arndtstraße (Spielplatz)","description":"mit Bolzplatz","street":"Arndtstraße","zip":47829,"city":"Krefeld","district":"Krefeld","tel":"","fax":"","mail":"","web":"http://www.krefeld.de/gruenflaechen","lat":51.352418,"lng":6.636536},"geometry":{"type":"Point","coordinates":[6.636536,51.352418]}},{"type":"Feature","properties":{"title":"Arnsweg (Spielplatz)","description":"","street":"Arnsweg","zip":47802,"city":"Krefeld","district":"Krefeld","tel":"","fax":"","mail":"","web":"http://www.krefeld.de/gruenflaechen","lat":51.380003,"lng":6.593024},"geometry":{"type":"Point","coordinates":[6.593024,51.380003]}},{"type":"Feature","properties":{"title":"Behringstraße (Spielplatz)","description":"mit Bolzplatz","street":"Behringstraße","zip":47829,"city":"Krefeld","district":"Krefeld","tel":"","fax":"","mail":"","web":"http://www.krefeld.de/gruenflaechen","lat":51.36572,"lng":6.644358},"geometry":{"type":"Point","coordinates":[6.644358,51.36572]}},{"type":"Feature","properties":{"title":"Biebricherstraße (Spielplatz)","description":"","street":"Biebricherstraße","zip":47802,"city":"Krefeld","district":"Krefeld","tel":"","fax":"","mail":"","web":"http://www.krefeld.de/gruenflaechen","lat":51.367596,"lng":6.569062},"geometry":{"type":"Point","coordinates":[6.569062,51.367596]}},{"type":"Feature","properties":{"title":"Bischofstraße (Spielplatz)","description":"","street":"Bischofstraße","zip":47809,"city":"Krefeld","district":"Krefeld","tel":"","fax":"","mail":"","web":"http://www.krefeld.de/gruenflaechen","lat":51.327772,"lng":6.619285},"geometry":{"type":"Point","coordinates":[6.619285,51.327772]}},{"type":"Feature","properties":{"title":"Am Kempschen Weg (Spielplatz)","description":"mit Beachvolleyballfläche","street":"Am Kempschen Weg","zip":47804,"city":"Krefeld","district":"Krefeld","tel":"","fax":"","mail":"","web":"http://www.krefeld.de/gruenflaechen","lat":51.329158,"lng":6.526655},"geometry":{"type":"Point","coordinates":[6.526655,51.329158]}},{"type":"Feature","properties":{"title":"Am Moenigshof (Spielplatz)","description":"","street":"Am Moenigshof","zip":47804,"city":"Krefeld","district":"Krefeld","tel":"","fax":"","mail":"","web":"http://www.krefeld.de/gruenflaechen","lat":51.329313,"lng":6.52336},"geometry":{"type":"Point","coordinates":[6.52336,51.329313]}},{"type":"Feature","properties":{"title":"Am Mörterhof (Spielplatz)","description":"für Kinder bis 6 Jahre","street":"Am Mörterhof","zip":47804,"city":"Krefeld","district":"Krefeld","tel":"","fax":"","mail":"","web":"http://www.krefeld.de/gruenflaechen","lat":51.329399,"lng":6.521648},"geometry":{"type":"Point","coordinates":[6.521648,51.329399]}},{"type":"Feature","properties":{"title":"Josefschule (Spielplatz)","description":"bespielbarer Schulhof mit eingeschränkten Öffnungszeiten","street":"An der Josefkirche 2","zip":47798,"city":"Krefeld","district":"Krefeld","tel":"02151/772065","fax":"","mail":"josefschule@schulen.krefeld.de","web":"http://www.josefschule-krefeld.de","lat":51.327068,"lng":6.556924},"geometry":{"type":"Point","coordinates":[6.556924,51.327068]}},{"type":"Feature","properties":{"title":"Dahlerdyk (Spielplatz)","description":"","street":"Dahlerdyk","zip":47803,"city":"Krefeld","district":"Krefeld","tel":"02151/863262","fax":"","mail":"fb67@krefeld.de","web":"https://www.krefeld.de/de/gruenflaechen/oeffentliche-kinderspiel-und-bolzplaetze-in-krefeld/","lat":51.344912,"lng":6.565235},"geometry":{"type":"Point","coordinates":[6.565235,51.344912]}},{"type":"Feature","properties":{"title":"Schönwasserschule (Spielplatz)","description":"bespielbarer Schulhof mit eingeschränkten Öffnungszeiten","street":"Thielenstraße 40","zip":47809,"city":"Krefeld","district":"Krefeld","tel":"02151/540731","fax":"","mail":"102970@schule.nrw.de","web":"http://www.grundschule-thielenstrasse.de","lat":51.331448,"lng":6.610983},"geometry":{"type":"Point","coordinates":[6.610983,51.331448]}},{"type":"Feature","properties":{"title":"Gymnasium am Stadtpark (Spielplatz)","description":"bespielbarer Schulhof mit eingeschränkten Öffnungszeiten","street":"Nikolaus-Groß-Straße 31","zip":47829,"city":"Krefeld","district":"Krefeld","tel":"02151/46572","fax":"","mail":"postmaster@gymnasium-am-stadtpark.de","web":"http://www.gymnasium-am-stadtpark.de","lat":51.3585,"lng":6.637874},"geometry":{"type":"Point","coordinates":[6.637874,51.3585]}},{"type":"Feature","properties":{"title":"Danziger Platz (Spielplatz)","description":"bespielbarer Schulhof mit eingeschränkten Öffnungszeiten","street":"Danziger Platz 1","zip":47809,"city":"Krefeld","district":"Krefeld","tel":"","fax":"","mail":"","web":"","lat":51.335894,"lng":6.644424},"geometry":{"type":"Point","coordinates":[6.644424,51.335894]}}]}