{"type":"FeatureCollection","features":[{"type":"Feature","properties":{"title":"Polizei-Bezirksdienst Fischeln","description":"Zuständig für Fischeln, Dießem und Lehmheide (Ost)","street":"Kölner Straße 517","zip":47805,"city":"Krefeld","district":"Krefeld","tel":"02151/6340","fax":"","mail":"bezirksdienst.krefeld@polizei.nrw.de","web":"https://www.polizei.nrw.de/krefeld/artikel__4498.html","lat":51.305584,"lng":6.586851},"geometry":{"type":"Point","coordinates":[6.586851,51.305584]}},{"type":"Feature","properties":{"title":"Polizei-Bezirksdienst Hüls","description":"Zuständig für Hüls, Hülser Berg, Inrath, Kempener Feld (Nord) und Benrad-Nord (Nord)","street":"Hülser Markt 11","zip":47839,"city":"Krefeld","district":"Krefeld","tel":"02151/6340","fax":"","mail":"bezirksdienst.krefeld@polizei.nrw.de","web":"https://www.polizei.nrw.de/krefeld/artikel__4501.html","lat":51.372854,"lng":6.508861},"geometry":{"type":"Point","coordinates":[6.508861,51.372854]}},{"type":"Feature","properties":{"title":"Polizei-Bezirksdienst Uerdingen","description":"Zuständig für Uerdingen","street":"Am Marktplatz 1","zip":47829,"city":"Krefeld","district":"Krefeld","tel":"02151/6340","fax":"","mail":"bezirksdienst.krefeld@polizei.nrw.de","web":"https://www.polizei.nrw.de/krefeld/artikel__4509.html","lat":51.353804,"lng":6.648961},"geometry":{"type":"Point","coordinates":[6.648961,51.353804]}},{"type":"Feature","properties":{"title":"Polizei-Bezirksdienst Forstwald","description":"Zuständig für Benrad-Süd, Forstwald, Hammerschmidtplatz, Lehmheide (West) und Baackeshof (Süd)","street":"Hochbendweg 81","zip":47804,"city":"Krefeld","district":"Krefeld","tel":"02151/6340","fax":"","mail":"bezirksdienst.krefeld@polizei.nrw.de","web":"https://www.polizei.nrw.de/krefeld/artikel__4499.html","lat":51.306441,"lng":6.50872},"geometry":{"type":"Point","coordinates":[6.50872,51.306441]}},{"type":"Feature","properties":{"title":"Polizei-Bezirksdienst Linn/Oppum","description":"Zuständig für Oppum, Linn und Gellep-Stratum","street":"Rheinbabenstraße 110","zip":47809,"city":"Krefeld","district":"Krefeld","tel":"02151/6340","fax":"","mail":"bezirksdienst.krefeld@polizei.nrw.de","web":"https://www.polizei.nrw.de/krefeld/artikel__4507.html","lat":51.335082,"lng":6.637581},"geometry":{"type":"Point","coordinates":[6.637581,51.335082]}},{"type":"Feature","properties":{"title":"Polizei-Bezirksdienst Verberg/Traar","description":"Zuständig für Verberg, Traar und Elfrath","street":"Kemmerhofstraße 321","zip":47802,"city":"Krefeld","district":"Krefeld","tel":"02151/6340","fax":"","mail":"bezirksdienst.krefeld@polizei.nrw.de","web":"https://www.polizei.nrw.de/krefeld/artikel__4508.html","lat":51.38092,"lng":6.599386},"geometry":{"type":"Point","coordinates":[6.599386,51.38092]}},{"type":"Feature","properties":{"title":"Polizeiwache Nord","description":"geöffnet rund um die Uhr, zugleich Bezirksdienst Nord, zuständig für Benrad-Nord (Süd), Kempener Feld (Süd) und Baackeshof (Nord)","street":"Westparkstraße 139","zip":47803,"city":"Krefeld","district":"Krefeld","tel":"02151/6340","fax":"","mail":"","web":"https://www.polizei.nrw.de/krefeld/artikel__4682.html","lat":51.341444,"lng":6.53796},"geometry":{"type":"Point","coordinates":[6.53796,51.341444]}},{"type":"Feature","properties":{"title":"Polizeiwache Süd","description":"geöffnet rund um die Uhr, auch Sitz des Kriminalkommissariats Kriminalprävention/Opferschutz","street":"Hansastraße 25","zip":47799,"city":"Krefeld","district":"Krefeld","tel":"02151/6340","fax":"","mail":"","web":"https://www.polizei.nrw.de/krefeld/artikel__4682.html","lat":51.327869,"lng":6.572793},"geometry":{"type":"Point","coordinates":[6.572793,51.327869]}},{"type":"Feature","properties":{"title":"Polizeipräsidium Krefeld","description":"","street":"Nordwall 1","zip":47798,"city":"Krefeld","district":"Krefeld","tel":"02151/6340","fax":"02151/6341029","mail":"","web":"https://www.polizei.nrw.de/krefeld/artikel__4681.html","lat":51.337762,"lng":6.563231},"geometry":{"type":"Point","coordinates":[6.563231,51.337762]}},{"type":"Feature","properties":{"title":"Polizei-Bezirksdienst Mitte","description":"Zuständig für Vier Wälle, Südring, Stadtgarten/Drießendorf, Cracau und Kliedbruch","street":"Ostwall 262","zip":47798,"city":"Krefeld","district":"Krefeld","tel":"02151/6340","fax":"","mail":"bezirksdienst.krefeld@polizei.nrw.de","web":"https://www.polizei.nrw.de/krefeld/artikel__4496.html","lat":51.338095,"lng":6.563507},"geometry":{"type":"Point","coordinates":[6.563507,51.338095]}},{"type":"Feature","properties":{"title":"Polizei-Bezirksdienst Bockum","description":"Zuständig für Bockum und Gartenstadt","street":"Uerdinger Straße 585","zip":47800,"city":"Krefeld","district":"Krefeld","tel":"02151/6340","fax":"","mail":"bezirksdienst.krefeld@polizei.nrw.de","web":"https://www.polizei.nrw.de/krefeld/artikel__4497.html","lat":51.345416,"lng":6.618279},"geometry":{"type":"Point","coordinates":[6.618279,51.345416]}}]}