{"type":"FeatureCollection","features":[{"type":"Feature","properties":{"title":"Bürgerinitiative Rund um St. Josef e.V.","description":"Familien- und Weiterbildungsszentrum","street":"Corneliusstraße 43","zip":47798,"city":"Krefeld","district":"Krefeld","tel":"02151/843840","fax":"02151/843843","mail":"info@bi-krefeld.de","web":"http://www.bi-krefeld.de","lat":51.327687,"lng":6.55756},"geometry":{"type":"Point","coordinates":[6.55756,51.327687]}},{"type":"Feature","properties":{"title":"Katholisches Forum für Erwachsenen- und Familienbildung","description":"","street":"Felbelstraße 25","zip":47799,"city":"Krefeld","district":"Krefeld","tel":"02151/62940","fax":"02151/629444","mail":"info@forum-krefeld-viersen.de","web":"http://www.forum-krefeld-viersen.de","lat":51.336378,"lng":6.567445},"geometry":{"type":"Point","coordinates":[6.567445,51.336378]}},{"type":"Feature","properties":{"title":"Christophorusschule (Zweigstelle)","description":"Städtische Schule für Kranke Lutherplatz, Schule für psychisch erkrankte Schüler in der LVR-Tagesklinik","street":"Vom-Bruck-Platz 8","zip":47805,"city":"Krefeld","district":"Krefeld","tel":"02151/3653924","fax":"02151/3653919","mail":"185036@schule.nrw.de","web":"http://www.slsfk.krefeld.schulen.net/","lat":51.318062,"lng":6.569332},"geometry":{"type":"Point","coordinates":[6.569332,51.318062]}},{"type":"Feature","properties":{"title":"Überbetriebliches Ausbildungszentrum der Innung für Sanitär, Heizung, Klima und Apparatebau","description":"","street":"Hansastraße 61","zip":47799,"city":"Krefeld","district":"Krefeld","tel":"02151/393388","fax":"02151/977822","mail":"info@handwerk-niederrhein.de","web":"http://www.shk-innung-krefeld.de/","lat":51.327468,"lng":6.571493},"geometry":{"type":"Point","coordinates":[6.571493,51.327468]}},{"type":"Feature","properties":{"title":"Bildungs- und Wissenschaftszentrum der Bundesfinanzverwaltung","description":"","street":"Am Zollhof 7","zip":47829,"city":"Krefeld","district":"Krefeld","tel":"02151/150340","fax":"02151/1503410","mail":"poststelle@bwz-kr.bfinv.de","web":"http://www.zoll.de/DE/Der-Zoll/Struktur/BWZ/bwz_node.html","lat":51.357138,"lng":6.65127},"geometry":{"type":"Point","coordinates":[6.65127,51.357138]}},{"type":"Feature","properties":{"title":"TÜV Rheinland Akademie GmbH","description":"","street":"Siemesdyk 60","zip":47807,"city":"Krefeld","district":"Krefeld","tel":"02151/87780","fax":"02151/877810","mail":"","web":"http://www.tuv.com/de/deutschland/akademie/krefeld.jsp","lat":51.321325,"lng":6.593925},"geometry":{"type":"Point","coordinates":[6.593925,51.321325]}},{"type":"Feature","properties":{"title":"Werkhaus e.V.","description":"","street":"Blücherstraße 11","zip":47799,"city":"Krefeld","district":"Krefeld","tel":"02151/801211","fax":"02151/614376","mail":"info@werkhaus-krefeld.de","web":"http://www.werkhaus-krefeld.de","lat":51.332404,"lng":6.577879},"geometry":{"type":"Point","coordinates":[6.577879,51.332404]}},{"type":"Feature","properties":{"title":"Bildungszentren des Baugewerbes","description":"","street":"Bökendonk 15","zip":47809,"city":"Krefeld","district":"Krefeld","tel":"02151/515510","fax":"02151/515592","mail":"krefeld@bzb.de","web":"http://www.bzb.de","lat":51.323287,"lng":6.608748},"geometry":{"type":"Point","coordinates":[6.608748,51.323287]}},{"type":"Feature","properties":{"title":"Freie Privatschule NRW Ganztagsschule GmbH","description":"Anerkannte Ergänzungsschule","street":"Stephanstraße 57","zip":47798,"city":"Krefeld","district":"Krefeld","tel":"02151/647203","fax":"02151/647204","mail":"info@fpsn.de info(at)fpsn.de","web":"http://www.fpsn.de/cms/","lat":51.329024,"lng":6.563854},"geometry":{"type":"Point","coordinates":[6.563854,51.329024]}},{"type":"Feature","properties":{"title":"Haus der Familie - Evangelische Eltern- und Familienbildungsstätte","description":"","street":"Lutherplatz 32","zip":47805,"city":"Krefeld","district":"Krefeld","tel":"02151/399171","fax":"02151/392351","mail":"info@hdf-krefeld.de","web":"http://www.hdf-krefeld.de/web/","lat":51.320329,"lng":6.563769},"geometry":{"type":"Point","coordinates":[6.563769,51.320329]}},{"type":"Feature","properties":{"title":"Krefelder Umweltzentrum","description":"","street":"Talring 45","zip":47802,"city":"Krefeld","district":"Krefeld","tel":"02151/743646","fax":"02151/743639","mail":"info@krefelder-umweltzentrum.de","web":"http://www.krefelder-umweltzentrum.de","lat":51.393353,"lng":6.53135},"geometry":{"type":"Point","coordinates":[6.53135,51.393353]}},{"type":"Feature","properties":{"title":"Musikschule der Stadt Krefeld","description":"","street":"Uerdinger Straße 500","zip":47800,"city":"Krefeld","district":"Krefeld","tel":"02151/590011","fax":"02151/503206","mail":"musikschule@krefeld.de","web":"https://www.krefeld.de/musikschule","lat":51.344618,"lng":6.610217},"geometry":{"type":"Point","coordinates":[6.610217,51.344618]}},{"type":"Feature","properties":{"title":"S.I.N.N. Studieninstitut Niederrhein","description":"","street":"Theaterplatz 1","zip":47798,"city":"Krefeld","district":"Krefeld","tel":"02151/861370","fax":"02151/861375","mail":"studieninstitut@krefeld.de","web":"http://www.studieninstitut-niederrhein.de/","lat":51.334738,"lng":6.563257},"geometry":{"type":"Point","coordinates":[6.563257,51.334738]}},{"type":"Feature","properties":{"title":"Zentrum für schulpraktische Lehrerausbildung Krefeld","description":"","street":"Johansenaue 3","zip":47809,"city":"Krefeld","district":"Krefeld","tel":"02151/519590","fax":"02151/5195959","mail":"poststelle@zfsl-krefeld.nrw.de","web":"http://www.zfsl-krefeld.nrw.de/","lat":51.33311,"lng":6.601638},"geometry":{"type":"Point","coordinates":[6.601638,51.33311]}},{"type":"Feature","properties":{"title":"Überbetriebliches Ausbildungszentrum der Elektro-Innung Krefeld","description":"","street":"Sterkenhofweg 5a","zip":47807,"city":"Krefeld","district":"Krefeld","tel":"02151/397318","fax":"02151/316689","mail":"admin@elektroinnung-krefeld.de","web":"http://www.elektroinnung-krefeld.de/html/uba.html","lat":51.302213,"lng":6.564683},"geometry":{"type":"Point","coordinates":[6.564683,51.302213]}},{"type":"Feature","properties":{"title":"Volkshochschule Krefeld/Neukirchen-Vluyn (VHS-Haus)","description":"","street":"Von-der-Leyen-Platz 2","zip":47798,"city":"Krefeld","district":"Krefeld","tel":"02151/36602664","fax":"02151/36602680","mail":"vhs@krefeld.de","web":"https://www.krefeld.de/vhs","lat":51.334445,"lng":6.559231},"geometry":{"type":"Point","coordinates":[6.559231,51.334445]}},{"type":"Feature","properties":{"title":"Kinderuniversität Zweistein (Gemeindeleben e.V.)","description":"Projekte für Kinder und Jugendliche","street":"Kneinstraße 66","zip":47807,"city":"Krefeld","district":"Krefeld","tel":"02151/9363031","fax":"","mail":"buero@kinderuni-zweistein.de","web":"http://www.kinderuni-zweistein.de/","lat":51.314857,"lng":6.582215},"geometry":{"type":"Point","coordinates":[6.582215,51.314857]}},{"type":"Feature","properties":{"title":"Kaiserswerther Diakonie Bildungszentrum für Gesundheitsfachberufe","description":"Hanna-Husmann-Haus","street":"Arndtstraße 60","zip":47829,"city":"Krefeld","district":"Krefeld","tel":"02151/478730","fax":"02151/473951","mail":"bfg@kaiserswerther-diakonie.de","web":"http://www.kaiserswerther-diakonie.de/de/ueber-die-kaiserswerther-diakonie/bildung-erziehung/bildungszentrum-fuer-gesundheitsfachberufe.html","lat":51.354481,"lng":6.63602},"geometry":{"type":"Point","coordinates":[6.63602,51.354481]}},{"type":"Feature","properties":{"title":"BildungsZentrum Krefeld der Kreishandwerkerschaft NiederRhein Krefeld/Viersen/Neuss gGmbH","description":"","street":"Preußenring 41","zip":47798,"city":"Krefeld","district":"Krefeld","tel":"02151/975110","fax":"","mail":"bznr@bznr.de","web":"http://www.bznr.de/","lat":51.33309,"lng":6.549837},"geometry":{"type":"Point","coordinates":[6.549837,51.33309]}},{"type":"Feature","properties":{"title":"KreVital - Institut für Gesundheitsförderung (Alexianer Krefeld GmbH)","description":"Gesundheitskurse","street":"Dießemer Bruch 77a","zip":47805,"city":"Krefeld","district":"Krefeld","tel":"02151/3343430","fax":"02151/3343170","mail":"info@krevital.de","web":"http://www.krevital.de","lat":51.325541,"lng":6.583911},"geometry":{"type":"Point","coordinates":[6.583911,51.325541]}},{"type":"Feature","properties":{"title":"Familienbildungswerk des DRK","description":"","street":"Uerdinger Straße 609","zip":47800,"city":"Krefeld","district":"Krefeld","tel":"02151/539612","fax":"02151/539666","mail":"familienbildung@drk-krefeld.de","web":"http://drk-krefeld.de/angebote/familienbildung.html","lat":51.346882,"lng":6.618962},"geometry":{"type":"Point","coordinates":[6.618962,51.346882]}},{"type":"Feature","properties":{"title":"HELIOS Bildungszentrum Krefeld","description":"","street":"Lutherplatz 40","zip":47805,"city":"Krefeld","district":"Krefeld","tel":"02151/322493","fax":"02151/322482","mail":"bildungszentrum-krefeld@helios-kliniken.de","web":"http://www.helios-kliniken.de/klinik/krefeld/bildungszentrum/kurzprofil.html","lat":51.320007,"lng":6.569294},"geometry":{"type":"Point","coordinates":[6.569294,51.320007]}},{"type":"Feature","properties":{"title":"Integral Bildungsforum e.V.","description":"","street":"Oppumer Straße 42","zip":47799,"city":"Krefeld","district":"Krefeld","tel":"02151/565823","fax":"02151/565824","mail":"info@integral-bildungsforum.de","web":"http://www.integral-bildungsforum.de/","lat":51.331942,"lng":6.580745},"geometry":{"type":"Point","coordinates":[6.580745,51.331942]}},{"type":"Feature","properties":{"title":"Volkshochschule Krefeld/Neukirchen-Vluyn (Nebengebäude)","description":"","street":"Gartenstraße 58","zip":47798,"city":"Krefeld","district":"Krefeld","tel":"02151/36602664","fax":"02151/36602680","mail":"vhs@krefeld.de","web":"https://www.krefeld.de/vhs","lat":51.334263,"lng":6.556508},"geometry":{"type":"Point","coordinates":[6.556508,51.334263]}},{"type":"Feature","properties":{"title":"Privatschule Niederrhein e.V.","description":"Anerkannte Ergänzungsschule","street":"Ostwall 14","zip":47798,"city":"Krefeld","district":"Krefeld","tel":"02151/33103","fax":"02151/395080","mail":"info@privatschule-niederrhein.de","web":"http://www.privatschule-niederrhein.de/","lat":51.326764,"lng":6.56855},"geometry":{"type":"Point","coordinates":[6.56855,51.326764]}},{"type":"Feature","properties":{"title":"Gesundheits- und Pflegebildungsinstitut (DRK Schwesternschaft Krefeld e.V.)","description":"","street":"Hohenzollernstraße 91","zip":47799,"city":"Krefeld","district":"Krefeld","tel":"02151/58970","fax":"02151/589739","mail":"info@drk-schwesternschaft-kr.de","web":"http://www.drk-schwesternschaft-kr.de/gesundheits-und-pflegebildungsinstitut.html","lat":51.345283,"lng":6.577394},"geometry":{"type":"Point","coordinates":[6.577394,51.345283]}}]}