{"type":"FeatureCollection","features":[{"type":"Feature","properties":{"title":"Grundschule Königshof","description":"Katholische Grundschule Oberbruchstraße","street":"Oberbruchstraße 87","zip":47807,"city":"Krefeld","district":"Krefeld","tel":"02151/397108","fax":"02151/6436118","mail":"schule@kgs-koenigshof.de","web":"http://www.kgs-koenigshof.de/","lat":51.31592,"lng":6.590549},"geometry":{"type":"Point","coordinates":[6.590549,51.31592]}},{"type":"Feature","properties":{"title":"Heinrichsschule","description":"Gemeinschafts-Grundschule Körnerstraße","street":"Körnerstraße 17","zip":47829,"city":"Krefeld","district":"Krefeld","tel":"02151/474111","fax":"02151/473233","mail":"kontakt@heinrichsschule.de","web":"http://www.heinrichsschule.de/","lat":51.363671,"lng":6.645985},"geometry":{"type":"Point","coordinates":[6.645985,51.363671]}},{"type":"Feature","properties":{"title":"Johansenschule","description":"Gemeinschafts-Grundschule Kohlplatzweg","street":"Kohlplatzweg 25","zip":47809,"city":"Krefeld","district":"Krefeld","tel":"02151/571288","fax":"02151/570025","mail":"102982@schule.nrw.de","web":"http://www.johansenschule.de/","lat":51.338043,"lng":6.646767},"geometry":{"type":"Point","coordinates":[6.646767,51.338043]}},{"type":"Feature","properties":{"title":"Mosaikschule (Teilstandort)","description":"Gemeinschafts-Grundschule Hofstraße","street":"Felbelstraße 24","zip":47799,"city":"Krefeld","district":"Krefeld","tel":"02151/69309","fax":"02151/5659787","mail":"103020@schule.nrw.de","web":"http://www.mosaikschule-krefeld.de/","lat":51.336102,"lng":6.568204},"geometry":{"type":"Point","coordinates":[6.568204,51.336102]}},{"type":"Feature","properties":{"title":"Paul-Gerhardt-Schule","description":"Gemeinschafts-Grundschule Joseph-Görres-Straße","street":"Joseph-Görres-Straße 20","zip":47829,"city":"Krefeld","district":"Krefeld","tel":"02151/481977","fax":"02151/42598","mail":"103123@schule.nrw.de","web":"http://www.paul-gerhardt-schule.de/","lat":51.35233,"lng":6.645609},"geometry":{"type":"Point","coordinates":[6.645609,51.35233]}},{"type":"Feature","properties":{"title":"Sollbrüggenschule","description":"Katholische Grundschule Sollbrüggenstraße","street":"Sollbrüggenstraße 81","zip":47800,"city":"Krefeld","district":"Krefeld","tel":"02151/592625","fax":"02151/597670","mail":"sollbrueggenschule@schulen.krefeld.de","web":"http://www.sollbrueggenschule.de/","lat":51.346676,"lng":6.612724},"geometry":{"type":"Point","coordinates":[6.612724,51.346676]}},{"type":"Feature","properties":{"title":"Grundschule Buscher Holzweg","description":"Gemeinschafts-Grundschule Buscher Holzweg","street":"Buscher Holzweg 62","zip":47802,"city":"Krefeld","district":"Krefeld","tel":"02151/562080","fax":"02151/564961","mail":"103081@schule.nrw.de","web":"http://www.buscher-holzweg.de/","lat":51.375271,"lng":6.58919},"geometry":{"type":"Point","coordinates":[6.58919,51.375271]}},{"type":"Feature","properties":{"title":"Grundschule Horkesgath (Teilstandort)","description":"Gemeinschafts-Grundschule Horkesgath","street":"Kempener Allee 142","zip":47803,"city":"Krefeld","district":"Krefeld","tel":"02151/750164","fax":"02151/623967","mail":"info@ggs-horkesgath.de","web":"http://www.ggs-horkesgath.de/","lat":51.339155,"lng":6.529377},"geometry":{"type":"Point","coordinates":[6.529377,51.339155]}},{"type":"Feature","properties":{"title":"Grundschule Hüls - Astrid-Lindgren-Schule (Teilstandort)","description":"Gemeinschafts-Grundschule Bonhoefferstraße","street":"Amerner Straße 1","zip":47839,"city":"Krefeld","district":"Krefeld","tel":"02151/743873","fax":"02151/974864","mail":"schule@ggs-huels.de","web":"http://www.ggs-huels.de/","lat":51.376251,"lng":6.493513},"geometry":{"type":"Point","coordinates":[6.493513,51.376251]}},{"type":"Feature","properties":{"title":"Buchenschule","description":"Gemeinschafts-Grundschule Buchenstraße","street":"Buchenstraße 28","zip":47805,"city":"Krefeld","district":"Krefeld","tel":"02151/399164","fax":"02151/396015","mail":"buchenschule@t-online.de","web":"http://www.buchenschule.de/","lat":51.321454,"lng":6.560759},"geometry":{"type":"Point","coordinates":[6.560759,51.321454]}},{"type":"Feature","properties":{"title":"Freie Waldorfschule","description":"Private Grundschule","street":"Kaiserstraße 61","zip":47800,"city":"Krefeld","district":"Krefeld","tel":"02151/53950","fax":"","mail":"info@waldorfschule-krefeld.de","web":"http://www.waldorfschule-krefeld.de/","lat":51.337138,"lng":6.593875},"geometry":{"type":"Point","coordinates":[6.593875,51.337138]}},{"type":"Feature","properties":{"title":"Grotenburgschule","description":"Gemeinschafts-Grundschule Eichendorffstraße","street":"Eichendorffstraße 21","zip":47800,"city":"Krefeld","district":"Krefeld","tel":"02151/591365","fax":"02151/598790","mail":"103172@schule.nrw.de","web":"https://www.krefeld.de/de/schulverzeichnis/gemeinschafts-grundschule-eichendorffstrasse/","lat":51.339117,"lng":6.599026},"geometry":{"type":"Point","coordinates":[6.599026,51.339117]}},{"type":"Feature","properties":{"title":"Südschule","description":"Gemeinschafts-Grundschule Kölner Straße","street":"Kölner Straße 667","zip":47807,"city":"Krefeld","district":"Krefeld","tel":"02151/301470","fax":"02151/301479","mail":"suedschule@schulen.krefeld.de","web":"http://www.suedschule-krefeld.de/","lat":51.299679,"lng":6.59257},"geometry":{"type":"Point","coordinates":[6.59257,51.299679]}},{"type":"Feature","properties":{"title":"Pestalozzischule","description":"Gemeinschafts-Grundschule Hülser Straße","street":"Hülser Straße 449","zip":47803,"city":"Krefeld","district":"Krefeld","tel":"02151/754107","fax":"02151/756189","mail":"pestalozzischulekrefeld@t-online.de","web":"http://www.pestalozzischule-krefeld.de/","lat":51.351802,"lng":6.537883},"geometry":{"type":"Point","coordinates":[6.537883,51.351802]}},{"type":"Feature","properties":{"title":"Grundschule am Stadtpark Fischeln (Teilstandort)","description":"Gemeinschafts-Grundschule Wimmersweg","street":"Vulkanstraße 264","zip":47807,"city":"Krefeld","district":"Krefeld","tel":"02151/311661","fax":"02151/399293","mail":"103068@schule.nrw.de","web":"http://www.stahldorfschule.de/","lat":51.30777,"lng":6.556631},"geometry":{"type":"Point","coordinates":[6.556631,51.30777]}},{"type":"Feature","properties":{"title":"Mariannenschule (Nebengebäude)","description":"Gemeinschafts-Grundschule Mariannenstraße","street":"Mariannenstraße 97","zip":47799,"city":"Krefeld","district":"Krefeld","tel":"02151/23381","fax":"02151/6491771","mail":"103070@schule.nrw.de","web":"http://www.gsmar.krefeld.schulen.net/","lat":51.332343,"lng":6.569782},"geometry":{"type":"Point","coordinates":[6.569782,51.332343]}},{"type":"Feature","properties":{"title":"St.-Michael-Schule","description":"Katholische Grundschule Gießerpfad","street":"Gießerpfad 2","zip":47804,"city":"Krefeld","district":"Krefeld","tel":"02151/711563","fax":"02151/937561","mail":"102957@schule.nrw.de","web":"http://www.st-michael-schule.de/","lat":51.320359,"lng":6.536057},"geometry":{"type":"Point","coordinates":[6.536057,51.320359]}},{"type":"Feature","properties":{"title":"Bismarckschule","description":"Gemeinschafts-Grundschule Bismarckstraße","street":"Bismarckstraße 67","zip":47799,"city":"Krefeld","district":"Krefeld","tel":"02151/596518","fax":"02151/599613","mail":"103196@schule.nrw.de","web":"http://www.bismarckschule-krefeld.de/","lat":51.341809,"lng":6.573806},"geometry":{"type":"Point","coordinates":[6.573806,51.341809]}},{"type":"Feature","properties":{"title":"Mosaikschule","description":"Gemeinschafts-Grundschule Hofstraße","street":"Hofstraße 45","zip":47798,"city":"Krefeld","district":"Krefeld","tel":"02151/26167","fax":"02151/802955","mail":"103020@schule.nrw.de","web":"http://www.mosaikschule-krefeld.de/","lat":51.339011,"lng":6.554157},"geometry":{"type":"Point","coordinates":[6.554157,51.339011]}},{"type":"Feature","properties":{"title":"Brüder-Grimm-Schule","description":"Gemeinschafts-Grundschule Freiligrathstraße","street":"Freiligrathstraße 47","zip":47799,"city":"Krefeld","district":"Krefeld","tel":"02151/69781","fax":"02151/802895","mail":"103160@schule.nrw.de","web":"http://www.gsgrimm.krefeld.schulen.net/","lat":51.333829,"lng":6.579555},"geometry":{"type":"Point","coordinates":[6.579555,51.333829]}},{"type":"Feature","properties":{"title":"Forstwaldschule","description":"Gemeinschafts-Grundschule Bellenweg","street":"Bellenweg 50","zip":47804,"city":"Krefeld","district":"Krefeld","tel":"02151/312603","fax":"02151/3659567","mail":"103202@schule.nrw.de","web":"http://www.krefeld.de/de/schulen/gemeinschafts-grundschule-bellenweg/","lat":51.302243,"lng":6.505898},"geometry":{"type":"Point","coordinates":[6.505898,51.302243]}},{"type":"Feature","properties":{"title":"Geschwister-Scholl-Schule","description":"Gemeinschafts-Grundschule Fungendonk","street":"Fungendonk 31","zip":47809,"city":"Krefeld","district":"Krefeld","tel":"02151/540787","fax":"02151/644658","mail":"geschwister-scholl-schule@schulen.krefeld.de","web":"http://www.gsfun.krefeld.schulen.net/","lat":51.320146,"lng":6.611871},"geometry":{"type":"Point","coordinates":[6.611871,51.320146]}},{"type":"Feature","properties":{"title":"Grundschule Horkesgath","description":"Gemeinschafts-Grundschule Horkesgath","street":"Horkesgath 50","zip":47803,"city":"Krefeld","district":"Krefeld","tel":"02151/6506886","fax":"02151/6532483","mail":"info@ggs-horkesgath.de","web":"http://www.ggs-horkesgath.de/","lat":51.331907,"lng":6.528278},"geometry":{"type":"Point","coordinates":[6.528278,51.331907]}},{"type":"Feature","properties":{"title":"Grundschule am Stadtpark Fischeln","description":"Gemeinschafts-Grundschule Wimmersweg","street":"Wimmersweg 21","zip":47807,"city":"Krefeld","district":"Krefeld","tel":"02151/300623","fax":"02151/3653835","mail":"103068@schule.nrw.de","web":"http://www.wimmersweg.de/","lat":51.304503,"lng":6.581633},"geometry":{"type":"Point","coordinates":[6.581633,51.304503]}},{"type":"Feature","properties":{"title":"Jahnschule","description":"Gemeinschafts-Grundschule Girmesdyk","street":"Girmesdyk 17","zip":47803,"city":"Krefeld","district":"Krefeld","tel":"02151/756168","fax":"02151/622229","mail":"info@ggs-jahnschule.de","web":"http://www.ggs-jahnschule.de/","lat":51.345031,"lng":6.552645},"geometry":{"type":"Point","coordinates":[6.552645,51.345031]}},{"type":"Feature","properties":{"title":"Schönwasserschule","description":"Gemeinschafts-Grundschule Thielenstraße","street":"Thielenstraße 40","zip":47809,"city":"Krefeld","district":"Krefeld","tel":"02151/540731","fax":"02151/5187355","mail":"102970@schule.nrw.de","web":"http://www.schoenwasserschule.de/","lat":51.331944,"lng":6.61079},"geometry":{"type":"Point","coordinates":[6.61079,51.331944]}},{"type":"Feature","properties":{"title":"Josefschule","description":"Katholische Grundschule An der Josefkirche","street":"An der Josefkirche 2","zip":47798,"city":"Krefeld","district":"Krefeld","tel":"02151/772065","fax":"02151/6459972","mail":"josefschule@schulen.krefeld.de","web":"http://www.josefschule-krefeld.de/","lat":51.32728,"lng":6.556926},"geometry":{"type":"Point","coordinates":[6.556926,51.32728]}},{"type":"Feature","properties":{"title":"Grundschule an der Burg","description":"Katholische Grundschule Herrenweg","street":"Herrenweg 14","zip":47839,"city":"Krefeld","district":"Krefeld","tel":"02151/730525","fax":"02151/974733","mail":"108236@schule.nrw.de","web":"http://www.grundschule-an-der-burg.de/","lat":51.374718,"lng":6.511263},"geometry":{"type":"Point","coordinates":[6.511263,51.374718]}},{"type":"Feature","properties":{"title":"Edith-Stein-Schule","description":"Katholische Grundschule Traarer Straße","street":"Traarer Straße 105","zip":47829,"city":"Krefeld","district":"Krefeld","tel":"02151/474236","fax":"02151/153174","mail":"102891@schule.nrw.de","web":"http://www.edithstein-grundschule.de/","lat":51.357422,"lng":6.634245},"geometry":{"type":"Point","coordinates":[6.634245,51.357422]}},{"type":"Feature","properties":{"title":"Grundschule Hüls - Astrid-Lindgren-Schule","description":"Gemeinschafts-Grundschule Bonhoefferstraße","street":"Bonhoefferstraße 16","zip":47839,"city":"Krefeld","district":"Krefeld","tel":"02151/730984","fax":"02151/730985","mail":"schule@ggs-huels.de","web":"http://www.ggs-huels.de/","lat":51.37152,"lng":6.508859},"geometry":{"type":"Point","coordinates":[6.508859,51.37152]}},{"type":"Feature","properties":{"title":"Lindenschule","description":"Gemeinschafts-Grundschule Gießerpfad","street":"Gießerpfad 2","zip":47804,"city":"Krefeld","district":"Krefeld","tel":"02151/711622","fax":"02151/366511","mail":"103159@schule.nrw.de","web":"http://www.lindenschule-krefeld.de/","lat":51.31991,"lng":6.535964},"geometry":{"type":"Point","coordinates":[6.535964,51.31991]}},{"type":"Feature","properties":{"title":"Bischöfliche Maria Montessori Grundschule","description":"Private katholische Grundschule Minkweg","street":"Minkweg 30","zip":47803,"city":"Krefeld","district":"Krefeld","tel":"02151/564711","fax":"02151/564712","mail":"bisch-gs.m-montessori@bistum-aachen.de","web":"http://www.bmmgrund.de/","lat":51.357319,"lng":6.56857},"geometry":{"type":"Point","coordinates":[6.56857,51.357319]}},{"type":"Feature","properties":{"title":"Mariannenschule","description":"Gemeinschafts-Grundschule Mariannenstraße","street":"Mariannenstraße 29","zip":47799,"city":"Krefeld","district":"Krefeld","tel":"02151/23381","fax":"02151/6491771","mail":"103070@schule.nrw.de","web":"http://www.gsmar.krefeld.schulen.net/","lat":51.32944,"lng":6.571234},"geometry":{"type":"Point","coordinates":[6.571234,51.32944]}},{"type":"Feature","properties":{"title":"Regenbogenschule","description":"Gemeinschafts-Grundschule Gladbacher Straße","street":"Gladbacher Straße 277","zip":47805,"city":"Krefeld","district":"Krefeld","tel":"02151/318737","fax":"02151/8207096","mail":"regenbogenschulekr@gmx.de","web":"http://www.regenbogenschule-kr.de/","lat":51.315731,"lng":6.558598},"geometry":{"type":"Point","coordinates":[6.558598,51.315731]}},{"type":"Feature","properties":{"title":"Schule an Haus Rath","description":"Gemeinschafts-Grundschule Neukirchener Straße","street":"Neukirchener Straße 3","zip":47829,"city":"Krefeld","district":"Krefeld","tel":"02151/472501","fax":"02151/487536","mail":"schuleanhausrath@web.de","web":"http://www.schuleanhausrath.de/","lat":51.370307,"lng":6.61707},"geometry":{"type":"Point","coordinates":[6.61707,51.370307]}},{"type":"Feature","properties":{"title":"Grundschule am Stadtpark Fischeln (Nebengebäude)","description":"Gemeinschafts-Grundschule Wimmersweg","street":"Marienstraße 81a","zip":47807,"city":"Krefeld","district":"Krefeld","tel":"02151/300623","fax":"02151/3653835","mail":"103068@schule.nrw.de","web":"http://www.wimmersweg.de/","lat":51.304548,"lng":6.584294},"geometry":{"type":"Point","coordinates":[6.584294,51.304548]}},{"type":"Feature","properties":{"title":"Josefschule (Nebengebäude)","description":"Katholische Grundschule An der Josefkirche","street":"Südstraße 22","zip":47798,"city":"Krefeld","district":"Krefeld","tel":"02151/776852","fax":"02151/6451531","mail":"josefschule@schulen.krefeld.de","web":"http://www.josefschule-krefeld.de/","lat":51.326763,"lng":6.559594},"geometry":{"type":"Point","coordinates":[6.559594,51.326763]}},{"type":"Feature","properties":{"title":"Josef-Hafels-Schule","description":"Gemeinschaftshauptschule Hafelsstraße","street":"Hafelsstraße 41","zip":47807,"city":"Krefeld","district":"Krefeld","tel":"02151/300442","fax":"02151/305332","mail":"137571@schule.nrw.de","web":"http://www.josef-hafels-schule.de/","lat":51.307668,"lng":6.589421},"geometry":{"type":"Point","coordinates":[6.589421,51.307668]}},{"type":"Feature","properties":{"title":"Gartenstadtschule","description":"Gemeinschaftshauptschule Breslauer Straße","street":"Breslauer Straße 280","zip":47829,"city":"Krefeld","district":"Krefeld","tel":"02151/43823","fax":"02151/451387","mail":"sekretariat@gartenstadtschule.net","web":"http://www.gartenstadtschule.net/","lat":51.365826,"lng":6.617712},"geometry":{"type":"Point","coordinates":[6.617712,51.365826]}},{"type":"Feature","properties":{"title":"Hauptschule Prinz-Ferdinand-Straße","description":"Gemeinschaftshauptschule Prinz-Ferdinand-Straße","street":"Prinz-Ferdinand-Straße 155","zip":47798,"city":"Krefeld","district":"Krefeld","tel":"02151/975280","fax":"02151/9752818","mail":"hspfs@krefeld.schulen.net","web":"http://www.hspfs.krefeld.schulen.net/","lat":51.333256,"lng":6.551376},"geometry":{"type":"Point","coordinates":[6.551376,51.333256]}},{"type":"Feature","properties":{"title":"Stephanusschule","description":"Katholische Hauptschule Rote-Kreuz-Straße","street":"Rote-Kreuz-Straße 25","zip":47800,"city":"Krefeld","district":"Krefeld","tel":"02151/50810","fax":"02151/5081-35","mail":"stephanusschule@mail.de","web":"http://www.stephanusschule.de/","lat":51.335533,"lng":6.591886},"geometry":{"type":"Point","coordinates":[6.591886,51.335533]}},{"type":"Feature","properties":{"title":"Freiherr-vom-Stein-Schule","description":"","street":"Von-Ketteler-Straße 31","zip":47807,"city":"Krefeld","district":"Krefeld","tel":"02151/37490","fax":"02151/3749125","mail":"freiherr-vom-stein-krefeld@web.de","web":"http://www.refvs.krefeld.schulen.net/","lat":51.313011,"lng":6.583323},"geometry":{"type":"Point","coordinates":[6.583323,51.313011]}},{"type":"Feature","properties":{"title":"Weiterbildungskolleg der Stadt Krefeld - Abendrealschule","description":"","street":"Danziger Platz 1","zip":47809,"city":"Krefeld","district":"Krefeld","tel":"02151/776373","fax":"02151/778489","mail":"163843@schule.nrw.de","web":"http://www.weiterbildungskolleg-krefeld.de/","lat":51.335731,"lng":6.643816},"geometry":{"type":"Point","coordinates":[6.643816,51.335731]}},{"type":"Feature","properties":{"title":"Edmund-ter-Meer-Schule","description":"","street":"Uerdinger Straße 783","zip":47800,"city":"Krefeld","district":"Krefeld","tel":"02151/474039","fax":"02151/474844","mail":"info@ter-meer-schule.de","web":"http://www.ter-meer-schule.de/","lat":51.349745,"lng":6.63297},"geometry":{"type":"Point","coordinates":[6.63297,51.349745]}},{"type":"Feature","properties":{"title":"Realschule Horkesgath","description":"","street":"Horkesgath 33","zip":47803,"city":"Krefeld","district":"Krefeld","tel":"02151/878860","fax":"02151/87886136","mail":"info@rs-horkesgath.de","web":"http://www.rs-horkesgath.de/","lat":51.337525,"lng":6.529115},"geometry":{"type":"Point","coordinates":[6.529115,51.337525]}},{"type":"Feature","properties":{"title":"Realschule Oppum","description":"","street":"Schmiedestraße 90","zip":47809,"city":"Krefeld","district":"Krefeld","tel":"02151/55370","fax":"02151/553727","mail":"rso@realschule-oppum.de","web":"http://www.realschule-oppum.de/","lat":51.331579,"lng":6.605371},"geometry":{"type":"Point","coordinates":[6.605371,51.331579]}},{"type":"Feature","properties":{"title":"Albert-Schweitzer-Schule","description":"","street":"Lewerentzstraße 136","zip":47798,"city":"Krefeld","district":"Krefeld","tel":"02151/770061","fax":"02151/775815","mail":"postmaster@rsasr.krefeld.schulen.net","web":"http://www.rsasr.krefeld.schulen.net/","lat":51.325454,"lng":6.557479},"geometry":{"type":"Point","coordinates":[6.557479,51.325454]}},{"type":"Feature","properties":{"title":"Fichte-Gymnasium","description":"","street":"Lindenstraße 52","zip":47798,"city":"Krefeld","district":"Krefeld","tel":"02151/84660","fax":"02151/846684","mail":"sekretariat@fichte.de","web":"http://www.fichtekrefeld.de/","lat":51.327715,"lng":6.560204},"geometry":{"type":"Point","coordinates":[6.560204,51.327715]}},{"type":"Feature","properties":{"title":"Gymnasium Fabritianum","description":"","street":"Fabritiusstraße 15a","zip":47829,"city":"Krefeld","district":"Krefeld","tel":"02151/5799490","fax":"02151/579949119","mail":"post@fabritianum.de","web":"http://www.fabritianum.de/","lat":51.349252,"lng":6.641467},"geometry":{"type":"Point","coordinates":[6.641467,51.349252]}},{"type":"Feature","properties":{"title":"Gymnasium Marienschule","description":"","street":"Hubertusstraße 120","zip":47798,"city":"Krefeld","district":"Krefeld","tel":"02151/977317","fax":"02151/977333","mail":"info@marienschule-krefeld.de","web":"http://www.marienschule-krefeld.de/","lat":51.33343,"lng":6.555534},"geometry":{"type":"Point","coordinates":[6.555534,51.33343]}},{"type":"Feature","properties":{"title":"Weiterbildungskolleg des Kreises Viersen - Abendgymnasium (Teilstandort Krefeld)","description":"","street":"Danziger Platz 1","zip":47809,"city":"Krefeld","district":"Krefeld","tel":"02151/1559988","fax":"","mail":"info@wbk-ag-viersen.de","web":"http://wbk-viersen.de/index.php/schulorte-65/krefeld","lat":51.335895,"lng":6.643773},"geometry":{"type":"Point","coordinates":[6.643773,51.335895]}},{"type":"Feature","properties":{"title":"Arndt-Gymnasium","description":"","street":"Dionysiusstraße 51","zip":47798,"city":"Krefeld","district":"Krefeld","tel":"02151/152580","fax":"02151/15258140","mail":"info@arndt-gymnasium.com","web":"http://www.arndt-gymnasium.com/","lat":51.332119,"lng":6.555671},"geometry":{"type":"Point","coordinates":[6.555671,51.332119]}},{"type":"Feature","properties":{"title":"Gymnasium am Moltkeplatz","description":"","street":"Moltkeplatz 12","zip":47799,"city":"Krefeld","district":"Krefeld","tel":"02151/937110","fax":"02151/9371126","mail":"info@moltke.de","web":"http://www.moltke.de/","lat":51.339141,"lng":6.579006},"geometry":{"type":"Point","coordinates":[6.579006,51.339141]}},{"type":"Feature","properties":{"title":"Gymnasium am Stadtpark Uerdingen","description":"","street":"Nikolaus-Groß-Straße 31","zip":47829,"city":"Krefeld","district":"Krefeld","tel":"02151/46572","fax":"02151/474035","mail":"postmaster@gymnasium-am-stadtpark.de","web":"http://www.gymnasium-am-stadtpark.de/","lat":51.358341,"lng":6.637097},"geometry":{"type":"Point","coordinates":[6.637097,51.358341]}},{"type":"Feature","properties":{"title":"Gymnasium Horkesgath","description":"","street":"Horkesgath 33","zip":47803,"city":"Krefeld","district":"Krefeld","tel":"02151/878850","fax":"02151/87885124","mail":"info@gymnasium-horkesgath.de","web":"http://gymnasium-horkesgath.de/cms/","lat":51.337085,"lng":6.528749},"geometry":{"type":"Point","coordinates":[6.528749,51.337085]}},{"type":"Feature","properties":{"title":"Maria-Sibylla-Merian-Gymnasium","description":"","street":"Johannes-Blum-Straße 101","zip":47807,"city":"Krefeld","district":"Krefeld","tel":"02151/37660","fax":"02151/376644","mail":"sekretariat@msm-gymnasium-krefeld.de","web":"http://www.msm-gymnasium-krefeld.de/","lat":51.312894,"lng":6.585019},"geometry":{"type":"Point","coordinates":[6.585019,51.312894]}},{"type":"Feature","properties":{"title":"Ricarda-Huch-Gymnasium","description":"","street":"Moerser Straße 36","zip":47798,"city":"Krefeld","district":"Krefeld","tel":"02151/781250","fax":"02151/78125150","mail":"sekretariat@rhg-krefeld.de","web":"http://www.rhg-krefeld.de/","lat":51.339518,"lng":6.565414},"geometry":{"type":"Point","coordinates":[6.565414,51.339518]}},{"type":"Feature","properties":{"title":"Gesamtschule Kaiserplatz","description":"","street":"Kaiserplatz 50","zip":47800,"city":"Krefeld","district":"Krefeld","tel":"02151/53990","fax":"02151/539980","mail":"189273@schule.nrw.de","web":"http://www.gekai.krefeld.schulen.net/","lat":51.343684,"lng":6.590809},"geometry":{"type":"Point","coordinates":[6.590809,51.343684]}},{"type":"Feature","properties":{"title":"Robert-Jungk-Gesamtschule (Standort Krefeld-Hüls)","description":"","street":"Reepenweg 40","zip":47839,"city":"Krefeld","district":"Krefeld","tel":"02151/565240","fax":"02151/56524240","mail":"info@rjge.de","web":"http://www.rjge.de/","lat":51.369561,"lng":6.496332},"geometry":{"type":"Point","coordinates":[6.496332,51.369561]}},{"type":"Feature","properties":{"title":"Gesamtschule Uerdingen (Teilstandort)","description":"","street":"Lübecker Weg 56","zip":47829,"city":"Krefeld","district":"Krefeld","tel":"02151/471880","fax":"02151/6444529","mail":"198262@schule.nrw.de","web":"http://www.gesamtschule-uerdingen.de/","lat":51.355477,"lng":6.634356},"geometry":{"type":"Point","coordinates":[6.634356,51.355477]}},{"type":"Feature","properties":{"title":"Freie Waldorfschule","description":"Private Gesamtschule","street":"Kaiserstraße 61","zip":47800,"city":"Krefeld","district":"Krefeld","tel":"02151/53950","fax":"02151/539536","mail":"info@waldorfschule-krefeld.de","web":"http://www.waldorfschule-krefeld.de/","lat":51.336904,"lng":6.593788},"geometry":{"type":"Point","coordinates":[6.593788,51.336904]}},{"type":"Feature","properties":{"title":"Kurt-Tucholsky-Gesamtschule","description":"","street":"Alte Gladbacher Straße 10","zip":47805,"city":"Krefeld","district":"Krefeld","tel":"02151/83750","fax":"02151/837520","mail":"ktg-schulleitung@t-online.de","web":"http://www.kurt-tucholsky-gesamtschule.de/","lat":51.321954,"lng":6.555474},"geometry":{"type":"Point","coordinates":[6.555474,51.321954]}},{"type":"Feature","properties":{"title":"Bischöfliche Maria-Montessori-Gesamtschule","description":"Private katholische Gesamtschule","street":"Minkweg 26","zip":47803,"city":"Krefeld","district":"Krefeld","tel":"02151/561394","fax":"02151/564708","mail":"info@bmmg.de","web":"http://www.bmmg.de/","lat":51.356983,"lng":6.567768},"geometry":{"type":"Point","coordinates":[6.567768,51.356983]}},{"type":"Feature","properties":{"title":"Gesamtschule Oppum","description":"","street":"Schmiedestraße 90","zip":47809,"city":"Krefeld","district":"Krefeld","tel":"02151/1559170","fax":"02151/155917204","mail":"info@gesamtschule-oppum.de","web":"http://www.gesamtschule-oppum.de/","lat":51.331182,"lng":6.604771},"geometry":{"type":"Point","coordinates":[6.604771,51.331182]}},{"type":"Feature","properties":{"title":"Gesamtschule Uerdingen","description":"","street":"Uerdinger Straße 783","zip":47800,"city":"Krefeld","district":"Krefeld","tel":"02151/644450","fax":"02151/6444529","mail":"198262@schule.nrw.de","web":"http://www.gesamtschule-uerdingen.de/","lat":51.349774,"lng":6.633425},"geometry":{"type":"Point","coordinates":[6.633425,51.349774]}},{"type":"Feature","properties":{"title":"Berufskolleg Kaufmannsschule der Stadt Krefeld","description":"","street":"Neuer Weg 121","zip":47803,"city":"Krefeld","district":"Krefeld","tel":"02151/76580","fax":"02151/765830","mail":"sekretariat@kaufmannsschule.de","web":"http://www.kaufmannsschule.de/","lat":51.337436,"lng":6.545005},"geometry":{"type":"Point","coordinates":[6.545005,51.337436]}},{"type":"Feature","properties":{"title":"Berufskolleg Vera Beckers","description":"","street":"Girmesgath 131","zip":47803,"city":"Krefeld","district":"Krefeld","tel":"02151/623380","fax":"02151/62338222","mail":"info@bkvb.de","web":"http://www.bkvb.de/","lat":51.340334,"lng":6.54338},"geometry":{"type":"Point","coordinates":[6.54338,51.340334]}},{"type":"Feature","properties":{"title":"Berufskolleg Glockenspitz Krefeld","description":"","street":"Glockenspitz 348","zip":47809,"city":"Krefeld","district":"Krefeld","tel":"02151/5590","fax":"02151/559142","mail":"info@glockenspitz.de","web":"http://www.glockenspitz.de/","lat":51.338114,"lng":6.610411},"geometry":{"type":"Point","coordinates":[6.610411,51.338114]}},{"type":"Feature","properties":{"title":"Berufskolleg Kaufmannsschule der Stadt Krefeld (Nebengebäude)","description":"","street":"Am Konnertzfeld 19","zip":47804,"city":"Krefeld","district":"Krefeld","tel":"02151/729930","fax":"02151/7299325","mail":"sekretariat@kaufmannsschule.de","web":"http://www.kaufmannsschule.de/","lat":51.319881,"lng":6.531959},"geometry":{"type":"Point","coordinates":[6.531959,51.319881]}},{"type":"Feature","properties":{"title":"Berufskolleg Uerdingen","description":"","street":"Alte Krefelder Straße 93","zip":47829,"city":"Krefeld","district":"Krefeld","tel":"02151/498480","fax":"02151/4984820","mail":"bku@bkukr.de","web":"http://www.bkukr.de/","lat":51.349954,"lng":6.635405},"geometry":{"type":"Point","coordinates":[6.635405,51.349954]}},{"type":"Feature","properties":{"title":"Friedrich-von-Bodelschwingh-Schule","description":"Förderschule Stettiner Straße, Schwerpunkt geistige Entwicklung","street":"Stettiner Straße 1","zip":47829,"city":"Krefeld","district":"Krefeld","tel":"02151/652090","fax":"02151/65209123","mail":"mail@bodelschwinghschule-krefeld.de","web":"http://www.slfvb.krefeld.schulen.net/","lat":51.363068,"lng":6.617887},"geometry":{"type":"Point","coordinates":[6.617887,51.363068]}},{"type":"Feature","properties":{"title":"LVR-Luise-Leven-Schule","description":"LVR-Förderschule Lobbericher Straße, Schwerpunkt Hören und Kommunikation","street":"Lobbericher Straße 18","zip":47839,"city":"Krefeld","district":"Krefeld","tel":"02151/656080","fax":"02151/65608119","mail":"fshk-krefeld@lvr.de","web":"http://www.luise-leven-schule.lvr.de/","lat":51.371089,"lng":6.496607},"geometry":{"type":"Point","coordinates":[6.496607,51.371089]}},{"type":"Feature","properties":{"title":"Franz-Stollwerck-Schule","description":"Förderschule Tulpenstraße, Schwerpunkt Lernen, Sprache, emotionale und soziale Entwicklung (Primarstufe)","street":"Tulpenstraße 11","zip":47800,"city":"Krefeld","district":"Krefeld","tel":"02151/512050","fax":"02151/51205205","mail":"186582@schule.nrw.de","web":"https://www.krefeld.de/de/schulverzeichnis/franz-stollwerck-schule/","lat":51.341972,"lng":6.614225},"geometry":{"type":"Point","coordinates":[6.614225,51.341972]}},{"type":"Feature","properties":{"title":"LVR-Gerd-Jansen-Schule","description":"LVR-Förderschule Luiter Weg, Schwerpunkt körperliche und motorische Entwicklung","street":"Luiter Weg 8","zip":47802,"city":"Krefeld","district":"Krefeld","tel":"02151/96510","fax":"02151/9651201","mail":"gerd-jansen-schule@lvr.de","web":"http://www.gerd-jansen-schule.lvr.de/","lat":51.371142,"lng":6.572807},"geometry":{"type":"Point","coordinates":[6.572807,51.371142]}},{"type":"Feature","properties":{"title":"Schule am Uerdinger Rundweg","description":"Förderschule Rundweg, Schwerpunkt Lernen, Sprache, emotionale und soziale Entwicklung (Sekundarstufe I)","street":"Rundweg 10","zip":47829,"city":"Krefeld","district":"Krefeld","tel":"02151/481970","fax":"02151/1559755","mail":"info@schule-am-rundweg.de","web":"http://www.schule-am-rundweg.de/","lat":51.350577,"lng":6.640533},"geometry":{"type":"Point","coordinates":[6.640533,51.350577]}},{"type":"Feature","properties":{"title":"Erich Kästner Schule","description":"Förderschule Inrather Straße, Schwerpunkt Lernen, Sprache, emotionale und soziale Entwicklung (Sekundarstufe I)","street":"Inrather Straße 611","zip":47803,"city":"Krefeld","district":"Krefeld","tel":"02151/159900","fax":"02151/1599025","mail":"keks-krefeld@t-online.de","web":"http://www.eks-krefeld.de/","lat":51.356812,"lng":6.532878},"geometry":{"type":"Point","coordinates":[6.532878,51.356812]}},{"type":"Feature","properties":{"title":"Christophorusschule","description":"Städtische Schule für Kranke Lutherplatz, Schule für somatisch erkrankte Schüler im HELIOS Klinikum Krefeld","street":"Lutherplatz 40","zip":47805,"city":"Krefeld","district":"Krefeld","tel":"02151/322381","fax":"02151/322380","mail":"185036@schule.nrw.de","web":"http://www.slsfk.krefeld.schulen.net/","lat":51.32005,"lng":6.565773},"geometry":{"type":"Point","coordinates":[6.565773,51.32005]}},{"type":"Feature","properties":{"title":"Friedrich-von-Bodelschwingh-Schule (Nebengebäude)","description":"Förderschule Stettiner Straße, Schwerpunkt geistige Entwicklung","street":"Alte Flur 21","zip":47809,"city":"Krefeld","district":"Krefeld","tel":"02151/541545","fax":"02151/544067","mail":"mail@bodelschwinghschule-krefeld.de","web":"http://www.slfvb.krefeld.schulen.net/","lat":51.325154,"lng":6.600544},"geometry":{"type":"Point","coordinates":[6.600544,51.325154]}}]}