{"type":"FeatureCollection","features":[{"type":"Feature","properties":{"title":"Seniorenzentrum Am Bismarckviertel","description":"Senioren Wohnpark Weser GmbH","street":"Uerdinger Straße 140","zip":47799,"city":"Krefeld","district":"Krefeld","tel":"02151/623900","fax":"02151/6239020","mail":"seniorenzentrum-bismarckviertel@wohnpark-weser.de","web":"http://www.wohnpark-weser.de/wohnpark/detailansicht_haeuser.php?objekt=79","lat":51.337161,"lng":6.579914},"geometry":{"type":"Point","coordinates":[6.579914,51.337161]}},{"type":"Feature","properties":{"title":"Belia-Seniorenresidenz Krefeld","description":"Belia Seniorenresidenzen GmbH","street":"Blumenstraße 172","zip":47798,"city":"Krefeld","district":"Krefeld","tel":"02151/73810","fax":"","mail":"krefeld@belia.de","web":"http://www.belia.de/krefeld/die-seniorenresidenz/lage-umgebung/","lat":51.328275,"lng":6.547662},"geometry":{"type":"Point","coordinates":[6.547662,51.328275]}},{"type":"Feature","properties":{"title":"Altenheim am Tiergarten","description":"Evangelische Altenhilfe der Diakonie in Krefeld gGmbH","street":"Rote-Kreuz-Straße 31","zip":47800,"city":"Krefeld","district":"Krefeld","tel":"02151/5830","fax":"","mail":"michael-lenzen@ev-altenhilfe-krefeld.de","web":"http://www.evangelische-altenhilfe-krefeld.de/altenheim-am-tiergarten/","lat":51.336133,"lng":6.591058},"geometry":{"type":"Point","coordinates":[6.591058,51.336133]}},{"type":"Feature","properties":{"title":"Fischers-Meyser-Stift","description":"Städtische Seniorenheime Krefeld gGmbH","street":"Am Beckshof 11","zip":47839,"city":"Krefeld","district":"Krefeld","tel":"02151/3652103","fax":"02151/3652102","mail":"irene.lavendel@sh-kr.de","web":"http://seniorenheime-krefeld.de/unsere-haeuser/fischers-meyser-stift/","lat":51.374594,"lng":6.508753},"geometry":{"type":"Point","coordinates":[6.508753,51.374594]}},{"type":"Feature","properties":{"title":"Anna-Deckers-Haus","description":"Kurzzeitpflege","street":"Jungfernweg 1","zip":47799,"city":"Krefeld","district":"Krefeld","tel":"02151/37470","fax":"02151/374710","mail":"","web":"http://www.mon.de/nr/anna-deckers-haus/home.htm","lat":51.337507,"lng":6.567357},"geometry":{"type":"Point","coordinates":[6.567357,51.337507]}},{"type":"Feature","properties":{"title":"Pauly-Stiftung","description":"Katholische Gemeinde Papst Johannes XXIII.","street":"Weberstraße 9","zip":47798,"city":"Krefeld","district":"Krefeld","tel":"02151/80650","fax":"02151/806590","mail":"info@pauly-stiftung.de","web":"http://www.pauly-stiftung.de/","lat":51.338498,"lng":6.556953},"geometry":{"type":"Point","coordinates":[6.556953,51.338498]}},{"type":"Feature","properties":{"title":"Kunigundenheim","description":"Krefelder Caritasheime gGmbH","street":"Heinrich-Theißen-Straße 10","zip":47829,"city":"Krefeld","district":"Krefeld","tel":"02151/49430","fax":"02151/494342","mail":"kunigundenheim@caritas-krefeld.de","web":"http://www.caritas-krefeld.de/einrichtungen-angebote/pflege-und-betreuung/altenheime/kunigundenheim/","lat":51.361492,"lng":6.64266},"geometry":{"type":"Point","coordinates":[6.64266,51.361492]}},{"type":"Feature","properties":{"title":"SeniorenZentrum Krefeld","description":"SZK Senioren-Zentrum Krefeld gGmbH","street":"Wilmendyk 78a","zip":47803,"city":"Krefeld","district":"Krefeld","tel":"02151/8921","fax":"02151/892442","mail":"info@sz-kr.de","web":"http://www.seniorenzentrum-krefeld.de/","lat":51.349634,"lng":6.551804},"geometry":{"type":"Point","coordinates":[6.551804,51.349634]}},{"type":"Feature","properties":{"title":"Kursana Residenz Krefeld","description":"Kursana Residenzen GmbH","street":"Hansastraße 115","zip":47798,"city":"Krefeld","district":"Krefeld","tel":"02151/8240","fax":"02151/824444","mail":"kursanakrefeld@dussmann.de","web":"http://www.kursana.de/krefeld/","lat":51.326355,"lng":6.567613},"geometry":{"type":"Point","coordinates":[6.567613,51.326355]}},{"type":"Feature","properties":{"title":"Gerhard-Tersteegen-Haus","description":"Neukirchener Erziehungsverein","street":"Virchowstraße 109","zip":47805,"city":"Krefeld","district":"Krefeld","tel":"02151/8208511","fax":"02151/8208557","mail":"info@neukirchener.de","web":"http://www.neukirchener.de/Arbeitsbereiche/Altenhilfe/Gerhard_Tersteegen_Haus/index.html","lat":51.323769,"lng":6.573234},"geometry":{"type":"Point","coordinates":[6.573234,51.323769]}},{"type":"Feature","properties":{"title":"Gösta-Blomberg-Haus Pflegezentrum","description":"Die Heilsarmee KöR","street":"Voltastraße 50","zip":47805,"city":"Krefeld","district":"Krefeld","tel":"02151/937260","fax":"02151/9372626","mail":"krefeldgbh@heilsarmee.de","web":"https://www.heilsarmee.de/goestablomberghaus/","lat":51.32576,"lng":6.579034},"geometry":{"type":"Point","coordinates":[6.579034,51.32576]}},{"type":"Feature","properties":{"title":"Haus im Park","description":"Evangelische Altenhilfe der Diakonie in Krefeld gGmbH","street":"Zeppelinstraße 11","zip":47829,"city":"Krefeld","district":"Krefeld","tel":"02151/931700","fax":"","mail":"dörthe-krüger@ev-altenhilfe-krefeld.de","web":"http://www.evangelische-altenhilfe-krefeld.de/haus-im-park/","lat":51.358556,"lng":6.631035},"geometry":{"type":"Point","coordinates":[6.631035,51.358556]}},{"type":"Feature","properties":{"title":"Altenheim Westwall","description":"Evangelische Altenhilfe der Diakonie in Krefeld gGmbH","street":"Westwall 108","zip":47798,"city":"Krefeld","district":"Krefeld","tel":"02151/8460","fax":"","mail":"stephan-kluthausen@ev-altenhilfe-krefeld.de","web":"http://www.evangelische-altenhilfe-krefeld.de/altenheim-westwall/","lat":51.332167,"lng":6.558391},"geometry":{"type":"Point","coordinates":[6.558391,51.332167]}},{"type":"Feature","properties":{"title":"St. Lazarus Haus Krefeld","description":"Lazarus Haus Hüls gGmbh des Lazarus-Hilfswerks in Deutschland e.V.","street":"Kempener Straße 31","zip":47839,"city":"Krefeld","district":"Krefeld","tel":"02151/7460","fax":"02151/746144","mail":"haus.krefeld@lazarus.de","web":"http://www.lazarus.de/hauskrefeld.html","lat":51.37319,"lng":6.505536},"geometry":{"type":"Point","coordinates":[6.505536,51.37319]}},{"type":"Feature","properties":{"title":"Marienheim","description":"Krefelder Caritasheime gGmbH","street":"Johannesplatz 28","zip":47805,"city":"Krefeld","district":"Krefeld","tel":"02151/33890","fax":"02151/338969","mail":"marienheim@caritas-krefeld.de","web":"http://www.caritas-krefeld.de/einrichtungen-angebote/pflege-und-betreuung/altenheime/marienheim/","lat":51.318973,"lng":6.570328},"geometry":{"type":"Point","coordinates":[6.570328,51.318973]}},{"type":"Feature","properties":{"title":"Alten- und Pflegeheim Gatherhof","description":"Der Paritätische","street":"Ibelskathweg 7","zip":47804,"city":"Krefeld","district":"Krefeld","tel":"02151/710529","fax":"02151/972407","mail":"pdl@gatherhof.de","web":"http://www.gatherhof.de/content/e749/","lat":51.322368,"lng":6.524286},"geometry":{"type":"Point","coordinates":[6.524286,51.322368]}},{"type":"Feature","properties":{"title":"Saassenhof","description":"Krefelder Caritasheime gGmbH","street":"Clemensstraße 15","zip":47807,"city":"Krefeld","district":"Krefeld","tel":"02151/93000","fax":"02151/930069","mail":"saassenhof@caritas-krefeld.de","web":"http://www.caritas-krefeld.de/einrichtungen-angebote/pflege-und-betreuung/altenheime/saassenhof/","lat":51.30266,"lng":6.588466},"geometry":{"type":"Point","coordinates":[6.588466,51.30266]}},{"type":"Feature","properties":{"title":"Altenheim St. Josef","description":"Krefelder Caritasheime gGmbH","street":"Tannenstraße 138","zip":47798,"city":"Krefeld","district":"Krefeld","tel":"02151/645430","fax":"02151/6454391","mail":"josefshaus@caritas-krefeld.de","web":"http://www.caritas-krefeld.de/einrichtungen-angebote/pflege-und-betreuung/altenheime/altenheim-st.-josef/","lat":51.327655,"lng":6.558731},"geometry":{"type":"Point","coordinates":[6.558731,51.327655]}},{"type":"Feature","properties":{"title":"Altenheim Wilhelmshof","description":"Evangelische Altenhilfe der Diakonie in Krefeld gGmbH","street":"Wilhelmshofallee 110","zip":47800,"city":"Krefeld","district":"Krefeld","tel":"02151/5870","fax":"","mail":"frederik-caljkusic@ev-altenhilfe-krefeld.de","web":"http://www.evangelische-altenhilfe-krefeld.de/altenheim-wilhelmshof/","lat":51.348146,"lng":6.582694},"geometry":{"type":"Point","coordinates":[6.582694,51.348146]}},{"type":"Feature","properties":{"title":"Dreikönigenhaus","description":"Neukirchener Erziehungsverein","street":"Dreikönigenstraße 54","zip":47799,"city":"Krefeld","district":"Krefeld","tel":"02151/62770","fax":"02151/627777","mail":"info@neukirchener.de","web":"https://www.neukirchener.de/arbeitsbereiche/altenhilfe/dreikoenigenhaus/","lat":51.330528,"lng":6.568492},"geometry":{"type":"Point","coordinates":[6.568492,51.330528]}},{"type":"Feature","properties":{"title":"Seniorenheim Bischofstraße","description":"Städtische Seniorenheime Krefeld gGmbH","street":"Bischofstraße 10","zip":47809,"city":"Krefeld","district":"Krefeld","tel":"02151/6504710","fax":"02151/6504714","mail":"juergen.ortmanns@sh-kr.de","web":"http://seniorenheime-krefeld.de/unsere-haeuser/seniorenheim-bischofstrasse/","lat":51.327779,"lng":6.616966},"geometry":{"type":"Point","coordinates":[6.616966,51.327779]}},{"type":"Feature","properties":{"title":"Altenheim im Hansa-Haus","description":"Krefelder Caritasheime gGmbH, auch Kurzzeitpflege","street":"Am Hauptbahnhof 2","zip":47798,"city":"Krefeld","district":"Krefeld","tel":"02151/820090","fax":"02151/8200999","mail":"altenheim-hansa-haus@caritas-krefeld.de","web":"http://www.caritas-krefeld.de/einrichtungen-angebote/aeltere-menschen/altenheime/altenheim-im-hansa-haus/","lat":51.326131,"lng":6.568437},"geometry":{"type":"Point","coordinates":[6.568437,51.326131]}},{"type":"Feature","properties":{"title":"Seniorenheim Linn","description":"Städtische Seniorenheime Krefeld gGmbH","street":"Quartelkämpchen 52","zip":47809,"city":"Krefeld","district":"Krefeld","tel":"02151/7374103","fax":"02151/7374102","mail":"jm.kakkattil@sh-kr.de","web":"http://seniorenheime-krefeld.de/unsere-haeuser/seniorenheim-linn/","lat":51.339329,"lng":6.643554},"geometry":{"type":"Point","coordinates":[6.643554,51.339329]}},{"type":"Feature","properties":{"title":"Landhaus Maria Schutz","description":"Krefelder Caritasheime gGmbH","street":"Maria-Sohmann-Straße 45","zip":47802,"city":"Krefeld","district":"Krefeld","tel":"02151/6546810","fax":"02151/6546868","mail":"maria-schutz@caritas-krefeld.de","web":"http://www.caritas-krefeld.de/einrichtungen-angebote/pflege-und-betreuung/altenheime/landhaus-maria-schutz/","lat":51.377173,"lng":6.578511},"geometry":{"type":"Point","coordinates":[6.578511,51.377173]}},{"type":"Feature","properties":{"title":"Haus Raphael","description":"St. Augustinus Seniorenhilfe gGmbH, gerontopsychiatrisches Pflegeheim","street":"Am Dreifaltigkeitskloster 16","zip":47807,"city":"Krefeld","district":"Krefeld","tel":"02151/8231350","fax":"02151/8231351","mail":"info@haus-raphael-krefeld.de","web":"http://www.haus-raphael-krefeld.de/","lat":51.314626,"lng":6.574363},"geometry":{"type":"Point","coordinates":[6.574363,51.314626]}},{"type":"Feature","properties":{"title":"Cornelius-de-Greiff-Stift","description":"Städtische Seniorenheime Krefeld gGmbH","street":"Mengelbergstraße 4","zip":47803,"city":"Krefeld","district":"Krefeld","tel":"02151/56538103","fax":"02151/56538104","mail":"malte.wulbrand@sh-kr.de","web":"http://seniorenheime-krefeld.de/unsere-haeuser/cornelius-de-greiff-stift/","lat":51.33935,"lng":6.537755},"geometry":{"type":"Point","coordinates":[6.537755,51.33935]}}]}