{"type":"FeatureCollection","features":[{"type":"Feature","properties":{"title":"Sportplatz Fungendonk","description":"","street":"Fungendonk 31","zip":47809,"city":"Krefeld","district":"Krefeld","tel":"02151/540787","fax":"","mail":"","web":"http://www.krefeld.de/sport-und-baeder","lat":51.320022,"lng":6.614095},"geometry":{"type":"Point","coordinates":[6.614095,51.320022]}},{"type":"Feature","properties":{"title":"Bezirkssportanlage Fischeln","description":"","street":"Kölner Straße 368a","zip":47807,"city":"Krefeld","district":"Krefeld","tel":"02151/397409","fax":"","mail":"","web":"http://www.krefeld.de/sport-und-baeder","lat":51.311347,"lng":6.583647},"geometry":{"type":"Point","coordinates":[6.583647,51.311347]}},{"type":"Feature","properties":{"title":"Bezirkssportanlage Reinersweg","description":"","street":"Reinersweg","zip":47805,"city":"Krefeld","district":"Krefeld","tel":"02151/398294","fax":"","mail":"","web":"http://www.krefeld.de/sport-und-baeder","lat":51.314982,"lng":6.564805},"geometry":{"type":"Point","coordinates":[6.564805,51.314982]}},{"type":"Feature","properties":{"title":"Grotenburg-Stadion","description":"","street":"Tiergartenstraße 165","zip":47800,"city":"Krefeld","district":"Krefeld","tel":"02151/591200","fax":"","mail":"","web":"http://www.krefeld.de/sport-und-baeder","lat":51.338922,"lng":6.603644},"geometry":{"type":"Point","coordinates":[6.603644,51.338922]}},{"type":"Feature","properties":{"title":"Sportpark Oppum","description":"","street":"Am Holderspfad 200","zip":47809,"city":"Krefeld","district":"Krefeld","tel":"02151/540966","fax":"","mail":"","web":"http://www.krefeld.de/sport-und-baeder","lat":51.325185,"lng":6.624839},"geometry":{"type":"Point","coordinates":[6.624839,51.325185]}},{"type":"Feature","properties":{"title":"Bezirkssportanlage Horkesgath","description":"","street":"Horkesgath 15","zip":47803,"city":"Krefeld","district":"Krefeld","tel":"02151/756981","fax":"","mail":"","web":"http://www.krefeld.de/sport-und-baeder","lat":51.338247,"lng":6.531942},"geometry":{"type":"Point","coordinates":[6.531942,51.338247]}},{"type":"Feature","properties":{"title":"Bezirkssportanlage Kaiser-Wilhelm-Park","description":"","street":"Westparkstraße 7","zip":47803,"city":"Krefeld","district":"Krefeld","tel":"02151/761386","fax":"","mail":"","web":"http://www.krefeld.de/sport-und-baeder","lat":51.337927,"lng":6.550334},"geometry":{"type":"Point","coordinates":[6.550334,51.337927]}},{"type":"Feature","properties":{"title":"Erholungspark Elfrather See (Sport- und Freizeitgelände)","description":"","street":"Parkstraße","zip":47829,"city":"Krefeld","district":"Krefeld","tel":"02151/471009","fax":"","mail":"","web":"http://www.krefeld.de/sportundbaeder","lat":51.38804,"lng":6.627898},"geometry":{"type":"Point","coordinates":[6.627898,51.38804]}},{"type":"Feature","properties":{"title":"Bezirkssportanlage Uerdingen","description":"","street":"Rundweg 14","zip":47829,"city":"Krefeld","district":"Krefeld","tel":"02151/481280","fax":"","mail":"sportundbaeder@krefeld.de","web":"http://www.krefeld.de/sport-und-baeder","lat":51.349022,"lng":6.640196},"geometry":{"type":"Point","coordinates":[6.640196,51.349022]}},{"type":"Feature","properties":{"title":"Gerd-Wellen-Hockeyanlage (Crefelder Hockey- und Tennis-Club 1890 e.V.)","description":"","street":"Hüttenallee 265","zip":47800,"city":"Krefeld","district":"Krefeld","tel":"02151/593744","fax":"02151/593874","mail":"info@chtc.de","web":"http://www.chtc.de","lat":51.359768,"lng":6.598626},"geometry":{"type":"Point","coordinates":[6.598626,51.359768]}},{"type":"Feature","properties":{"title":"Bezirkssportanlage Linn","description":"","street":"Kurkölner Straße 30","zip":47809,"city":"Krefeld","district":"Krefeld","tel":"02151/573302","fax":"","mail":"","web":"http://www.krefeld.de/sport-und-baeder","lat":51.330272,"lng":6.636918},"geometry":{"type":"Point","coordinates":[6.636918,51.330272]}},{"type":"Feature","properties":{"title":"Hockeyanlage CSV Marathon 1910 e.V.","description":"","street":"Horkesgath 30","zip":47803,"city":"Krefeld","district":"Krefeld","tel":"02151/7818636","fax":"","mail":"geschaeftsstelle@csv-marathon.de","web":"http://www.csv-marathon-krefeld.de","lat":51.336621,"lng":6.532405},"geometry":{"type":"Point","coordinates":[6.532405,51.336621]}},{"type":"Feature","properties":{"title":"Hubert-Houben-Kampfbahn","description":"","street":"Appellweg 3","zip":47803,"city":"Krefeld","district":"Krefeld","tel":"02151/590791","fax":"","mail":"","web":"http://www.krefeld.de/sport-und-baeder","lat":51.351894,"lng":6.573576},"geometry":{"type":"Point","coordinates":[6.573576,51.351894]}},{"type":"Feature","properties":{"title":"Bezirkssportanlage Randstraße","description":"","street":"Randstraße 40","zip":47804,"city":"Krefeld","district":"Krefeld","tel":"02151/713460","fax":"","mail":"","web":"http://www.krefeld.de/sport-und-baeder","lat":51.317259,"lng":6.541466},"geometry":{"type":"Point","coordinates":[6.541466,51.317259]}},{"type":"Feature","properties":{"title":"Bezirkssportanlage Bockum","description":"","street":"Prozessionsweg 15","zip":47800,"city":"Krefeld","district":"Krefeld","tel":"02151/598476","fax":"","mail":"","web":"http://www.krefeld.de/sport-und-baeder","lat":51.353973,"lng":6.612579},"geometry":{"type":"Point","coordinates":[6.612579,51.353973]}},{"type":"Feature","properties":{"title":"Bezirkssportanlage Gladbacher Straße (Edelstahlkampfbahn)","description":"","street":"Gladbacher Straße 601","zip":47805,"city":"Krefeld","district":"Krefeld","tel":"02151/397978","fax":"","mail":"","web":"http://www.krefeld.de/sport-und-baeder","lat":51.308833,"lng":6.546013},"geometry":{"type":"Point","coordinates":[6.546013,51.308833]}},{"type":"Feature","properties":{"title":"Bezirkssportanlage Schroersdyk","description":"","street":"Schroersdyk 62","zip":47803,"city":"Krefeld","district":"Krefeld","tel":"02151/756864","fax":"","mail":"","web":"http://www.krefeld.de/sport-und-baeder","lat":51.356478,"lng":6.547184},"geometry":{"type":"Point","coordinates":[6.547184,51.356478]}},{"type":"Feature","properties":{"title":"Sportplatz Bellenweg","description":"","street":"Bellenweg 50","zip":47804,"city":"Krefeld","district":"Krefeld","tel":"02151/312603","fax":"","mail":"","web":"http://www.krefeld.de/sport-und-baeder","lat":51.303022,"lng":6.50671},"geometry":{"type":"Point","coordinates":[6.50671,51.303022]}},{"type":"Feature","properties":{"title":"Bezirkssportanlage Elfrath","description":"","street":"Zur Eibe","zip":47802,"city":"Krefeld","district":"Krefeld","tel":"02151/475337","fax":"","mail":"","web":"http://www.krefeld.de/sport-und-baeder","lat":51.369034,"lng":6.612727},"geometry":{"type":"Point","coordinates":[6.612727,51.369034]}},{"type":"Feature","properties":{"title":"Bezirkssportanlage Hüls","description":"","street":"Hölschen Dyk 46","zip":47839,"city":"Krefeld","district":"Krefeld","tel":"02151/731187","fax":"","mail":"","web":"http://www.krefeld.de/sport-und-baeder","lat":51.37531,"lng":6.522212},"geometry":{"type":"Point","coordinates":[6.522212,51.37531]}},{"type":"Feature","properties":{"title":"Sportplatz Reepenweg","description":"","street":"Reepenweg 40","zip":47839,"city":"Krefeld","district":"Krefeld","tel":"02151/736021","fax":"","mail":"","web":"http://www.krefeld.de/sport-und-baeder","lat":51.370674,"lng":6.495409},"geometry":{"type":"Point","coordinates":[6.495409,51.370674]}},{"type":"Feature","properties":{"title":"Bezirkssportanlage Sprödental","description":"","street":"Sprödentalstraße 15","zip":47799,"city":"Krefeld","district":"Krefeld","tel":"02151/66050","fax":"","mail":"","web":"http://www.krefeld.de/sport-und-baeder","lat":51.334826,"lng":6.58695},"geometry":{"type":"Point","coordinates":[6.58695,51.334826]}},{"type":"Feature","properties":{"title":"Sportplatz Hegmannsloch","description":"","street":"Hegmannsloch","zip":47839,"city":"Krefeld","district":"Krefeld","tel":"02151/735052","fax":"","mail":"","web":"http://www.krefeld.de/sport-und-baeder","lat":51.380481,"lng":6.50165},"geometry":{"type":"Point","coordinates":[6.50165,51.380481]}},{"type":"Feature","properties":{"title":"Bezirkssportanlage Traar","description":"","street":"Buscher Holzweg 50","zip":47802,"city":"Krefeld","district":"Krefeld","tel":"02151/562830","fax":"","mail":"sportundbaeder@krefeld.de","web":"http://www.krefeld.de/sport-und-baeder","lat":51.374797,"lng":6.591331},"geometry":{"type":"Point","coordinates":[6.591331,51.374797]}},{"type":"Feature","properties":{"title":"Sportpark Bayer Uerdingen (Bayer-Stadion) (SC Bayer 05 Uerdingen e.V.)","description":"","street":"Löschenhofweg 30","zip":47829,"city":"Krefeld","district":"Krefeld","tel":"02151/4446333","fax":"","mail":"info@scbayer05.de","web":"http://www.scbayer05.sport-id.de","lat":51.361292,"lng":6.63359},"geometry":{"type":"Point","coordinates":[6.63359,51.361292]}},{"type":"Feature","properties":{"title":"Bezirkssportanlage Gellep","description":"","street":"Kaiserswerther Straße 149","zip":47809,"city":"Krefeld","district":"Krefeld","tel":"02151/571000","fax":"","mail":"","web":"http://www.krefeld.de/sport-und-baeder","lat":51.331394,"lng":6.666712},"geometry":{"type":"Point","coordinates":[6.666712,51.331394]}}]}