{"type":"FeatureCollection","features":[{"type":"Feature","properties":{"title":"Badezentrum Bockum","description":"","street":"Am Badezentrum 2","zip":47800,"city":"Krefeld","district":"Krefeld","tel":"02151/590041","fax":"","mail":"sportundbaeder@krefeld.de","web":"http://www.krefeld.de/sport-und-baeder","lat":51.350682,"lng":6.613387},"geometry":{"type":"Point","coordinates":[6.613387,51.350682]}},{"type":"Feature","properties":{"title":"Lehrbad Stettiner Straße (Hallenbad)","description":"","street":"Stettiner Straße 1","zip":47829,"city":"Krefeld","district":"Krefeld","tel":"02151/470868","fax":"","mail":"","web":"http://www.krefeld.de/sport-und-baeder","lat":51.362723,"lng":6.618878},"geometry":{"type":"Point","coordinates":[6.618878,51.362723]}},{"type":"Feature","properties":{"title":"Naturfreibad Hüls","description":"","street":"Hölschen Dyk 30","zip":47839,"city":"Krefeld","district":"Krefeld","tel":"02151/733574","fax":"","mail":"","web":"http://www.krefeld.de/sport-und-baeder","lat":51.375565,"lng":6.516985},"geometry":{"type":"Point","coordinates":[6.516985,51.375565]}},{"type":"Feature","properties":{"title":"Stadtbad Uerdingen (Hallenbad)","description":"","street":"Kurfürstenstraße 18","zip":47829,"city":"Krefeld","district":"Krefeld","tel":"02151/481937","fax":"","mail":"sportundbaeder@krefeld.de","web":"https://www.krefeld.de/de/fb-52/stadtbad-uerdingen/","lat":51.355682,"lng":6.647024},"geometry":{"type":"Point","coordinates":[6.647024,51.355682]}},{"type":"Feature","properties":{"title":"Schwimmbad SVK (Freibad) (Schwimm-Vereinigung Krefeld 1972 e.V.)","description":"","street":"Palmstraße 8","zip":47803,"city":"Krefeld","district":"Krefeld","tel":"02151/592393","fax":"02151/592392","mail":"svk@svk72.de","web":"http://www.svk72.de","lat":51.3534,"lng":6.572768},"geometry":{"type":"Point","coordinates":[6.572768,51.3534]}},{"type":"Feature","properties":{"title":"Bad am Stadtpark Fischeln (Hallenbad)","description":"","street":"Kölner Straße 415","zip":47807,"city":"Krefeld","district":"Krefeld","tel":"02151/150460","fax":"","mail":"sportundbaeder@krefeld.de","web":"http://www.krefeld.de/sport-und-baeder","lat":51.309004,"lng":6.582853},"geometry":{"type":"Point","coordinates":[6.582853,51.309004]}},{"type":"Feature","properties":{"title":"Lehrschwimmbad Linn (Hallenbad)","description":"","street":"Danziger Platz 1","zip":47809,"city":"Krefeld","district":"Krefeld","tel":"02151/572961","fax":"","mail":"sportundbaeder@krefeld.de","web":"http://www.krefeld.de/sport-und-baeder","lat":51.335427,"lng":6.643459},"geometry":{"type":"Point","coordinates":[6.643459,51.335427]}},{"type":"Feature","properties":{"title":"Erholungspark Elfrather See (Freibad)","description":"","street":"Bruchweg 26/28","zip":47829,"city":"Krefeld","district":"Krefeld","tel":"02151/471009","fax":"","mail":"","web":"http://www.krefeld.de/sportundbaeder","lat":51.38441,"lng":6.629243},"geometry":{"type":"Point","coordinates":[6.629243,51.38441]}},{"type":"Feature","properties":{"title":"Schwimmbad Aegir (Freibad) (SSF Aegir Uerdingen 07 e.V.)","description":"","street":"Duisburger Straße 383","zip":47829,"city":"Krefeld","district":"Krefeld","tel":"02151/481212","fax":"","mail":"ssf.aegir@t-online.de","web":"http://www.aegir-uerdingen.de","lat":51.379445,"lng":6.649204},"geometry":{"type":"Point","coordinates":[6.649204,51.379445]}},{"type":"Feature","properties":{"title":"Sommerbad Neptun (Freibad) (SV Neptun e.V.)","description":"","street":"Mühlenfeld 121","zip":47807,"city":"Krefeld","district":"Krefeld","tel":"02151/311150","fax":"","mail":"","web":"http://www.svneptun.de","lat":51.308925,"lng":6.573665},"geometry":{"type":"Point","coordinates":[6.573665,51.308925]}},{"type":"Feature","properties":{"title":"Schwimmbad Bayer (Frei- und Hallenbad) (SV Bayer 08 e.V.)","description":"","street":"Am Waldsee 27","zip":47829,"city":"Krefeld","district":"Krefeld","tel":"02151/46055","fax":"02151/474083","mail":"","web":"http://www.svbayer08.de","lat":51.380974,"lng":6.650352},"geometry":{"type":"Point","coordinates":[6.650352,51.380974]}}]}