{"type":"FeatureCollection","features":[{"type":"Feature","properties":{"title":"Theater Krefeld (Theater Krefeld und Mönchengladbach gGmbH)","description":"Theater der Städte Krefeld und Mönchengladbach, Schauspiel, Oper, Musiktheater, Ballett und Sinfoniekonzerte","street":"Theaterplatz 3","zip":47798,"city":"Krefeld","district":"Krefeld","tel":"02151/805125","fax":"","mail":"theaterkasse-kr@theater-kr-mg.de","web":"http://www.theater-kr-mg.de/","lat":51.335445,"lng":6.563555},"geometry":{"type":"Point","coordinates":[6.563555,51.335445]}},{"type":"Feature","properties":{"title":"KRESCHtheater","description":"Kinder- und Jugendtheaterzentrum der Stadt Krefeld in der Fabrik Heeder","street":"Virchowstraße 130","zip":47805,"city":"Krefeld","district":"Krefeld","tel":"02151/862626","fax":"02151/862636","mail":"kresch@krefeld.de","web":"http://www.kresch.de/","lat":51.322933,"lng":6.572502},"geometry":{"type":"Point","coordinates":[6.572502,51.322933]}},{"type":"Feature","properties":{"title":"Theater am Marienplatz (TAM)","description":"Theater mit Aufführungen von Werken meist zeitgenössischer Literaten und Komponisten","street":"Marienstraße 81","zip":47807,"city":"Krefeld","district":"Krefeld","tel":"02151/305273","fax":"02151/307477","mail":"","web":"http://www.tamkrefeld.de/","lat":51.304582,"lng":6.584632},"geometry":{"type":"Point","coordinates":[6.584632,51.304582]}},{"type":"Feature","properties":{"title":"Theater Blaues Haus (Puppentheater)","description":"Stella Jabben und Volker Schrills, Aufführungen für Kinder und Erwachsene","street":"Tönisberger Straße 64","zip":47839,"city":"Krefeld","district":"Krefeld","tel":"02151/5662567","fax":"","mail":"info@theaterblaueshaus.de","web":"http://www.theaterblaueshaus.de/","lat":51.376315,"lng":6.506774},"geometry":{"type":"Point","coordinates":[6.506774,51.376315]}},{"type":"Feature","properties":{"title":"Generations-Theater Die Herbstzeitmimen (Werkhaus e.V.)","description":"Theatergruppe im Werkhaus von Menschen über 50 Jahren","street":"Blücherstraße 11","zip":47799,"city":"Krefeld","district":"Krefeld","tel":"02151/801211","fax":"","mail":"info@werkbuehne-krefeld.de","web":"http://werkhaus-krefeld.de/category/projekte-und-werkstaetten/die-herbstzeitmimen/","lat":51.332305,"lng":6.577941},"geometry":{"type":"Point","coordinates":[6.577941,51.332305]}},{"type":"Feature","properties":{"title":"Krieewelsche Pappköpp (Marionettentheater)","description":"Figuren-Kleinkunsttheater in Krefelder Mundart","street":"Peter-Lauten-Straße 62","zip":47803,"city":"Krefeld","district":"Krefeld","tel":"02151/778567","fax":"","mail":"webmaster@krieewelsche-pappkoepp.de","web":"http://www.krieewelsche-pappkoepp.de/","lat":51.33084,"lng":6.543886},"geometry":{"type":"Point","coordinates":[6.543886,51.33084]}},{"type":"Feature","properties":{"title":"Theater hintenlinks","description":"Anuschka und Peter Gutowski, Theater mit Live-Musik, Kinder- und Jugendtheater, Event-Veranstaltungen","street":"Ritterstraße 187","zip":47805,"city":"Krefeld","district":"Krefeld","tel":"02151/27318","fax":"02151/568270","mail":"info@theater-hintenlinks.de","web":"http://www.theaterhintenlinks.de/","lat":51.324939,"lng":6.572325},"geometry":{"type":"Point","coordinates":[6.572325,51.324939]}}]}