{"type":"FeatureCollection","features":[{"type":"Feature","properties":{"title":"Hochschule Niederrhein (Campus Krefeld-West, Gebäude N bis P)","description":"","street":"Frankenring 20","zip":47798,"city":"Krefeld","district":"Krefeld","tel":"02151/8220","fax":"02151/8223998","mail":"webmaster@hs-niederrhein.de","web":"http://www.hs-niederrhein.de/","lat":51.325414,"lng":6.553787},"geometry":{"type":"Point","coordinates":[6.553787,51.325414]}},{"type":"Feature","properties":{"title":"FernUniversität in Hagen, Studienzentrum Krefeld","description":"","street":"Petersstraße 120","zip":47798,"city":"Krefeld","district":"Krefeld","tel":"02151/777860","fax":"02151/787207","mail":"studienzentrum.krefeld@fernuni-hagen.de","web":"http://www.fernuni-hagen.de/stz/krefeld","lat":51.331847,"lng":6.564944},"geometry":{"type":"Point","coordinates":[6.564944,51.331847]}},{"type":"Feature","properties":{"title":"Hochschule Niederrhein (Campus Krefeld-Süd)","description":"","street":"Reinarzstraße 49","zip":47805,"city":"Krefeld","district":"Krefeld","tel":"02151/8220","fax":"02151/8223998","mail":"webmaster@hs-niederrhein.de","web":"http://www.hs-niederrhein.de","lat":51.316693,"lng":6.570741},"geometry":{"type":"Point","coordinates":[6.570741,51.316693]}},{"type":"Feature","properties":{"title":"Hochschule Niederrhein (Campus Krefeld-West, Gebäude R bis U)","description":"","street":"Adlerstraße 32","zip":47798,"city":"Krefeld","district":"Krefeld","tel":"02151/8220","fax":"02151/8223998","mail":"webmaster@hs-niederrhein.de","web":"http://www.hs-niederrhein.de/","lat":51.32387,"lng":6.55379},"geometry":{"type":"Point","coordinates":[6.55379,51.32387]}}]}