{"type":"FeatureCollection","features":[{"type":"Feature","properties":{"title":"Jugendzentrum Stahlnetz","description":"Förderverein für Kinder- und Jugendarbeit Stahldorf e.V.; montags - freitags 15:00 - 21:00","street":"Oberschlesienstraße 52","zip":47807,"city":"Krefeld","district":"Krefeld","tel":"02151/310918","fax":"02151/7830800","mail":"stahlnetz-krefeld@gmx.de","web":"https://jugendzentrum.wordpress.com/","lat":51.308202,"lng":6.555114},"geometry":{"type":"Point","coordinates":[6.555114,51.308202]}},{"type":"Feature","properties":{"title":"Marienburg","description":"Caritasverband für die Region Krefeld e.V.; montags - freitags 13:00 - 18:00","street":"Inrather Straße 345","zip":47803,"city":"Krefeld","district":"Krefeld","tel":"02151/659480","fax":"02151/842720","mail":"marienburg@caritas-krefeld.de","web":"http://www.caritas-krefeld.de/einrichtungen-angebote/kinder-und-jugendliche/marienburg/marienburg","lat":51.349686,"lng":6.543919},"geometry":{"type":"Point","coordinates":[6.543919,51.349686]}},{"type":"Feature","properties":{"title":"Jugendzentrum KaBo","description":"Katholische Kirchengemeinde St. Augustinus; freitags 17:00 - 18:00","street":"Fungendonk 14","zip":47809,"city":"Krefeld","district":"Krefeld","tel":"02151/540940","fax":"","mail":"pfarrbuero@augustinus-krefeld.de","web":"http://www.oppum-youth.de/index.php?type=special&area=1&p=articles&id=13","lat":51.318898,"lng":6.607012},"geometry":{"type":"Point","coordinates":[6.607012,51.318898]}},{"type":"Feature","properties":{"title":"Jugendtreff Lindental","description":"Sozialistische Jugend Deutschlands - Die Falken; dienstags 18:30 - 21:00, freitags 16:00 - 21:30, sonntags 17:00 - 20:00","street":"Am Kinderhort 28","zip":47804,"city":"Krefeld","district":"Krefeld","tel":"02151/710203","fax":"","mail":"geschaeftsstelle@falken-krefeld.de","web":"http://www.falken-krefeld.de/jugendtrefflindenthal/jugendtrefflindenthal.html","lat":51.318549,"lng":6.53226},"geometry":{"type":"Point","coordinates":[6.53226,51.318549]}},{"type":"Feature","properties":{"title":"Villa K - Kinder- und Jugendzentrum","description":"Internationaler Bund e.V.; montags - dienstags 14:00 - 20:00, mittwochs - freitags 14:00 - 21:00","street":"Steinstraße 147","zip":47798,"city":"Krefeld","district":"Krefeld","tel":"02151/978708","fax":"02151/978709","mail":"villak-krefeld@internationaler-bund.de","web":"http://www.internationaler-bund.de/angebote/standort/205501/8902/","lat":51.334073,"lng":6.554015},"geometry":{"type":"Point","coordinates":[6.554015,51.334073]}},{"type":"Feature","properties":{"title":"Jugendzentrum Funzel","description":"Evangelischer Gemeindeverband Krefeld; montags - donnerstags 14:30 - 18:00, 18:30 - 22:00, freitags 14:30 - 18:00, 18:30 - 23:00","street":"Breslauer Straße 6","zip":47829,"city":"Krefeld","district":"Krefeld","tel":"02151/474801","fax":"","mail":"jz-funzel@web.de","web":"http://www.gemeindeverband-krefeld.de/jugendzentrum-funzel.html","lat":51.362099,"lng":6.62288},"geometry":{"type":"Point","coordinates":[6.62288,51.362099]}},{"type":"Feature","properties":{"title":"Jugendfreizeiteinrichtung Herbertzstraße","description":"Stadt Krefeld, Fachbereich Jugendhilfe und Beschäftigungsförderung; montags - dienstags 14:00 - 20:00, mittwochs - freitags 14:00 - 21:30","street":"Herbertzstraße 205","zip":47809,"city":"Krefeld","district":"Krefeld","tel":"02151/546409","fax":"","mail":"ot-herbertzstr@t-online.de","web":"http://www.krefeld-presents.de/home/","lat":51.32417,"lng":6.598611},"geometry":{"type":"Point","coordinates":[6.598611,51.32417]}},{"type":"Feature","properties":{"title":"Jugendzentrum Fischeln","description":"Jugendzentrum Fischeln e.V.","street":"Kölner Straße 430","zip":47807,"city":"Krefeld","district":"Krefeld","tel":"02151/308898","fax":"","mail":"jz-fischeln@t-online.de","web":"https://www.facebook.com/jugendzentrum.fischeln","lat":51.308877,"lng":6.584299},"geometry":{"type":"Point","coordinates":[6.584299,51.308877]}},{"type":"Feature","properties":{"title":"Jugendhaus Friedenskirche","description":"Evangelische Friedenskirchengemeinde Krefeld","street":"Mariannenstraße 106","zip":47799,"city":"Krefeld","district":"Krefeld","tel":"02151/668822","fax":"","mail":"jugend@friedenskirche-krefeld.de","web":"http://www.friedenskirche-krefeld.de/kirche/kinder-und-jugendarbeit/","lat":51.332326,"lng":6.569429},"geometry":{"type":"Point","coordinates":[6.569429,51.332326]}},{"type":"Feature","properties":{"title":"KRETA-Mobifant - Jugendhaus Felbelstraße","description":"Trägerwerk für kirchliche Jugendarbeit; Aktionen und Projekte für Kinder und Jugendliche","street":"Felbelstraße 23","zip":47799,"city":"Krefeld","district":"Krefeld","tel":"0172/9648186","fax":"02151/858531","mail":"anfrage@kreta-krefeld.de","web":"http://www.kreta-krefeld.de/","lat":51.336641,"lng":6.567758},"geometry":{"type":"Point","coordinates":[6.567758,51.336641]}},{"type":"Feature","properties":{"title":"Kirschkamperhof","description":"Kirschkamperhof e.V.; Christliches Erlebnis-Camp für Jugendliche","street":"Luiter Weg 238","zip":47802,"city":"Krefeld","district":"Krefeld","tel":"02151/966996","fax":"02151/966998","mail":"info@kirschkamperhof.de","web":"http://kirschkamperhof.de/","lat":51.388869,"lng":6.575176},"geometry":{"type":"Point","coordinates":[6.575176,51.388869]}},{"type":"Feature","properties":{"title":"Café OJE - Jugendhaus Felbelstraße","description":"Trägerwerk für kirchliche Jugendarbeit; montags 16:00 - 18:00, dienstags 15:00 - 20:00, mittwochs - donnerstags 15:00 - 20:00, freitags 15:00 - 21:00","street":"Felbelstraße 23","zip":47799,"city":"Krefeld","district":"Krefeld","tel":"02151/858550","fax":"","mail":"info@cafe-oje.de","web":"http://www.cafe-oje.de/","lat":51.33656,"lng":6.567664},"geometry":{"type":"Point","coordinates":[6.567664,51.33656]}},{"type":"Feature","properties":{"title":"Jugendfreizeitheim St. Norbertus","description":"Katholische Kirchengemeinde Papst Johannes XXIII.","street":"Frankenring 100","zip":47798,"city":"Krefeld","district":"Krefeld","tel":"02151/773239","fax":"","mail":"johannes23-krefeld@web.de","web":"http://papst-johannes-xxxiii-krefeld.kibac.de/index.html","lat":51.328705,"lng":6.548171},"geometry":{"type":"Point","coordinates":[6.548171,51.328705]}},{"type":"Feature","properties":{"title":"Casablanca","description":"Ökumenische Kinder- & Jugendarbeit Krefeld-Oppum; montags 14:00 - 18:00, dienstags und mittwochs 15:00 - 18:00, donnerstags 15:30 - 18:00","street":"Hauptstraße 24","zip":47809,"city":"Krefeld","district":"Krefeld","tel":"02151/558520","fax":"","mail":"","web":"http://oppum-youth.de/index.php?type=special&area=1&p=articles&id=12","lat":51.328901,"lng":6.613422},"geometry":{"type":"Point","coordinates":[6.613422,51.328901]}},{"type":"Feature","properties":{"title":"Das Türmchen - Jugendzentrum am Wasserturm","description":"Verband Offene Jugendarbeit Hüls e.V.","street":"Cäcilienstraße 15","zip":47839,"city":"Krefeld","district":"Krefeld","tel":"02151/734864","fax":"","mail":"info@tuermchen.de","web":"http://www.tuermchen.de/","lat":51.370196,"lng":6.50956},"geometry":{"type":"Point","coordinates":[6.50956,51.370196]}},{"type":"Feature","properties":{"title":"Freizeitzentrum Süd","description":"Stadt Krefeld, Fachbereich Jugendhilfe und Beschäftigungsförderung; montags - freitags 13:30 - 20:00","street":"Kölner Straße 190","zip":47805,"city":"Krefeld","district":"Krefeld","tel":"02151/398844","fax":"","mail":"info@fzsued.de","web":"https://www.facebook.com/fz.sued","lat":51.318943,"lng":6.574813},"geometry":{"type":"Point","coordinates":[6.574813,51.318943]}},{"type":"Feature","properties":{"title":"Kagawa","description":"Zurzeit im Casablanca; Ökumenische Kinder- & Jugendarbeit Krefeld-Oppum; montags und mittwochs 18:00 - 21:00, dienstags 18:00 - 20:00, donnerstags 17:00 - 22:00","street":"Hauptstraße 24","zip":47809,"city":"Krefeld","district":"Krefeld","tel":"02151/558520","fax":"","mail":"","web":"http://www.oppum-youth.de/index.php?type=special&area=1&p=articles&id=11","lat":51.328994,"lng":6.61355},"geometry":{"type":"Point","coordinates":[6.61355,51.328994]}},{"type":"Feature","properties":{"title":"Canapee","description":"Katholischer Kirchengemeindeverband Krefeld-Süd; montags und freitags 15:30 - 19:00, dienstags - donnerstags 15:30 - 17:30","street":"Ispelsstraße 67a","zip":47805,"city":"Krefeld","district":"Krefeld","tel":"02151/314048","fax":"02151/317024","mail":"info@canapee.de","web":"http://www.canapee.de/","lat":51.31892,"lng":6.559797},"geometry":{"type":"Point","coordinates":[6.559797,51.31892]}},{"type":"Feature","properties":{"title":"Jugendtreff Erlöserkirche","description":"Evangelische Kirchengemeinde Alt-Krefeld; montags bis freitags 15:00 - 20:00 Uhr","street":"Forstwaldstraße 91","zip":47804,"city":"Krefeld","district":"Krefeld","tel":"02151/711646","fax":"02151/711850","mail":"info@erloeserkirche.org","web":"http://erloeserkirche.org/content/jugendtreff/","lat":51.320503,"lng":6.536906},"geometry":{"type":"Point","coordinates":[6.536906,51.320503]}},{"type":"Feature","properties":{"title":"AsK","description":"Ökumenische Kinder- & Jugendarbeit Krefeld-Oppum; dienstags 16:30 - 18:00, mittwochs 15:30 - 17:30, freitags 19:00 - 22:00, samstags ab 20:00","street":"Buschdonk 42a","zip":47809,"city":"Krefeld","district":"Krefeld","tel":"02151/544775","fax":"","mail":"","web":"http://www.oppum-youth.de/index.php?type=special&area=1&p=articles&id=8","lat":51.320296,"lng":6.604087},"geometry":{"type":"Point","coordinates":[6.604087,51.320296]}},{"type":"Feature","properties":{"title":"Jugendfreizeitstätte der Bürgerinitiative Rund um St. Josef","description":"Bürgerinitiative Rund um St. Josef e.V.","street":"Corneliusstraße 43","zip":47798,"city":"Krefeld","district":"Krefeld","tel":"02152/843840","fax":"02151/843843","mail":"s.esters@bi-krefeld.de","web":"http://bi-krefeld.de/programm/ot/","lat":51.327756,"lng":6.557613},"geometry":{"type":"Point","coordinates":[6.557613,51.327756]}},{"type":"Feature","properties":{"title":"Jugendhaus Jojo","description":"Verein Offene Jugendarbeit Uerdingen e.V., montags, mittwochs, freitags 15:00 - 20:00, dienstags 15:00 - 21:00, donnerstags 16:00 - 20:00","street":"Lübecker Weg 51","zip":47829,"city":"Krefeld","district":"Krefeld","tel":"02151/9318090","fax":"","mail":"info@jugendhaus-jojo.de","web":"http://www.jugendhaus-jojo.de/","lat":51.354968,"lng":6.634744},"geometry":{"type":"Point","coordinates":[6.634744,51.354968]}},{"type":"Feature","properties":{"title":"Spielhaus an der Dießemer Straße (SpieDie)","description":"Werkhaus e.V.","street":"Dießemer Straße 89","zip":47799,"city":"Krefeld","district":"Krefeld","tel":"02151/606763","fax":"","mail":"spiedie@werkhaus-krefeld.de","web":"http://www.werkhaus-krefeld.de/spiedie/","lat":51.333144,"lng":6.577577},"geometry":{"type":"Point","coordinates":[6.577577,51.333144]}},{"type":"Feature","properties":{"title":"Jugend- und Stadtteilhaus Schicksbaum","description":"Caritasverband für die Region Krefeld e.V.; montags 11:00 - 14:00 und 15:00 - 17:00, dienstags - donnerstags 15:00 - 20:30, freitags 15:00 - 17:30 und 18:00 - 21:00","street":"Am Kempschen Weg 4","zip":47804,"city":"Krefeld","district":"Krefeld","tel":"02151/3271930","fax":"02151/3271931","mail":"schicksbaum@caritas-krefeld.de","web":"http://www.caritas-krefeld.de/einrichtungen-angebote/kinder-und-jugendliche/jugend-und-stadtteilhaus-schicksbaum/jugend-und-stadtteilhaus-schicksbaum","lat":51.328709,"lng":6.528288},"geometry":{"type":"Point","coordinates":[6.528288,51.328709]}},{"type":"Feature","properties":{"title":"UdK","description":"Evangelische Kirchengemeinde Krefeld-Ost","street":"Schönwasserstraße 104","zip":47800,"city":"Krefeld","district":"Krefeld","tel":"02151/5189287","fax":"","mail":"udk@christus-kirche.de","web":"http://www.christus-kirche.de/index.php?option=com_content&view=article&id=148&Itemid=142","lat":51.341342,"lng":6.595052},"geometry":{"type":"Point","coordinates":[6.595052,51.341342]}}]}